<?xml version="1.0" encoding="UTF-8"?><LocationData>
  <Street>
    <NativeName>Exit to Gesher Paz Interchange</NativeName>
    <ParentName>חיפה, ישראל</ParentName>
    <Latitude>32.799188</Latitude>
    <Longitude>35.024697</Longitude>
  </Street>
  <Street>
    <NativeName>א.ד. גורדון</NativeName>
    <ParentName>חיפה, ישראל</ParentName>
    <AlternateName>גורדון</AlternateName>
    <Latitude>32.782835</Latitude>
    <Longitude>35.011799</Longitude>
  </Street>
  <Street>
    <NativeName>א.ל. זיסו</NativeName>
    <ParentName>חיפה, ישראל</ParentName>
    <Latitude>32.827842</Latitude>
    <Longitude>34.987249</Longitude>
  </Street>
  <Street>
    <NativeName>א.צ. גרינברג</NativeName>
    <ParentName>חיפה, ישראל</ParentName>
    <Latitude>32.774931</Latitude>
    <Longitude>34.990750</Longitude>
  </Street>
  <Street>
    <NativeName>אבא הלל סילבר</NativeName>
    <ParentName>חיפה, ישראל</ParentName>
    <Latitude>32.792003</Latitude>
    <Longitude>35.009772</Longitude>
  </Street>
  <Street>
    <NativeName>אבדימי</NativeName>
    <ParentName>חיפה, ישראל</ParentName>
    <Latitude>32.834563</Latitude>
    <Longitude>34.978243</Longitude>
  </Street>
  <Street>
    <NativeName>אביגדור המאירי</NativeName>
    <ParentName>חיפה, ישראל</ParentName>
    <Latitude>32.824267</Latitude>
    <Longitude>34.966323</Longitude>
  </Street>
  <Street>
    <NativeName>אביגדור עשת</NativeName>
    <ParentName>חיפה, ישראל</ParentName>
    <Latitude>32.832816</Latitude>
    <Longitude>35.060520</Longitude>
  </Street>
  <Street>
    <NativeName>אביגיל</NativeName>
    <ParentName>חיפה, ישראל</ParentName>
    <Latitude>32.795088</Latitude>
    <Longitude>34.990853</Longitude>
  </Street>
  <Street>
    <NativeName>אביר מרק</NativeName>
    <ParentName>חיפה, ישראל</ParentName>
    <Latitude>32.828804</Latitude>
    <Longitude>35.065695</Longitude>
  </Street>
  <Street>
    <NativeName>אבן אל מוקפע</NativeName>
    <ParentName>חיפה, ישראל</ParentName>
    <Latitude>32.817663</Latitude>
    <Longitude>34.985800</Longitude>
  </Street>
  <Street>
    <NativeName>אבן גבירול</NativeName>
    <ParentName>חיפה, ישראל</ParentName>
    <Latitude>32.806401</Latitude>
    <Longitude>35.006112</Longitude>
  </Street>
  <Street>
    <NativeName>אבן סינא</NativeName>
    <ParentName>חיפה, ישראל</ParentName>
    <Latitude>32.813303</Latitude>
    <Longitude>34.997867</Longitude>
  </Street>
  <Street>
    <NativeName>אבן עזרא</NativeName>
    <ParentName>חיפה, ישראל</ParentName>
    <Latitude>32.810854</Latitude>
    <Longitude>34.994067</Longitude>
  </Street>
  <Street>
    <NativeName>אבן רושד</NativeName>
    <ParentName>חיפה, ישראל</ParentName>
    <Latitude>32.816009</Latitude>
    <Longitude>34.997927</Longitude>
  </Street>
  <Street>
    <NativeName>אבנר</NativeName>
    <ParentName>חיפה, ישראל</ParentName>
    <Latitude>32.828594</Latitude>
    <Longitude>34.978292</Longitude>
  </Street>
  <Street>
    <NativeName>אברבנאל</NativeName>
    <ParentName>חיפה, ישראל</ParentName>
    <Latitude>32.830880</Latitude>
    <Longitude>35.058597</Longitude>
  </Street>
  <Street>
    <NativeName>אברהם אספיס</NativeName>
    <ParentName>חיפה, ישראל</ParentName>
    <Latitude>32.837902</Latitude>
    <Longitude>35.072238</Longitude>
  </Street>
  <Street>
    <NativeName>אברהם גולדפאדן</NativeName>
    <ParentName>חיפה, ישראל</ParentName>
    <Latitude>32.821474</Latitude>
    <Longitude>35.075453</Longitude>
  </Street>
  <Street>
    <NativeName>אברהם דנינו</NativeName>
    <ParentName>חיפה, ישראל</ParentName>
    <Latitude>32.818282</Latitude>
    <Longitude>35.066167</Longitude>
  </Street>
  <Street>
    <NativeName>אברהם הרצפלד</NativeName>
    <ParentName>חיפה, ישראל</ParentName>
    <Latitude>32.826953</Latitude>
    <Longitude>35.070217</Longitude>
  </Street>
  <Street>
    <NativeName>אברהם לייסין</NativeName>
    <ParentName>חיפה, ישראל</ParentName>
    <Latitude>32.827764</Latitude>
    <Longitude>34.982278</Longitude>
  </Street>
  <Street>
    <NativeName>אברהם לינקולן</NativeName>
    <ParentName>חיפה, ישראל</ParentName>
    <AlternateName>לינקולן</AlternateName>
    <Latitude>32.784993</Latitude>
    <Longitude>34.977148</Longitude>
  </Street>
  <Street>
    <NativeName>אברהם סכנין</NativeName>
    <ParentName>חיפה, ישראל</ParentName>
    <Latitude>32.773411</Latitude>
    <Longitude>35.014283</Longitude>
  </Street>
  <Street>
    <NativeName>אברהם קריב</NativeName>
    <ParentName>חיפה, ישראל</ParentName>
    <Latitude>32.777488</Latitude>
    <Longitude>34.992024</Longitude>
  </Street>
  <Street>
    <NativeName>אברהם</NativeName>
    <ParentName>חיפה, ישראל</ParentName>
    <Latitude>32.782166</Latitude>
    <Longitude>35.011454</Longitude>
  </Street>
  <Street>
    <NativeName>אבשלום</NativeName>
    <ParentName>חיפה, ישראל</ParentName>
    <Latitude>32.795492</Latitude>
    <Longitude>34.977134</Longitude>
  </Street>
  <Street>
    <NativeName>אגוז</NativeName>
    <ParentName>חיפה, ישראל</ParentName>
    <Latitude>32.771792</Latitude>
    <Longitude>35.007713</Longitude>
  </Street>
  <Street>
    <NativeName>אגמון</NativeName>
    <ParentName>חיפה, ישראל</ParentName>
    <Latitude>32.811520</Latitude>
    <Longitude>34.970915</Longitude>
  </Street>
  <Street>
    <NativeName>אד"ם הכהן</NativeName>
    <ParentName>חיפה, ישראל</ParentName>
    <Latitude>32.780052</Latitude>
    <Longitude>35.016588</Longitude>
  </Street>
  <Street>
    <NativeName>אדיסון</NativeName>
    <ParentName>חיפה, ישראל</ParentName>
    <Latitude>32.802618</Latitude>
    <Longitude>35.051810</Longitude>
  </Street>
  <Street>
    <NativeName>אדמונד פלג</NativeName>
    <ParentName>חיפה, ישראל</ParentName>
    <Latitude>32.823115</Latitude>
    <Longitude>34.971802</Longitude>
  </Street>
  <Street>
    <NativeName>אהבת ישראל</NativeName>
    <ParentName>חיפה, ישראל</ParentName>
    <Latitude>32.799713</Latitude>
    <Longitude>35.004223</Longitude>
  </Street>
  <Street>
    <NativeName>אהבת שלום</NativeName>
    <ParentName>חיפה, ישראל</ParentName>
    <Latitude>32.799481</Latitude>
    <Longitude>35.003046</Longitude>
  </Street>
  <Street>
    <NativeName>אהוד</NativeName>
    <ParentName>חיפה, ישראל</ParentName>
    <Latitude>32.792968</Latitude>
    <Longitude>34.988652</Longitude>
  </Street>
  <Street>
    <NativeName>אהרון צייטלין</NativeName>
    <ParentName>חיפה, ישראל</ParentName>
    <Latitude>32.816938</Latitude>
    <Longitude>35.069838</Longitude>
  </Street>
  <Street>
    <NativeName>אהרונוביץ'</NativeName>
    <ParentName>חיפה, ישראל</ParentName>
    <Latitude>32.818346</Latitude>
    <Longitude>35.070471</Longitude>
  </Street>
  <Street>
    <NativeName>אהרונסון</NativeName>
    <ParentName>חיפה, ישראל</ParentName>
    <Latitude>32.775596</Latitude>
    <Longitude>35.000172</Longitude>
  </Street>
  <Street>
    <NativeName>אוליפנט</NativeName>
    <ParentName>חיפה, ישראל</ParentName>
    <Latitude>32.801883</Latitude>
    <Longitude>34.984499</Longitude>
  </Street>
  <CityRegion>
    <NativeName>אוניברסיטת חיפה</NativeName>
    <ParentName>חיפה, ישראל</ParentName>
    <Latitude>32.762482</Latitude>
    <Longitude>35.018359</Longitude>
  </CityRegion>
  <Street>
    <NativeName>אוסטרובסקי</NativeName>
    <ParentName>חיפה, ישראל</ParentName>
    <Latitude>32.784909</Latitude>
    <Longitude>34.978611</Longitude>
  </Street>
  <Street>
    <NativeName>אוסקר שינדלר</NativeName>
    <ParentName>חיפה, ישראל</ParentName>
    <AlternateName>שינדלר</AlternateName>
    <AlternateName>שנדליר</AlternateName>
    <Latitude>32.766655</Latitude>
    <Longitude>35.013719</Longitude>
  </Street>
  <Street>
    <NativeName>אופיר</NativeName>
    <ParentName>חיפה, ישראל</ParentName>
    <Latitude>32.807506</Latitude>
    <Longitude>35.015244</Longitude>
  </Street>
  <Street>
    <NativeName>אור החיים</NativeName>
    <ParentName>חיפה, ישראל</ParentName>
    <Latitude>32.836237</Latitude>
    <Longitude>35.070425</Longitude>
  </Street>
  <Street>
    <NativeName>אורט</NativeName>
    <ParentName>חיפה, ישראל</ParentName>
    <Latitude>32.810348</Latitude>
    <Longitude>35.017231</Longitude>
  </Street>
  <Street>
    <NativeName>אורי קיסרי</NativeName>
    <ParentName>חיפה, ישראל</ParentName>
    <Latitude>32.786073</Latitude>
    <Longitude>35.021483</Longitude>
  </Street>
  <Street>
    <NativeName>אורין</NativeName>
    <ParentName>חיפה, ישראל</ParentName>
    <Latitude>32.821996</Latitude>
    <Longitude>34.992168</Longitude>
  </Street>
  <Street>
    <NativeName>אורן</NativeName>
    <ParentName>חיפה, ישראל</ParentName>
    <Latitude>32.785372</Latitude>
    <Longitude>34.993989</Longitude>
  </Street>
  <Street>
    <NativeName>אושה</NativeName>
    <ParentName>חיפה, ישראל</ParentName>
    <Latitude>32.807686</Latitude>
    <Longitude>34.997216</Longitude>
  </Street>
  <Street>
    <NativeName>אז"ר</NativeName>
    <ParentName>חיפה, ישראל</ParentName>
    <Latitude>32.786636</Latitude>
    <Longitude>35.014525</Longitude>
  </Street>
  <Street>
    <NativeName>אזמכשרי</NativeName>
    <ParentName>חיפה, ישראל</ParentName>
    <Latitude>32.801876</Latitude>
    <Longitude>35.008290</Longitude>
  </Street>
  <Street>
    <NativeName>אחד העם</NativeName>
    <ParentName>חיפה, ישראל</ParentName>
    <Latitude>32.812283</Latitude>
    <Longitude>34.994792</Longitude>
  </Street>
  <Street>
    <NativeName>אחווה</NativeName>
    <ParentName>חיפה, ישראל</ParentName>
    <Latitude>32.824385</Latitude>
    <Longitude>34.986948</Longitude>
  </Street>
  <CityRegion>
    <NativeName>אחוזה</NativeName>
    <ParentName>חיפה, ישראל</ParentName>
    <Latitude>32.785714</Latitude>
    <Longitude>34.986257</Longitude>
  </CityRegion>
  <Street>
    <NativeName>אחז</NativeName>
    <ParentName>חיפה, ישראל</ParentName>
    <Latitude>32.822548</Latitude>
    <Longitude>34.986997</Longitude>
  </Street>
  <Street>
    <NativeName>אידלסון</NativeName>
    <ParentName>חיפה, ישראל</ParentName>
    <Latitude>32.821997</Latitude>
    <Longitude>35.077999</Longitude>
  </Street>
  <Street>
    <NativeName>אידר</NativeName>
    <ParentName>חיפה, ישראל</ParentName>
    <Latitude>32.779465</Latitude>
    <Longitude>34.990832</Longitude>
  </Street>
  <Street>
    <NativeName>איטליה</NativeName>
    <ParentName>חיפה, ישראל</ParentName>
    <Latitude>32.768901</Latitude>
    <Longitude>34.998258</Longitude>
  </Street>
  <Street>
    <NativeName>אילון</NativeName>
    <ParentName>חיפה, ישראל</ParentName>
    <Latitude>32.789230</Latitude>
    <Longitude>34.987793</Longitude>
  </Street>
  <Street>
    <NativeName>אילות</NativeName>
    <ParentName>חיפה, ישראל</ParentName>
    <Latitude>32.798080</Latitude>
    <Longitude>34.984093</Longitude>
  </Street>
  <Street>
    <NativeName>אילנות</NativeName>
    <ParentName>חיפה, ישראל</ParentName>
    <Latitude>32.808375</Latitude>
    <Longitude>34.974753</Longitude>
  </Street>
  <Street>
    <NativeName>אילת</NativeName>
    <ParentName>חיפה, ישראל</ParentName>
    <Latitude>32.794505</Latitude>
    <Longitude>35.011621</Longitude>
  </Street>
  <Street>
    <NativeName>אינטרנשיונל</NativeName>
    <ParentName>חיפה, ישראל</ParentName>
    <Latitude>32.778184</Latitude>
    <Longitude>35.010009</Longitude>
  </Street>
  <Street>
    <NativeName>איציק מאנגר</NativeName>
    <ParentName>חיפה, ישראל</ParentName>
    <Latitude>32.829148</Latitude>
    <Longitude>35.063837</Longitude>
  </Street>
  <Street>
    <NativeName>איצקוביטש</NativeName>
    <ParentName>חיפה, ישראל</ParentName>
    <Latitude>32.784083</Latitude>
    <Longitude>35.018774</Longitude>
  </Street>
  <Street>
    <NativeName>איראן</NativeName>
    <ParentName>חיפה, ישראל</ParentName>
    <Latitude>32.817867</Latitude>
    <Longitude>34.991257</Longitude>
  </Street>
  <Street>
    <NativeName>אירביד</NativeName>
    <ParentName>חיפה, ישראל</ParentName>
    <Latitude>32.813736</Latitude>
    <Longitude>35.001544</Longitude>
  </Street>
  <Street>
    <NativeName>איריס</NativeName>
    <ParentName>חיפה, ישראל</ParentName>
    <Latitude>32.810266</Latitude>
    <Longitude>34.983312</Longitude>
  </Street>
  <Street>
    <NativeName>איתנים</NativeName>
    <ParentName>חיפה, ישראל</ParentName>
    <Latitude>32.802744</Latitude>
    <Longitude>34.975359</Longitude>
  </Street>
  <Street>
    <NativeName>אל אדריסי</NativeName>
    <ParentName>חיפה, ישראל</ParentName>
    <Latitude>32.826380</Latitude>
    <Longitude>34.986995</Longitude>
  </Street>
  <Street>
    <NativeName>אל אספהאני</NativeName>
    <ParentName>חיפה, ישראל</ParentName>
    <Latitude>32.817324</Latitude>
    <Longitude>34.993458</Longitude>
  </Street>
  <Street>
    <NativeName>אל בוחתורי</NativeName>
    <ParentName>חיפה, ישראל</ParentName>
    <Latitude>32.813711</Latitude>
    <Longitude>35.002419</Longitude>
  </Street>
  <Street>
    <NativeName>אל הילאל</NativeName>
    <ParentName>חיפה, ישראל</ParentName>
    <Latitude>32.811131</Latitude>
    <Longitude>35.004570</Longitude>
  </Street>
  <Street>
    <NativeName>אל חרירי</NativeName>
    <ParentName>חיפה, ישראל</ParentName>
    <Latitude>32.816629</Latitude>
    <Longitude>34.992999</Longitude>
  </Street>
  <Street>
    <NativeName>אל מותנבי</NativeName>
    <ParentName>חיפה, ישראל</ParentName>
    <Latitude>32.816338</Latitude>
    <Longitude>34.985673</Longitude>
  </Street>
  <Street>
    <NativeName>אל מערי</NativeName>
    <ParentName>חיפה, ישראל</ParentName>
    <Latitude>32.805828</Latitude>
    <Longitude>35.008593</Longitude>
  </Street>
  <Street>
    <NativeName>אל מרין</NativeName>
    <ParentName>חיפה, ישראל</ParentName>
    <Latitude>32.816865</Latitude>
    <Longitude>34.999086</Longitude>
  </Street>
  <Street>
    <NativeName>אל עמר</NativeName>
    <ParentName>חיפה, ישראל</ParentName>
    <Latitude>32.828756</Latitude>
    <Longitude>34.985422</Longitude>
  </Street>
  <Street>
    <NativeName>אל עריש</NativeName>
    <ParentName>חיפה, ישראל</ParentName>
    <Latitude>32.814545</Latitude>
    <Longitude>34.994621</Longitude>
  </Street>
  <Street>
    <NativeName>אל עתיקה</NativeName>
    <ParentName>חיפה, ישראל</ParentName>
    <Latitude>32.827421</Latitude>
    <Longitude>34.988811</Longitude>
  </Street>
  <Street>
    <NativeName>אל פאראבי</NativeName>
    <ParentName>חיפה, ישראל</ParentName>
    <Latitude>32.815602</Latitude>
    <Longitude>34.993223</Longitude>
  </Street>
  <Street>
    <NativeName>אלברט איינשטיין</NativeName>
    <ParentName>חיפה, ישראל</ParentName>
    <Latitude>32.781804</Latitude>
    <Longitude>34.994733</Longitude>
  </Street>
  <Street>
    <NativeName>אלברט שווייצר</NativeName>
    <ParentName>חיפה, ישראל</ParentName>
    <Latitude>32.778506</Latitude>
    <Longitude>34.983358</Longitude>
  </Street>
  <Street>
    <NativeName>אלי כהן</NativeName>
    <ParentName>חיפה, ישראל</ParentName>
    <Latitude>32.817016</Latitude>
    <Longitude>35.073140</Longitude>
  </Street>
  <Street>
    <NativeName>אליהו חבובה</NativeName>
    <ParentName>חיפה, ישראל</ParentName>
    <Latitude>32.809617</Latitude>
    <Longitude>34.999516</Longitude>
  </Street>
  <Street>
    <NativeName>אליהו חכים</NativeName>
    <ParentName>חיפה, ישראל</ParentName>
    <Latitude>32.821312</Latitude>
    <Longitude>34.972559</Longitude>
  </Street>
  <Street>
    <NativeName>אליהו</NativeName>
    <ParentName>חיפה, ישראל</ParentName>
    <Latitude>32.818294</Latitude>
    <Longitude>35.000491</Longitude>
  </Street>
  <Street>
    <NativeName>אלישבע קפלן</NativeName>
    <ParentName>חיפה, ישראל</ParentName>
    <Latitude>32.820151</Latitude>
    <Longitude>35.072210</Longitude>
  </Street>
  <Street>
    <NativeName>אלישע</NativeName>
    <ParentName>חיפה, ישראל</ParentName>
    <Latitude>32.832244</Latitude>
    <Longitude>34.973114</Longitude>
  </Street>
  <Street>
    <NativeName>אלכסנדר זייד</NativeName>
    <ParentName>חיפה, ישראל</ParentName>
    <Latitude>32.826135</Latitude>
    <Longitude>35.066796</Longitude>
  </Street>
  <Street>
    <NativeName>אלכסנדר ינאי</NativeName>
    <ParentName>חיפה, ישראל</ParentName>
    <Latitude>32.798403</Latitude>
    <Longitude>34.976113</Longitude>
  </Street>
  <Street>
    <NativeName>אלקלעי</NativeName>
    <ParentName>חיפה, ישראל</ParentName>
    <AlternateName>אלקלאי</AlternateName>
    <Latitude>32.812102</Latitude>
    <Longitude>35.002412</Longitude>
  </Street>
  <Street>
    <NativeName>אלתר</NativeName>
    <ParentName>חיפה, ישראל</ParentName>
    <Latitude>32.774812</Latitude>
    <Longitude>35.013250</Longitude>
  </Street>
  <Street>
    <NativeName>אמה לזרוס</NativeName>
    <ParentName>חיפה, ישראל</ParentName>
    <Latitude>32.775645</Latitude>
    <Longitude>34.997904</Longitude>
  </Street>
  <Street>
    <NativeName>אמיל זולא</NativeName>
    <ParentName>חיפה, ישראל</ParentName>
    <AlternateName>אמיל זולה</AlternateName>
    <AlternateName>עמיל זולה</AlternateName>
    <AlternateName>עמיל זולא</AlternateName>
    <Latitude>32.821615</Latitude>
    <Longitude>34.966457</Longitude>
  </Street>
  <Street>
    <NativeName>אמיל תומא</NativeName>
    <ParentName>חיפה, ישראל</ParentName>
    <Latitude>32.816140</Latitude>
    <Longitude>34.993956</Longitude>
  </Street>
  <Street>
    <NativeName>אמיר</NativeName>
    <ParentName>חיפה, ישראל</ParentName>
    <Latitude>32.815029</Latitude>
    <Longitude>34.998988</Longitude>
  </Street>
  <Street>
    <NativeName>אמנון ותמר</NativeName>
    <ParentName>חיפה, ישראל</ParentName>
    <Latitude>32.780785</Latitude>
    <Longitude>35.000447</Longitude>
  </Street>
  <Street>
    <NativeName>אנדה עמיר</NativeName>
    <ParentName>חיפה, ישראל</ParentName>
    <Latitude>32.774184</Latitude>
    <Longitude>35.003029</Longitude>
  </Street>
  <CityRegion>
    <NativeName>אנדרטת גדוד 22</NativeName>
    <ParentName>חיפה, ישראל</ParentName>
    <Latitude>32.804658</Latitude>
    <Longitude>35.005877</Longitude>
  </CityRegion>
  <Street>
    <NativeName>אנדרי סחרוב</NativeName>
    <ParentName>חיפה, ישראל</ParentName>
    <Latitude>32.791394</Latitude>
    <Longitude>34.958441</Longitude>
  </Street>
  <Street>
    <NativeName>אנה פרנק</NativeName>
    <ParentName>חיפה, ישראל</ParentName>
    <Latitude>32.829122</Latitude>
    <Longitude>35.065016</Longitude>
  </Street>
  <Street>
    <NativeName>אנטוורפן</NativeName>
    <ParentName>חיפה, ישראל</ParentName>
    <Latitude>32.767987</Latitude>
    <Longitude>34.995715</Longitude>
  </Street>
  <Street>
    <NativeName>אני מאמין</NativeName>
    <ParentName>חיפה, ישראל</ParentName>
    <Latitude>32.802495</Latitude>
    <Longitude>35.010268</Longitude>
  </Street>
  <Street>
    <NativeName>אנצו סירני</NativeName>
    <ParentName>חיפה, ישראל</ParentName>
    <Latitude>32.779955</Latitude>
    <Longitude>34.980035</Longitude>
  </Street>
  <CityRegion>
    <NativeName>אספרסו נורדאו</NativeName>
    <ParentName>חיפה, ישראל</ParentName>
    <Latitude>32.809485</Latitude>
    <Longitude>34.998467</Longitude>
  </CityRegion>
  <Street>
    <NativeName>אסתר המלכה</NativeName>
    <ParentName>חיפה, ישראל</ParentName>
    <Latitude>32.808692</Latitude>
    <Longitude>34.963381</Longitude>
  </Street>
  <Street>
    <NativeName>אסתר רבין</NativeName>
    <ParentName>חיפה, ישראל</ParentName>
    <Latitude>32.763253</Latitude>
    <Longitude>34.987522</Longitude>
  </Street>
  <Street>
    <NativeName>אצ"ל</NativeName>
    <ParentName>חיפה, ישראל</ParentName>
    <AlternateName>האצ"ל</AlternateName>
    <Latitude>32.813798</Latitude>
    <Longitude>34.959904</Longitude>
  </Street>
  <Street>
    <NativeName>ארגמן</NativeName>
    <ParentName>חיפה, ישראל</ParentName>
    <Latitude>32.799423</Latitude>
    <Longitude>34.982220</Longitude>
  </Street>
  <Street>
    <NativeName>אריה דולצ'ין</NativeName>
    <ParentName>חיפה, ישראל</ParentName>
    <Latitude>32.790621</Latitude>
    <Longitude>35.019479</Longitude>
  </Street>
  <Street>
    <NativeName>אריה כרוך</NativeName>
    <ParentName>חיפה, ישראל</ParentName>
    <Latitude>32.775246</Latitude>
    <Longitude>34.990094</Longitude>
  </Street>
  <Street>
    <NativeName>אריה שנקר</NativeName>
    <ParentName>חיפה, ישראל</ParentName>
    <Latitude>32.815245</Latitude>
    <Longitude>35.061547</Longitude>
  </Street>
  <Street>
    <NativeName>ארלוזורוב</NativeName>
    <ParentName>חיפה, ישראל</ParentName>
    <AlternateName>ארלוזרוב</AlternateName>
    <Latitude>32.807220</Latitude>
    <Longitude>34.995362</Longitude>
  </Street>
  <Street>
    <NativeName>ארנון</NativeName>
    <ParentName>חיפה, ישראל</ParentName>
    <Latitude>32.803250</Latitude>
    <Longitude>35.003660</Longitude>
  </Street>
  <Street>
    <NativeName>ארנסט בלוך</NativeName>
    <ParentName>חיפה, ישראל</ParentName>
    <Latitude>32.788630</Latitude>
    <Longitude>34.988938</Longitude>
  </Street>
  <Street>
    <NativeName>ארץ הצבי</NativeName>
    <ParentName>חיפה, ישראל</ParentName>
    <Latitude>32.839181</Latitude>
    <Longitude>35.069609</Longitude>
  </Street>
  <Street>
    <NativeName>אשכולות</NativeName>
    <ParentName>חיפה, ישראל</ParentName>
    <Latitude>32.806524</Latitude>
    <Longitude>34.981052</Longitude>
  </Street>
  <Street>
    <NativeName>אשקלון</NativeName>
    <ParentName>חיפה, ישראל</ParentName>
    <Latitude>32.814671</Latitude>
    <Longitude>34.994717</Longitude>
  </Street>
  <Street>
    <NativeName>אשר</NativeName>
    <ParentName>חיפה, ישראל</ParentName>
    <Latitude>32.792388</Latitude>
    <Longitude>35.013987</Longitude>
  </Street>
  <Street>
    <NativeName>בודנהיימר</NativeName>
    <ParentName>חיפה, ישראל</ParentName>
    <Latitude>32.818405</Latitude>
    <Longitude>34.966284</Longitude>
  </Street>
  <Street>
    <NativeName>בונה אליעזר</NativeName>
    <ParentName>חיפה, ישראל</ParentName>
    <Latitude>32.789063</Latitude>
    <Longitude>35.040374</Longitude>
  </Street>
  <Street>
    <NativeName>בועז</NativeName>
    <ParentName>חיפה, ישראל</ParentName>
    <Latitude>32.797649</Latitude>
    <Longitude>34.979764</Longitude>
  </Street>
  <CityRegion>
    <NativeName>בי"ס אבן גבירול חט"ב</NativeName>
    <ParentName>חיפה, ישראל</ParentName>
    <Latitude>32.805843</Latitude>
    <Longitude>35.006867</Longitude>
  </CityRegion>
  <CityRegion>
    <NativeName>בי"ס אבן גבירול</NativeName>
    <ParentName>חיפה, ישראל</ParentName>
    <Latitude>32.818403</Latitude>
    <Longitude>34.964550</Longitude>
  </CityRegion>
  <CityRegion>
    <NativeName>בי"ס אהרון הרא"ה ממ"ד</NativeName>
    <ParentName>חיפה, ישראל</ParentName>
    <Latitude>32.834477</Latitude>
    <Longitude>35.066045</Longitude>
  </CityRegion>
  <CityRegion>
    <NativeName>בי"ס אהרון הרא"ה</NativeName>
    <ParentName>חיפה, ישראל</ParentName>
    <Latitude>32.832723</Latitude>
    <Longitude>35.066217</Longitude>
  </CityRegion>
  <CityRegion>
    <NativeName>בי"ס הוד</NativeName>
    <ParentName>חיפה, ישראל</ParentName>
    <Latitude>32.817461</Latitude>
    <Longitude>34.989822</Longitude>
  </CityRegion>
  <CityRegion>
    <NativeName>בי"ס הנרייטה סולד</NativeName>
    <ParentName>חיפה, ישראל</ParentName>
    <Latitude>32.829390</Latitude>
    <Longitude>34.977919</Longitude>
  </CityRegion>
  <CityRegion>
    <NativeName>בי"ס יאנוש קורצ'אק</NativeName>
    <ParentName>חיפה, ישראל</ParentName>
    <Latitude>32.810741</Latitude>
    <Longitude>34.958263</Longitude>
  </CityRegion>
  <CityRegion>
    <NativeName>בי"ס יבניאלי</NativeName>
    <ParentName>חיפה, ישראל</ParentName>
    <Latitude>32.828373</Latitude>
    <Longitude>34.977230</Longitude>
  </CityRegion>
  <CityRegion>
    <NativeName>בי"ס כרמל נתיב אליעזר</NativeName>
    <ParentName>חיפה, ישראל</ParentName>
    <Latitude>32.788584</Latitude>
    <Longitude>34.990748</Longitude>
  </CityRegion>
  <CityRegion>
    <NativeName>בי"ס מעלה הכרמל</NativeName>
    <ParentName>חיפה, ישראל</ParentName>
    <Latitude>32.814845</Latitude>
    <Longitude>34.985905</Longitude>
  </CityRegion>
  <CityRegion>
    <NativeName>בי"ס עבד אל רחמן אל חאג'</NativeName>
    <ParentName>חיפה, ישראל</ParentName>
    <Latitude>32.800626</Latitude>
    <Longitude>35.007534</Longitude>
  </CityRegion>
  <CityRegion>
    <NativeName>בי"ס רמות</NativeName>
    <ParentName>חיפה, ישראל</ParentName>
    <Latitude>32.822832</Latitude>
    <Longitude>34.966660</Longitude>
  </CityRegion>
  <Street>
    <NativeName>ביאליק</NativeName>
    <ParentName>חיפה, ישראל</ParentName>
    <AlternateName>חיים נחמן ביאליק</AlternateName>
    <Latitude>32.812146</Latitude>
    <Longitude>34.999128</Longitude>
  </Street>
  <Street>
    <NativeName>ביכורים</NativeName>
    <ParentName>חיפה, ישראל</ParentName>
    <Latitude>32.800302</Latitude>
    <Longitude>34.987292</Longitude>
  </Street>
  <Street>
    <NativeName>ביל"ו</NativeName>
    <ParentName>חיפה, ישראל</ParentName>
    <Latitude>32.806787</Latitude>
    <Longitude>35.003851</Longitude>
  </Street>
  <Street>
    <NativeName>בילהרץ</NativeName>
    <ParentName>חיפה, ישראל</ParentName>
    <Latitude>32.822809</Latitude>
    <Longitude>34.989157</Longitude>
  </Street>
  <Street>
    <NativeName>בית אל</NativeName>
    <ParentName>חיפה, ישראל</ParentName>
    <Latitude>32.814953</Latitude>
    <Longitude>34.975849</Longitude>
  </Street>
  <Street>
    <NativeName>בית אלפא</NativeName>
    <ParentName>חיפה, ישראל</ParentName>
    <Latitude>32.834215</Latitude>
    <Longitude>35.057532</Longitude>
  </Street>
  <CityRegion>
    <NativeName>בית בירם בי"ס הריאלי ופנימייה</NativeName>
    <ParentName>חיפה, ישראל</ParentName>
    <Latitude>32.778796</Latitude>
    <Longitude>34.996537</Longitude>
  </CityRegion>
  <Street>
    <NativeName>בית לחם</NativeName>
    <ParentName>חיפה, ישראל</ParentName>
    <Latitude>32.819101</Latitude>
    <Longitude>34.972364</Longitude>
  </Street>
  <CityRegion>
    <NativeName>בית קברות שדה יהושע (כפר סמיר)</NativeName>
    <ParentName>חיפה, ישראל</ParentName>
    <AlternateName>בית קברות שדה יהושוע (כפר סמיר)</AlternateName>
    <Latitude>32.803300</Latitude>
    <Longitude>34.963896</Longitude>
  </CityRegion>
  <Street>
    <NativeName>בית שאן</NativeName>
    <ParentName>חיפה, ישראל</ParentName>
    <Latitude>32.812002</Latitude>
    <Longitude>35.001629</Longitude>
  </Street>
  <Street>
    <NativeName>בית שערים</NativeName>
    <ParentName>חיפה, ישראל</ParentName>
    <Latitude>32.813356</Latitude>
    <Longitude>34.990376</Longitude>
  </Street>
  <Street>
    <NativeName>בית"ר</NativeName>
    <ParentName>חיפה, ישראל</ParentName>
    <Latitude>32.803743</Latitude>
    <Longitude>34.999779</Longitude>
  </Street>
  <Street>
    <NativeName>בל</NativeName>
    <ParentName>חיפה, ישראל</ParentName>
    <Latitude>32.801077</Latitude>
    <Longitude>35.049740</Longitude>
  </Street>
  <Street>
    <NativeName>בלהה</NativeName>
    <ParentName>חיפה, ישראל</ParentName>
    <Latitude>32.825499</Latitude>
    <Longitude>34.980221</Longitude>
  </Street>
  <Street>
    <NativeName>בליטנטל</NativeName>
    <ParentName>חיפה, ישראל</ParentName>
    <Latitude>32.775128</Latitude>
    <Longitude>35.002895</Longitude>
  </Street>
  <Street>
    <NativeName>בלפור</NativeName>
    <ParentName>חיפה, ישראל</ParentName>
    <Latitude>32.809297</Latitude>
    <Longitude>34.996065</Longitude>
  </Street>
  <Street>
    <NativeName>בן בבא</NativeName>
    <ParentName>חיפה, ישראל</ParentName>
    <Latitude>32.803546</Latitude>
    <Longitude>35.002489</Longitude>
  </Street>
  <Street>
    <NativeName>בן זכאי</NativeName>
    <ParentName>חיפה, ישראל</ParentName>
    <AlternateName>רבן יוחנן בן זכאי</AlternateName>
    <Latitude>32.803652</Latitude>
    <Longitude>34.998462</Longitude>
  </Street>
  <Street>
    <NativeName>בן יהודה</NativeName>
    <ParentName>חיפה, ישראל</ParentName>
    <Latitude>32.811244</Latitude>
    <Longitude>34.992932</Longitude>
  </Street>
  <Street>
    <NativeName>בן עמי</NativeName>
    <ParentName>חיפה, ישראל</ParentName>
    <Latitude>32.828204</Latitude>
    <Longitude>35.064896</Longitude>
  </Street>
  <Street>
    <NativeName>בן שמן</NativeName>
    <ParentName>חיפה, ישראל</ParentName>
    <Latitude>32.811215</Latitude>
    <Longitude>34.994584</Longitude>
  </Street>
  <Street>
    <NativeName>בני אור</NativeName>
    <ParentName>חיפה, ישראל</ParentName>
    <Latitude>32.803572</Latitude>
    <Longitude>34.990999</Longitude>
  </Street>
  <Street>
    <NativeName>בני ברית</NativeName>
    <ParentName>חיפה, ישראל</ParentName>
    <Latitude>32.773888</Latitude>
    <Longitude>34.989365</Longitude>
  </Street>
  <Street>
    <NativeName>בנימין ד'ישראלי</NativeName>
    <ParentName>חיפה, ישראל</ParentName>
    <Latitude>32.787097</Latitude>
    <Longitude>34.988764</Longitude>
  </Street>
  <Street>
    <NativeName>בנימין</NativeName>
    <ParentName>חיפה, ישראל</ParentName>
    <Latitude>32.831699</Latitude>
    <Longitude>34.976467</Longitude>
  </Street>
  <Street>
    <NativeName>בנציון ישראלי</NativeName>
    <ParentName>חיפה, ישראל</ParentName>
    <Latitude>32.833231</Latitude>
    <Longitude>35.058960</Longitude>
  </Street>
  <Street>
    <NativeName>בעל שם טוב</NativeName>
    <ParentName>חיפה, ישראל</ParentName>
    <Latitude>32.802262</Latitude>
    <Longitude>34.995386</Longitude>
  </Street>
  <Street>
    <NativeName>בעלי מלאכה</NativeName>
    <ParentName>חיפה, ישראל</ParentName>
    <Latitude>32.788326</Latitude>
    <Longitude>35.038501</Longitude>
  </Street>
  <Street>
    <NativeName>בצלאל</NativeName>
    <ParentName>חיפה, ישראל</ParentName>
    <Latitude>32.803281</Latitude>
    <Longitude>35.000538</Longitude>
  </Street>
  <Street>
    <NativeName>בר אילן</NativeName>
    <ParentName>חיפה, ישראל</ParentName>
    <Latitude>32.832360</Latitude>
    <Longitude>35.068993</Longitude>
  </Street>
  <Street>
    <NativeName>בר גיורא</NativeName>
    <ParentName>חיפה, ישראל</ParentName>
    <Latitude>32.806563</Latitude>
    <Longitude>34.995068</Longitude>
  </Street>
  <Street>
    <NativeName>בר יוחאי</NativeName>
    <ParentName>חיפה, ישראל</ParentName>
    <Latitude>32.801499</Latitude>
    <Longitude>34.984977</Longitude>
  </Street>
  <Street>
    <NativeName>בר כוכבא</NativeName>
    <ParentName>חיפה, ישראל</ParentName>
    <Latitude>32.804928</Latitude>
    <Longitude>35.001850</Longitude>
  </Street>
  <Street>
    <NativeName>ברדיצ'ב</NativeName>
    <ParentName>חיפה, ישראל</ParentName>
    <Latitude>32.801167</Latitude>
    <Longitude>35.013081</Longitude>
  </Street>
  <Street>
    <NativeName>ברודצקי</NativeName>
    <ParentName>חיפה, ישראל</ParentName>
    <Latitude>32.825486</Latitude>
    <Longitude>35.065509</Longitude>
  </Street>
  <Street>
    <NativeName>ברוולד</NativeName>
    <ParentName>חיפה, ישראל</ParentName>
    <Latitude>32.812659</Latitude>
    <Longitude>34.998512</Longitude>
  </Street>
  <Street>
    <NativeName>ברוך כהן</NativeName>
    <ParentName>חיפה, ישראל</ParentName>
    <Latitude>32.815528</Latitude>
    <Longitude>34.959811</Longitude>
  </Street>
  <Street>
    <NativeName>ברוניסלב הוברמן</NativeName>
    <ParentName>חיפה, ישראל</ParentName>
    <Latitude>32.763402</Latitude>
    <Longitude>34.991183</Longitude>
  </Street>
  <Street>
    <NativeName>ברוריה</NativeName>
    <ParentName>חיפה, ישראל</ParentName>
    <Latitude>32.811106</Latitude>
    <Longitude>34.999677</Longitude>
  </Street>
  <Street>
    <NativeName>ברזילי</NativeName>
    <ParentName>חיפה, ישראל</ParentName>
    <Latitude>32.806717</Latitude>
    <Longitude>35.003697</Longitude>
  </Street>
  <Street>
    <NativeName>ברכה חבס</NativeName>
    <ParentName>חיפה, ישראל</ParentName>
    <Latitude>32.809364</Latitude>
    <Longitude>34.988451</Longitude>
  </Street>
  <Street>
    <NativeName>ברכה פולד</NativeName>
    <ParentName>חיפה, ישראל</ParentName>
    <Latitude>32.820055</Latitude>
    <Longitude>35.074604</Longitude>
  </Street>
  <Street>
    <NativeName>ברכת משה</NativeName>
    <ParentName>חיפה, ישראל</ParentName>
    <Latitude>32.801114</Latitude>
    <Longitude>35.002537</Longitude>
  </Street>
  <Street>
    <NativeName>ברל</NativeName>
    <ParentName>חיפה, ישראל</ParentName>
    <Latitude>32.786383</Latitude>
    <Longitude>35.015648</Longitude>
  </Street>
  <Street>
    <NativeName>ברנדייס</NativeName>
    <ParentName>חיפה, ישראל</ParentName>
    <Latitude>32.808233</Latitude>
    <Longitude>34.985902</Longitude>
  </Street>
  <Street>
    <NativeName>ברנר</NativeName>
    <ParentName>חיפה, ישראל</ParentName>
    <Latitude>32.779552</Latitude>
    <Longitude>35.005282</Longitude>
  </Street>
  <Street>
    <NativeName>ברק</NativeName>
    <ParentName>חיפה, ישראל</ParentName>
    <Latitude>32.804154</Latitude>
    <Longitude>35.002783</Longitude>
  </Street>
  <Street>
    <NativeName>ברקת</NativeName>
    <ParentName>חיפה, ישראל</ParentName>
    <Latitude>32.783620</Latitude>
    <Longitude>35.037453</Longitude>
  </Street>
  <Street>
    <NativeName>בשור</NativeName>
    <ParentName>חיפה, ישראל</ParentName>
    <Latitude>32.790899</Latitude>
    <Longitude>35.021266</Longitude>
  </Street>
  <CityRegion>
    <NativeName>בת גלים</NativeName>
    <ParentName>חיפה, ישראל</ParentName>
    <Latitude>32.835525</Latitude>
    <Longitude>34.982492</Longitude>
  </CityRegion>
  <Street>
    <NativeName>בת חן</NativeName>
    <ParentName>חיפה, ישראל</ParentName>
    <Latitude>32.784562</Latitude>
    <Longitude>35.008838</Longitude>
  </Street>
  <Street>
    <NativeName>בת שבע</NativeName>
    <ParentName>חיפה, ישראל</ParentName>
    <Latitude>32.798018</Latitude>
    <Longitude>34.972172</Longitude>
  </Street>
  <Street>
    <NativeName>ג'אן מג'דלאני</NativeName>
    <ParentName>חיפה, ישראל</ParentName>
    <Latitude>32.819701</Latitude>
    <Longitude>34.991489</Longitude>
  </Street>
  <Street>
    <NativeName>ג'ורג' אליוט</NativeName>
    <ParentName>חיפה, ישראל</ParentName>
    <Latitude>32.803667</Latitude>
    <Longitude>34.989479</Longitude>
  </Street>
  <Street>
    <NativeName>ג'יימס ווט</NativeName>
    <ParentName>חיפה, ישראל</ParentName>
    <Latitude>32.812969</Latitude>
    <Longitude>35.068257</Longitude>
  </Street>
  <Street>
    <NativeName>ג'לאל אדין</NativeName>
    <ParentName>חיפה, ישראל</ParentName>
    <Latitude>32.805553</Latitude>
    <Longitude>34.971624</Longitude>
  </Street>
  <Street>
    <NativeName>ג'למה</NativeName>
    <ParentName>חיפה, ישראל</ParentName>
    <Latitude>32.817555</Latitude>
    <Longitude>34.997433</Longitude>
  </Street>
  <Street>
    <NativeName>ג'ניה טברסקי</NativeName>
    <ParentName>חיפה, ישראל</ParentName>
    <Latitude>32.773031</Latitude>
    <Longitude>34.991330</Longitude>
  </Street>
  <CityRegion>
    <NativeName>גאולה</NativeName>
    <ParentName>חיפה, ישראל</ParentName>
    <Latitude>32.803091</Latitude>
    <Longitude>34.997742</Longitude>
  </CityRegion>
  <Street>
    <NativeName>גאולה</NativeName>
    <ParentName>חיפה, ישראל</ParentName>
    <Latitude>32.802344</Latitude>
    <Longitude>35.000824</Longitude>
  </Street>
  <Street>
    <NativeName>גאולי תימן</NativeName>
    <ParentName>חיפה, ישראל</ParentName>
    <Latitude>32.780098</Latitude>
    <Longitude>34.983544</Longitude>
  </Street>
  <Street>
    <NativeName>גבעון</NativeName>
    <ParentName>חיפה, ישראל</ParentName>
    <Latitude>32.789463</Latitude>
    <Longitude>34.989057</Longitude>
  </Street>
  <Street>
    <NativeName>גבעת דאונס</NativeName>
    <ParentName>חיפה, ישראל</ParentName>
    <Latitude>32.781580</Latitude>
    <Longitude>34.991394</Longitude>
  </Street>
  <CityRegion>
    <NativeName>גבעת זמר בתיכנון</NativeName>
    <ParentName>חיפה, ישראל</ParentName>
    <Latitude>32.783046</Latitude>
    <Longitude>35.003204</Longitude>
  </CityRegion>
  <Street>
    <NativeName>גדליהו</NativeName>
    <ParentName>חיפה, ישראל</ParentName>
    <Latitude>32.783181</Latitude>
    <Longitude>35.023405</Longitude>
  </Street>
  <Street>
    <NativeName>גדנ"ע</NativeName>
    <ParentName>חיפה, ישראל</ParentName>
    <Latitude>32.825838</Latitude>
    <Longitude>34.979509</Longitude>
  </Street>
  <Street>
    <NativeName>גדעון</NativeName>
    <ParentName>חיפה, ישראל</ParentName>
    <Latitude>32.811852</Latitude>
    <Longitude>34.992073</Longitude>
  </Street>
  <Street>
    <NativeName>גולדברג</NativeName>
    <ParentName>חיפה, ישראל</ParentName>
    <Latitude>32.774760</Latitude>
    <Longitude>35.028200</Longitude>
  </Street>
  <Street>
    <NativeName>גולדה מאיר</NativeName>
    <ParentName>חיפה, ישראל</ParentName>
    <Latitude>32.772018</Latitude>
    <Longitude>35.003782</Longitude>
  </Street>
  <Street>
    <NativeName>גולדמן</NativeName>
    <ParentName>חיפה, ישראל</ParentName>
    <Latitude>32.781663</Latitude>
    <Longitude>34.997013</Longitude>
  </Street>
  <Street>
    <NativeName>גוליאלמו מרקוני</NativeName>
    <ParentName>חיפה, ישראל</ParentName>
    <Latitude>32.789212</Latitude>
    <Longitude>35.033292</Longitude>
  </Street>
  <Street>
    <NativeName>גורדוניה</NativeName>
    <ParentName>חיפה, ישראל</ParentName>
    <Latitude>32.815589</Latitude>
    <Longitude>35.072362</Longitude>
  </Street>
  <Street>
    <NativeName>גוש חלב</NativeName>
    <ParentName>חיפה, ישראל</ParentName>
    <Latitude>32.809768</Latitude>
    <Longitude>35.000362</Longitude>
  </Street>
  <Street>
    <NativeName>גוש עציון</NativeName>
    <ParentName>חיפה, ישראל</ParentName>
    <Latitude>32.800865</Latitude>
    <Longitude>35.006699</Longitude>
  </Street>
  <Street>
    <NativeName>גלבוע</NativeName>
    <ParentName>חיפה, ישראל</ParentName>
    <Latitude>32.784037</Latitude>
    <Longitude>35.017253</Longitude>
  </Street>
  <Street>
    <NativeName>גלגל</NativeName>
    <ParentName>חיפה, ישראל</ParentName>
    <Latitude>32.795836</Latitude>
    <Longitude>34.983404</Longitude>
  </Street>
  <Street>
    <NativeName>גלעד</NativeName>
    <ParentName>חיפה, ישראל</ParentName>
    <Latitude>32.806209</Latitude>
    <Longitude>35.001628</Longitude>
  </Street>
  <Street>
    <NativeName>גמלא</NativeName>
    <ParentName>חיפה, ישראל</ParentName>
    <Latitude>32.806054</Latitude>
    <Longitude>34.990961</Longitude>
  </Street>
  <CityRegion>
    <NativeName>גן אלי כהן</NativeName>
    <ParentName>חיפה, ישראל</ParentName>
    <Latitude>32.821801</Latitude>
    <Longitude>34.961342</Longitude>
  </CityRegion>
  <CityRegion>
    <NativeName>גן הבהאים על הר הכרמל</NativeName>
    <ParentName>חיפה, ישראל</ParentName>
    <Latitude>32.812959</Latitude>
    <Longitude>34.985790</Longitude>
  </CityRegion>
  <CityRegion>
    <NativeName>גן חיות</NativeName>
    <ParentName>חיפה, ישראל</ParentName>
    <Latitude>32.805261</Latitude>
    <Longitude>34.987107</Longitude>
  </CityRegion>
  <CityRegion>
    <NativeName>גן יפה נוף</NativeName>
    <ParentName>חיפה, ישראל</ParentName>
    <Latitude>32.810813</Latitude>
    <Longitude>34.985039</Longitude>
  </CityRegion>
  <CityRegion>
    <NativeName>גן ציפורה ודוד</NativeName>
    <ParentName>חיפה, ישראל</ParentName>
    <Latitude>32.772922</Latitude>
    <Longitude>35.002412</Longitude>
  </CityRegion>
  <Street>
    <NativeName>גנסין</NativeName>
    <ParentName>חיפה, ישראל</ParentName>
    <Latitude>32.785094</Latitude>
    <Longitude>35.015768</Longitude>
  </Street>
  <Street>
    <NativeName>גרינבוים</NativeName>
    <ParentName>חיפה, ישראל</ParentName>
    <Latitude>32.768305</Latitude>
    <Longitude>34.987922</Longitude>
  </Street>
  <CityRegion>
    <NativeName>גשר אברהם עופר</NativeName>
    <ParentName>חיפה, ישראל</ParentName>
    <Latitude>32.783732</Latitude>
    <Longitude>35.004309</Longitude>
  </CityRegion>
  <Street>
    <NativeName>גשר גדוד 21</NativeName>
    <ParentName>חיפה, ישראל</ParentName>
    <Latitude>32.794904</Latitude>
    <Longitude>35.021713</Longitude>
  </Street>
  <CityRegion>
    <NativeName>גשר גדוד 22</NativeName>
    <ParentName>חיפה, ישראל</ParentName>
    <Latitude>32.804000</Latitude>
    <Longitude>35.007971</Longitude>
  </CityRegion>
  <CityRegion>
    <NativeName>גשר גיבורים</NativeName>
    <ParentName>חיפה, ישראל</ParentName>
    <Latitude>32.802974</Latitude>
    <Longitude>35.006267</Longitude>
  </CityRegion>
  <CityRegion>
    <NativeName>גשר חיים לנדאו</NativeName>
    <ParentName>חיפה, ישראל</ParentName>
    <Latitude>32.787856</Latitude>
    <Longitude>34.969564</Longitude>
  </CityRegion>
  <CityRegion>
    <NativeName>גשר שמואל ארד</NativeName>
    <ParentName>חיפה, ישראל</ParentName>
    <Latitude>32.792697</Latitude>
    <Longitude>34.962082</Longitude>
  </CityRegion>
  <Street>
    <NativeName>גת</NativeName>
    <ParentName>חיפה, ישראל</ParentName>
    <Latitude>32.783976</Latitude>
    <Longitude>34.985893</Longitude>
  </Street>
  <Street>
    <NativeName>ד"ר אליהו אורבך</NativeName>
    <ParentName>חיפה, ישראל</ParentName>
    <AlternateName>אליהו אורבך</AlternateName>
    <AlternateName>דוקטור אליהו אורבך</AlternateName>
    <Latitude>32.768343</Latitude>
    <Longitude>35.010832</Longitude>
  </Street>
  <Street>
    <NativeName>ד"ר ארתור בירם</NativeName>
    <ParentName>חיפה, ישראל</ParentName>
    <AlternateName>ארתור בירם</AlternateName>
    <AlternateName>דוקטור ארתור בירם</AlternateName>
    <Latitude>32.772143</Latitude>
    <Longitude>35.009130</Longitude>
  </Street>
  <Street>
    <NativeName>ד"ר גרשון ציפר</NativeName>
    <ParentName>חיפה, ישראל</ParentName>
    <AlternateName>דוקטור גרשון ציפר</AlternateName>
    <AlternateName>גרשון ציפר</AlternateName>
    <Latitude>32.821474</Latitude>
    <Longitude>35.075453</Longitude>
  </Street>
  <Street>
    <NativeName>ד"ר יואכים כספרי</NativeName>
    <ParentName>חיפה, ישראל</ParentName>
    <AlternateName>כספרי</AlternateName>
    <AlternateName>ד"ר כספרי</AlternateName>
    <AlternateName>דוקטור יואכים כספרי</AlternateName>
    <AlternateName>דוקטור כספרי</AlternateName>
    <AlternateName>יואכים כספרי</AlternateName>
    <Latitude>32.796981</Latitude>
    <Longitude>34.991628</Longitude>
  </Street>
  <Street>
    <NativeName>ד"ר יונה אנגל</NativeName>
    <ParentName>חיפה, ישראל</ParentName>
    <AlternateName>דוקטור יונה אנגל</AlternateName>
    <AlternateName>יונה אנגל</AlternateName>
    <Latitude>32.774480</Latitude>
    <Longitude>34.998752</Longitude>
  </Street>
  <Street>
    <NativeName>ד"ר נחום שימקין</NativeName>
    <ParentName>חיפה, ישראל</ParentName>
    <AlternateName>דוקטור נחום שימקין</AlternateName>
    <AlternateName>נחום שימקין</AlternateName>
    <Latitude>32.776919</Latitude>
    <Longitude>34.992465</Longitude>
  </Street>
  <Street>
    <NativeName>דב הוז</NativeName>
    <ParentName>חיפה, ישראל</ParentName>
    <Latitude>32.831680</Latitude>
    <Longitude>34.976912</Longitude>
  </Street>
  <Street>
    <NativeName>דב פרומר</NativeName>
    <ParentName>חיפה, ישראל</ParentName>
    <Latitude>32.837921</Latitude>
    <Longitude>35.070768</Longitude>
  </Street>
  <Street>
    <NativeName>דבורה</NativeName>
    <ParentName>חיפה, ישראל</ParentName>
    <Latitude>32.810508</Latitude>
    <Longitude>34.999725</Longitude>
  </Street>
  <Street>
    <NativeName>דובנוב</NativeName>
    <ParentName>חיפה, ישראל</ParentName>
    <Latitude>32.776480</Latitude>
    <Longitude>35.010300</Longitude>
  </Street>
  <Street>
    <NativeName>דוד אלעזר</NativeName>
    <ParentName>חיפה, ישראל</ParentName>
    <AlternateName>דויד אלעזר</AlternateName>
    <Latitude>32.802723</Latitude>
    <Longitude>34.957479</Longitude>
  </Street>
  <Street>
    <NativeName>דוד בן הרוש</NativeName>
    <ParentName>חיפה, ישראל</ParentName>
    <AlternateName>דויד בן הרוש</AlternateName>
    <Latitude>32.811470</Latitude>
    <Longitude>35.001539</Longitude>
  </Street>
  <Street>
    <NativeName>דוד בר רב האי</NativeName>
    <ParentName>חיפה, ישראל</ParentName>
    <AlternateName>דויד בר רב האי</AlternateName>
    <Latitude>32.817930</Latitude>
    <Longitude>34.963955</Longitude>
  </Street>
  <Street>
    <NativeName>דוד מרכוס</NativeName>
    <ParentName>חיפה, ישראל</ParentName>
    <AlternateName>דויד מרכוס</AlternateName>
    <Latitude>32.820775</Latitude>
    <Longitude>34.976548</Longitude>
  </Street>
  <Street>
    <NativeName>דוד נמרי</NativeName>
    <ParentName>חיפה, ישראל</ParentName>
    <AlternateName>דויד נמרי</AlternateName>
    <Latitude>32.796682</Latitude>
    <Longitude>35.019608</Longitude>
  </Street>
  <Street>
    <NativeName>דוד פינסקי</NativeName>
    <ParentName>חיפה, ישראל</ParentName>
    <AlternateName>דויד פינסקי</AlternateName>
    <Latitude>32.802740</Latitude>
    <Longitude>34.980550</Longitude>
  </Street>
  <Street>
    <NativeName>דוד רזיאל</NativeName>
    <ParentName>חיפה, ישראל</ParentName>
    <AlternateName>דויד רזיאל</AlternateName>
    <Latitude>32.799748</Latitude>
    <Longitude>35.010595</Longitude>
  </Street>
  <Street>
    <NativeName>דוכיפת</NativeName>
    <ParentName>חיפה, ישראל</ParentName>
    <Latitude>32.783946</Latitude>
    <Longitude>35.007304</Longitude>
  </Street>
  <Street>
    <NativeName>דונה גרצ'יה</NativeName>
    <ParentName>חיפה, ישראל</ParentName>
    <Latitude>32.803242</Latitude>
    <Longitude>34.985995</Longitude>
  </Street>
  <Street>
    <NativeName>דוסטרובסקי</NativeName>
    <ParentName>חיפה, ישראל</ParentName>
    <Latitude>32.787876</Latitude>
    <Longitude>34.987660</Longitude>
  </Street>
  <Street>
    <NativeName>דור</NativeName>
    <ParentName>חיפה, ישראל</ParentName>
    <Latitude>32.814887</Latitude>
    <Longitude>34.993513</Longitude>
  </Street>
  <Street>
    <NativeName>דורון מייבלום</NativeName>
    <ParentName>חיפה, ישראל</ParentName>
    <Latitude>32.783541</Latitude>
    <Longitude>34.982854</Longitude>
  </Street>
  <Street>
    <NativeName>דורות</NativeName>
    <ParentName>חיפה, ישראל</ParentName>
    <Latitude>32.779813</Latitude>
    <Longitude>35.010666</Longitude>
  </Street>
  <Street>
    <NativeName>דניאל</NativeName>
    <ParentName>חיפה, ישראל</ParentName>
    <Latitude>32.814796</Latitude>
    <Longitude>34.995608</Longitude>
  </Street>
  <Street>
    <NativeName>דפנה</NativeName>
    <ParentName>חיפה, ישראל</ParentName>
    <Latitude>32.811429</Latitude>
    <Longitude>34.983834</Longitude>
  </Street>
  <Street>
    <NativeName>דקר</NativeName>
    <ParentName>חיפה, ישראל</ParentName>
    <Latitude>32.785487</Latitude>
    <Longitude>34.998120</Longitude>
  </Street>
  <Street>
    <NativeName>דרור</NativeName>
    <ParentName>חיפה, ישראל</ParentName>
    <Latitude>32.823088</Latitude>
    <Longitude>34.982243</Longitude>
  </Street>
  <Street>
    <NativeName>דרייפוס</NativeName>
    <ParentName>חיפה, ישראל</ParentName>
    <Latitude>32.819382</Latitude>
    <Longitude>34.965830</Longitude>
  </Street>
  <Street>
    <NativeName>דרך אלנבי</NativeName>
    <ParentName>חיפה, ישראל</ParentName>
    <AlternateName>אלנבי</AlternateName>
    <Latitude>32.823734</Latitude>
    <Longitude>34.979632</Longitude>
  </Street>
  <Street>
    <NativeName>דרך הים</NativeName>
    <ParentName>חיפה, ישראל</ParentName>
    <AlternateName>הים</AlternateName>
    <Latitude>32.810304</Latitude>
    <Longitude>34.974189</Longitude>
  </Street>
  <Street>
    <NativeName>דרך העמקים</NativeName>
    <ParentName>חיפה, ישראל</ParentName>
    <AlternateName>העמקים</AlternateName>
    <Latitude>32.787668</Latitude>
    <Longitude>35.037518</Longitude>
  </Street>
  <Street>
    <NativeName>דרך העצמאות</NativeName>
    <ParentName>חיפה, ישראל</ParentName>
    <AlternateName>העצמאות</AlternateName>
    <Latitude>32.819434</Latitude>
    <Longitude>34.998955</Longitude>
  </Street>
  <Street>
    <NativeName>דרך ויינשל</NativeName>
    <ParentName>חיפה, ישראל</ParentName>
    <AlternateName>ויינשל</AlternateName>
    <Latitude>32.778336</Latitude>
    <Longitude>34.982335</Longitude>
  </Street>
  <Street>
    <NativeName>דרך חטיבת גולני</NativeName>
    <ParentName>חיפה, ישראל</ParentName>
    <AlternateName>חטיבת גולני</AlternateName>
    <Latitude>32.808467</Latitude>
    <Longitude>35.007645</Longitude>
  </Street>
  <Street>
    <NativeName>דרך חנקין</NativeName>
    <ParentName>חיפה, ישראל</ParentName>
    <AlternateName>חנקין</AlternateName>
    <Latitude>32.783587</Latitude>
    <Longitude>35.004636</Longitude>
  </Street>
  <Street>
    <NativeName>דרך יגאל ידין</NativeName>
    <ParentName>חיפה, ישראל</ParentName>
    <AlternateName>יגאל ידין</AlternateName>
    <Latitude>32.807709</Latitude>
    <Longitude>35.048461</Longitude>
  </Street>
  <Street>
    <NativeName>דרך יד לבנים</NativeName>
    <ParentName>חיפה, ישראל</ParentName>
    <AlternateName>יד לבנים</AlternateName>
    <Latitude>32.799093</Latitude>
    <Longitude>35.013042</Longitude>
  </Street>
  <Street>
    <NativeName>דרך יוליוס סימון</NativeName>
    <ParentName>חיפה, ישראל</ParentName>
    <AlternateName>יוליוס סימון</AlternateName>
    <Latitude>32.812281</Latitude>
    <Longitude>35.040975</Longitude>
  </Street>
  <Street>
    <NativeName>דרך יעקב דורי</NativeName>
    <ParentName>חיפה, ישראל</ParentName>
    <AlternateName>יעקב דורי</AlternateName>
    <Latitude>32.778822</Latitude>
    <Longitude>35.019464</Longitude>
  </Street>
  <Street>
    <NativeName>דרך יפו</NativeName>
    <ParentName>חיפה, ישראל</ParentName>
    <AlternateName>יפו</AlternateName>
    <Latitude>32.826768</Latitude>
    <Longitude>34.987455</Longitude>
  </Street>
  <Street>
    <NativeName>דרך ישראל בר יהודה</NativeName>
    <ParentName>חיפה, ישראל</ParentName>
    <AlternateName>ישראל בר יהודה</AlternateName>
    <Latitude>32.794713</Latitude>
    <Longitude>35.022708</Longitude>
  </Street>
  <Street>
    <NativeName>דרך משה דיין</NativeName>
    <ParentName>חיפה, ישראל</ParentName>
    <AlternateName>משה דיין</AlternateName>
    <Latitude>32.805056</Latitude>
    <Longitude>35.052984</Longitude>
  </Street>
  <Street>
    <NativeName>דרך משה כרמל</NativeName>
    <ParentName>חיפה, ישראל</ParentName>
    <AlternateName>משה כרמל</AlternateName>
    <Latitude>32.800094</Latitude>
    <Longitude>35.016813</Longitude>
  </Street>
  <Street>
    <NativeName>דרך משה פלימן</NativeName>
    <ParentName>חיפה, ישראל</ParentName>
    <AlternateName>משה פלימן</AlternateName>
    <Latitude>32.787814</Latitude>
    <Longitude>34.969872</Longitude>
  </Street>
  <Street>
    <NativeName>דרך סטלה מאריס</NativeName>
    <ParentName>חיפה, ישראל</ParentName>
    <AlternateName>סטלה מאריס</AlternateName>
    <Latitude>32.823827</Latitude>
    <Longitude>34.977108</Longitude>
  </Street>
  <Street>
    <NativeName>דרך סלמן</NativeName>
    <ParentName>חיפה, ישראל</ParentName>
    <AlternateName>סלמן</AlternateName>
    <Latitude>32.805828</Latitude>
    <Longitude>35.020436</Longitude>
  </Street>
  <Street>
    <NativeName>דרך פיק"א</NativeName>
    <ParentName>חיפה, ישראל</ParentName>
    <AlternateName>פיק"א</AlternateName>
    <Latitude>32.787301</Latitude>
    <Longitude>34.994468</Longitude>
  </Street>
  <Street>
    <NativeName>דרך פרויד</NativeName>
    <ParentName>חיפה, ישראל</ParentName>
    <AlternateName>פרויד</AlternateName>
    <Latitude>32.781040</Latitude>
    <Longitude>34.987702</Longitude>
  </Street>
  <Street>
    <NativeName>דרך צרפת</NativeName>
    <ParentName>חיפה, ישראל</ParentName>
    <AlternateName>צרפת</AlternateName>
    <Latitude>32.821705</Latitude>
    <Longitude>34.964352</Longitude>
  </Street>
  <Street>
    <NativeName>דרך רופין</NativeName>
    <ParentName>חיפה, ישראל</ParentName>
    <AlternateName>רופין</AlternateName>
    <Latitude>32.793076</Latitude>
    <Longitude>35.001392</Longitude>
  </Street>
  <Street>
    <NativeName>דרך שמחה גולן</NativeName>
    <ParentName>חיפה, ישראל</ParentName>
    <AlternateName>שמחה גולן</AlternateName>
    <Latitude>32.788991</Latitude>
    <Longitude>35.009791</Longitude>
  </Street>
  <Street>
    <NativeName>ה. ליויק</NativeName>
    <ParentName>חיפה, ישראל</ParentName>
    <Latitude>32.830455</Latitude>
    <Longitude>35.062839</Longitude>
  </Street>
  <Street>
    <NativeName>האג</NativeName>
    <ParentName>חיפה, ישראל</ParentName>
    <Latitude>32.766101</Latitude>
    <Longitude>35.004401</Longitude>
  </Street>
  <Street>
    <NativeName>האומן</NativeName>
    <ParentName>חיפה, ישראל</ParentName>
    <Latitude>32.813079</Latitude>
    <Longitude>34.993640</Longitude>
  </Street>
  <Street>
    <NativeName>האיטלקים</NativeName>
    <ParentName>חיפה, ישראל</ParentName>
    <Latitude>32.819483</Latitude>
    <Longitude>34.992940</Longitude>
  </Street>
  <Street>
    <NativeName>האיצטדיון</NativeName>
    <ParentName>חיפה, ישראל</ParentName>
    <Latitude>32.822791</Latitude>
    <Longitude>35.058062</Longitude>
  </Street>
  <Street>
    <NativeName>האלה</NativeName>
    <ParentName>חיפה, ישראל</ParentName>
    <Latitude>32.816783</Latitude>
    <Longitude>34.956540</Longitude>
  </Street>
  <Street>
    <NativeName>האלון</NativeName>
    <ParentName>חיפה, ישראל</ParentName>
    <Latitude>32.812379</Latitude>
    <Longitude>34.968352</Longitude>
  </Street>
  <Street>
    <NativeName>האלונים</NativeName>
    <ParentName>חיפה, ישראל</ParentName>
    <Latitude>32.831444</Latitude>
    <Longitude>35.060439</Longitude>
  </Street>
  <Street>
    <NativeName>האמונה</NativeName>
    <ParentName>חיפה, ישראל</ParentName>
    <Latitude>32.831916</Latitude>
    <Longitude>35.064780</Longitude>
  </Street>
  <Street>
    <NativeName>האסיף</NativeName>
    <ParentName>חיפה, ישראל</ParentName>
    <Latitude>32.799738</Latitude>
    <Longitude>34.991705</Longitude>
  </Street>
  <Street>
    <NativeName>האר"י</NativeName>
    <ParentName>חיפה, ישראל</ParentName>
    <Latitude>32.796832</Latitude>
    <Longitude>34.999897</Longitude>
  </Street>
  <Street>
    <NativeName>הארזים</NativeName>
    <ParentName>חיפה, ישראל</ParentName>
    <Latitude>32.832089</Latitude>
    <Longitude>35.061178</Longitude>
  </Street>
  <Street>
    <NativeName>האשחר</NativeName>
    <ParentName>חיפה, ישראל</ParentName>
    <Latitude>32.815531</Latitude>
    <Longitude>34.957200</Longitude>
  </Street>
  <Street>
    <NativeName>האשל</NativeName>
    <ParentName>חיפה, ישראל</ParentName>
    <Latitude>32.831932</Latitude>
    <Longitude>35.061783</Longitude>
  </Street>
  <Street>
    <NativeName>האשלג</NativeName>
    <ParentName>חיפה, ישראל</ParentName>
    <Latitude>32.791236</Latitude>
    <Longitude>35.039346</Longitude>
  </Street>
  <Street>
    <NativeName>הבונים החופשיים</NativeName>
    <ParentName>חיפה, ישראל</ParentName>
    <Latitude>32.788168</Latitude>
    <Longitude>35.040130</Longitude>
  </Street>
  <Street>
    <NativeName>הבוסתן</NativeName>
    <ParentName>חיפה, ישראל</ParentName>
    <Latitude>32.818702</Latitude>
    <Longitude>34.984418</Longitude>
  </Street>
  <Street>
    <NativeName>הבישוף חג'אר</NativeName>
    <ParentName>חיפה, ישראל</ParentName>
    <Latitude>32.819148</Latitude>
    <Longitude>34.981059</Longitude>
  </Street>
  <Street>
    <NativeName>הבנייה</NativeName>
    <ParentName>חיפה, ישראל</ParentName>
    <Latitude>32.812757</Latitude>
    <Longitude>35.061802</Longitude>
  </Street>
  <Street>
    <NativeName>הבנים</NativeName>
    <ParentName>חיפה, ישראל</ParentName>
    <Latitude>32.793764</Latitude>
    <Longitude>35.012446</Longitude>
  </Street>
  <Street>
    <NativeName>הבנקים</NativeName>
    <ParentName>חיפה, ישראל</ParentName>
    <Latitude>32.819619</Latitude>
    <Longitude>34.996701</Longitude>
  </Street>
  <Street>
    <NativeName>הבסטיליה</NativeName>
    <ParentName>חיפה, ישראל</ParentName>
    <Latitude>32.820887</Latitude>
    <Longitude>34.957862</Longitude>
  </Street>
  <Street>
    <NativeName>הברון הירש</NativeName>
    <ParentName>חיפה, ישראל</ParentName>
    <AlternateName>הירש</AlternateName>
    <Latitude>32.819323</Latitude>
    <Longitude>34.983846</Longitude>
  </Street>
  <Street>
    <NativeName>הבריכה</NativeName>
    <ParentName>חיפה, ישראל</ParentName>
    <Latitude>32.788850</Latitude>
    <Longitude>35.017336</Longitude>
  </Street>
  <Street>
    <NativeName>הבשן</NativeName>
    <ParentName>חיפה, ישראל</ParentName>
    <Latitude>32.805642</Latitude>
    <Longitude>35.016820</Longitude>
  </Street>
  <Street>
    <NativeName>הגביש</NativeName>
    <ParentName>חיפה, ישראל</ParentName>
    <Latitude>32.821013</Latitude>
    <Longitude>35.042165</Longitude>
  </Street>
  <Street>
    <NativeName>הגדוד העברי</NativeName>
    <ParentName>חיפה, ישראל</ParentName>
    <Latitude>32.824431</Latitude>
    <Longitude>35.068720</Longitude>
  </Street>
  <Street>
    <NativeName>הגומא</NativeName>
    <ParentName>חיפה, ישראל</ParentName>
    <Latitude>32.816837</Latitude>
    <Longitude>35.056683</Longitude>
  </Street>
  <Street>
    <NativeName>הגיבורים</NativeName>
    <ParentName>חיפה, ישראל</ParentName>
    <Latitude>32.801765</Latitude>
    <Longitude>35.010471</Longitude>
  </Street>
  <Street>
    <NativeName>הגליל</NativeName>
    <ParentName>חיפה, ישראל</ParentName>
    <Latitude>32.789934</Latitude>
    <Longitude>35.018451</Longitude>
  </Street>
  <Street>
    <NativeName>הגנים</NativeName>
    <ParentName>חיפה, ישראל</ParentName>
    <Latitude>32.821506</Latitude>
    <Longitude>34.989983</Longitude>
  </Street>
  <Street>
    <NativeName>הגפן</NativeName>
    <ParentName>חיפה, ישראל</ParentName>
    <Latitude>32.817415</Latitude>
    <Longitude>34.988762</Longitude>
  </Street>
  <Street>
    <NativeName>הדגן</NativeName>
    <ParentName>חיפה, ישראל</ParentName>
    <Latitude>32.819072</Latitude>
    <Longitude>35.056810</Longitude>
  </Street>
  <Street>
    <NativeName>הדולב</NativeName>
    <ParentName>חיפה, ישראל</ParentName>
    <Latitude>32.815232</Latitude>
    <Longitude>34.967753</Longitude>
  </Street>
  <Street>
    <NativeName>הדייגים</NativeName>
    <ParentName>חיפה, ישראל</ParentName>
    <Latitude>32.807316</Latitude>
    <Longitude>35.034261</Longitude>
  </Street>
  <Street>
    <NativeName>הדסה</NativeName>
    <ParentName>חיפה, ישראל</ParentName>
    <Latitude>32.785274</Latitude>
    <Longitude>34.988190</Longitude>
  </Street>
  <Street>
    <NativeName>הדסים</NativeName>
    <ParentName>חיפה, ישראל</ParentName>
    <Latitude>32.804762</Latitude>
    <Longitude>34.982297</Longitude>
  </Street>
  <Street>
    <NativeName>הדף היומי</NativeName>
    <ParentName>חיפה, ישראל</ParentName>
    <Latitude>32.837310</Latitude>
    <Longitude>35.068982</Longitude>
  </Street>
  <CityRegion>
    <NativeName>הדר הכרמל</NativeName>
    <ParentName>חיפה, ישראל</ParentName>
    <Latitude>32.808252</Latitude>
    <Longitude>34.997326</Longitude>
  </CityRegion>
  <Street>
    <NativeName>הדר</NativeName>
    <ParentName>חיפה, ישראל</ParentName>
    <Latitude>32.813008</Latitude>
    <Longitude>35.000042</Longitude>
  </Street>
  <Street>
    <NativeName>הדשנים</NativeName>
    <ParentName>חיפה, ישראל</ParentName>
    <Latitude>32.810326</Latitude>
    <Longitude>35.070248</Longitude>
  </Street>
  <Street>
    <NativeName>ההגה</NativeName>
    <ParentName>חיפה, ישראל</ParentName>
    <Latitude>32.826405</Latitude>
    <Longitude>34.963413</Longitude>
  </Street>
  <CityRegion>
    <NativeName>הואדי</NativeName>
    <ParentName>חיפה, ישראל</ParentName>
    <Latitude>32.818345</Latitude>
    <Longitude>34.993563</Longitude>
  </CityRegion>
  <CityRegion>
    <NativeName>הוד הכרמל דניה</NativeName>
    <ParentName>חיפה, ישראל</ParentName>
    <Latitude>32.768007</Latitude>
    <Longitude>35.005274</Longitude>
  </CityRegion>
  <Street>
    <NativeName>הולנד</NativeName>
    <ParentName>חיפה, ישראל</ParentName>
    <Latitude>32.765340</Latitude>
    <Longitude>34.989247</Longitude>
  </Street>
  <Street>
    <NativeName>הורדים</NativeName>
    <ParentName>חיפה, ישראל</ParentName>
    <Latitude>32.803243</Latitude>
    <Longitude>34.980461</Longitude>
  </Street>
  <Street>
    <NativeName>הותיקים</NativeName>
    <ParentName>חיפה, ישראל</ParentName>
    <Latitude>32.834757</Latitude>
    <Longitude>35.060103</Longitude>
  </Street>
  <Street>
    <NativeName>הזגג</NativeName>
    <ParentName>חיפה, ישראל</ParentName>
    <Latitude>32.819665</Latitude>
    <Longitude>34.997233</Longitude>
  </Street>
  <Street>
    <NativeName>הזית</NativeName>
    <ParentName>חיפה, ישראל</ParentName>
    <Latitude>32.827705</Latitude>
    <Longitude>34.979485</Longitude>
  </Street>
  <Street>
    <NativeName>החבצלת</NativeName>
    <ParentName>חיפה, ישראל</ParentName>
    <Latitude>32.829244</Latitude>
    <Longitude>35.064632</Longitude>
  </Street>
  <Street>
    <NativeName>החותרים</NativeName>
    <ParentName>חיפה, ישראל</ParentName>
    <Latitude>32.821949</Latitude>
    <Longitude>34.982565</Longitude>
  </Street>
  <Street>
    <NativeName>החי"ל</NativeName>
    <ParentName>חיפה, ישראל</ParentName>
    <Latitude>32.831046</Latitude>
    <Longitude>34.977876</Longitude>
  </Street>
  <Street>
    <NativeName>החיטה</NativeName>
    <ParentName>חיפה, ישראל</ParentName>
    <Latitude>32.820498</Latitude>
    <Longitude>35.058571</Longitude>
  </Street>
  <Street>
    <NativeName>החיננית</NativeName>
    <ParentName>חיפה, ישראל</ParentName>
    <Latitude>32.816735</Latitude>
    <Longitude>34.958957</Longitude>
  </Street>
  <Street>
    <NativeName>החלוץ</NativeName>
    <ParentName>חיפה, ישראל</ParentName>
    <Latitude>32.810725</Latitude>
    <Longitude>34.999045</Longitude>
  </Street>
  <Street>
    <NativeName>החרושת</NativeName>
    <ParentName>חיפה, ישראל</ParentName>
    <Latitude>32.806986</Latitude>
    <Longitude>35.054415</Longitude>
  </Street>
  <Street>
    <NativeName>החרמש</NativeName>
    <ParentName>חיפה, ישראל</ParentName>
    <Latitude>32.790224</Latitude>
    <Longitude>35.042710</Longitude>
  </Street>
  <Street>
    <NativeName>החרש</NativeName>
    <ParentName>חיפה, ישראל</ParentName>
    <Latitude>32.811407</Latitude>
    <Longitude>35.064597</Longitude>
  </Street>
  <Street>
    <NativeName>החשמונאים</NativeName>
    <ParentName>חיפה, ישראל</ParentName>
    <Latitude>32.806781</Latitude>
    <Longitude>34.989739</Longitude>
  </Street>
  <Street>
    <NativeName>החשמל</NativeName>
    <ParentName>חיפה, ישראל</ParentName>
    <Latitude>32.795684</Latitude>
    <Longitude>35.020283</Longitude>
  </Street>
  <Street>
    <NativeName>הטנא</NativeName>
    <ParentName>חיפה, ישראל</ParentName>
    <Latitude>32.800673</Latitude>
    <Longitude>34.988581</Longitude>
  </Street>
  <Street>
    <NativeName>היובל</NativeName>
    <ParentName>חיפה, ישראל</ParentName>
    <Latitude>32.816868</Latitude>
    <Longitude>34.979655</Longitude>
  </Street>
  <Street>
    <NativeName>היוצק</NativeName>
    <ParentName>חיפה, ישראל</ParentName>
    <Latitude>32.816388</Latitude>
    <Longitude>35.047270</Longitude>
  </Street>
  <Street>
    <NativeName>היצירה</NativeName>
    <ParentName>חיפה, ישראל</ParentName>
    <Latitude>32.811352</Latitude>
    <Longitude>35.061753</Longitude>
  </Street>
  <Street>
    <NativeName>הירדן</NativeName>
    <ParentName>חיפה, ישראל</ParentName>
    <Latitude>32.800994</Latitude>
    <Longitude>35.009760</Longitude>
  </Street>
  <Street>
    <NativeName>הירוק</NativeName>
    <ParentName>חיפה, ישראל</ParentName>
    <Latitude>32.817611</Latitude>
    <Longitude>34.987808</Longitude>
  </Street>
  <Street>
    <NativeName>הירמוך</NativeName>
    <ParentName>חיפה, ישראל</ParentName>
    <Latitude>32.805468</Latitude>
    <Longitude>35.006881</Longitude>
  </Street>
  <Street>
    <NativeName>הירקון</NativeName>
    <ParentName>חיפה, ישראל</ParentName>
    <Latitude>32.793708</Latitude>
    <Longitude>34.984530</Longitude>
  </Street>
  <Street>
    <NativeName>הכ"ג</NativeName>
    <ParentName>חיפה, ישראל</ParentName>
    <Latitude>32.831670</Latitude>
    <Longitude>34.977168</Longitude>
  </Street>
  <Street>
    <NativeName>הכנסייה</NativeName>
    <ParentName>חיפה, ישראל</ParentName>
    <Latitude>32.818097</Latitude>
    <Longitude>34.989558</Longitude>
  </Street>
  <Street>
    <NativeName>הכרמים</NativeName>
    <ParentName>חיפה, ישראל</ParentName>
    <Latitude>32.816250</Latitude>
    <Longitude>34.989189</Longitude>
  </Street>
  <Street>
    <NativeName>הכשרת היישוב</NativeName>
    <ParentName>חיפה, ישראל</ParentName>
    <Latitude>32.768636</Latitude>
    <Longitude>35.009293</Longitude>
  </Street>
  <Street>
    <NativeName>הליבנה</NativeName>
    <ParentName>חיפה, ישראל</ParentName>
    <Latitude>32.814128</Latitude>
    <Longitude>34.958082</Longitude>
  </Street>
  <Street>
    <NativeName>הלילך</NativeName>
    <ParentName>חיפה, ישראל</ParentName>
    <Latitude>32.802105</Latitude>
    <Longitude>34.980443</Longitude>
  </Street>
  <Street>
    <NativeName>הלל יפה</NativeName>
    <ParentName>חיפה, ישראל</ParentName>
    <Latitude>32.809098</Latitude>
    <Longitude>34.998108</Longitude>
  </Street>
  <Street>
    <NativeName>הלל</NativeName>
    <ParentName>חיפה, ישראל</ParentName>
    <Latitude>32.810135</Latitude>
    <Longitude>34.991049</Longitude>
  </Street>
  <Street>
    <NativeName>המוכתר צבי</NativeName>
    <ParentName>חיפה, ישראל</ParentName>
    <Latitude>32.799252</Latitude>
    <Longitude>35.011545</Longitude>
  </Street>
  <Street>
    <NativeName>המולדת</NativeName>
    <ParentName>חיפה, ישראל</ParentName>
    <Latitude>32.838690</Latitude>
    <Longitude>35.069802</Longitude>
  </Street>
  <Street>
    <NativeName>המוסכים</NativeName>
    <ParentName>חיפה, ישראל</ParentName>
    <Latitude>32.793141</Latitude>
    <Longitude>35.041143</Longitude>
  </Street>
  <CityRegion>
    <NativeName>המושבה הגרמנית</NativeName>
    <ParentName>חיפה, ישראל</ParentName>
    <Latitude>32.819527</Latitude>
    <Longitude>34.987969</Longitude>
  </CityRegion>
  <Street>
    <NativeName>המחנך נפחא</NativeName>
    <ParentName>חיפה, ישראל</ParentName>
    <Latitude>32.791366</Latitude>
    <Longitude>35.020958</Longitude>
  </Street>
  <Street>
    <NativeName>המיימוני</NativeName>
    <ParentName>חיפה, ישראל</ParentName>
    <Latitude>32.803458</Latitude>
    <Longitude>34.996532</Longitude>
  </Street>
  <Street>
    <NativeName>המים</NativeName>
    <ParentName>חיפה, ישראל</ParentName>
    <Latitude>32.799426</Latitude>
    <Longitude>34.984136</Longitude>
  </Street>
  <Street>
    <NativeName>המכס</NativeName>
    <ParentName>חיפה, ישראל</ParentName>
    <Latitude>32.827590</Latitude>
    <Longitude>34.989222</Longitude>
  </Street>
  <Street>
    <NativeName>המלאכה</NativeName>
    <ParentName>חיפה, ישראל</ParentName>
    <Latitude>32.805919</Latitude>
    <Longitude>35.012958</Longitude>
  </Street>
  <Street>
    <NativeName>המלך אמציהו</NativeName>
    <ParentName>חיפה, ישראל</ParentName>
    <Latitude>32.809106</Latitude>
    <Longitude>34.962626</Longitude>
  </Street>
  <Street>
    <NativeName>המלך אסא</NativeName>
    <ParentName>חיפה, ישראל</ParentName>
    <Latitude>32.809386</Latitude>
    <Longitude>34.958418</Longitude>
  </Street>
  <Street>
    <NativeName>המלך דוד</NativeName>
    <ParentName>חיפה, ישראל</ParentName>
    <AlternateName>המלך דויד</AlternateName>
    <Latitude>32.810029</Latitude>
    <Longitude>34.959048</Longitude>
  </Street>
  <Street>
    <NativeName>המלך חזקיהו</NativeName>
    <ParentName>חיפה, ישראל</ParentName>
    <Latitude>32.808667</Latitude>
    <Longitude>34.960617</Longitude>
  </Street>
  <Street>
    <NativeName>המלך יהואש</NativeName>
    <ParentName>חיפה, ישראל</ParentName>
    <Latitude>32.807778</Latitude>
    <Longitude>34.958896</Longitude>
  </Street>
  <Street>
    <NativeName>המלך יהושפט</NativeName>
    <ParentName>חיפה, ישראל</ParentName>
    <Latitude>32.807748</Latitude>
    <Longitude>34.961024</Longitude>
  </Street>
  <Street>
    <NativeName>המלך עוזיהו</NativeName>
    <ParentName>חיפה, ישראל</ParentName>
    <Latitude>32.810558</Latitude>
    <Longitude>34.959652</Longitude>
  </Street>
  <Street>
    <NativeName>המלך שאול</NativeName>
    <ParentName>חיפה, ישראל</ParentName>
    <Latitude>32.806073</Latitude>
    <Longitude>34.960172</Longitude>
  </Street>
  <Street>
    <NativeName>המלך שלמה</NativeName>
    <ParentName>חיפה, ישראל</ParentName>
    <Latitude>32.806566</Latitude>
    <Longitude>34.963165</Longitude>
  </Street>
  <Street>
    <NativeName>המסגר</NativeName>
    <ParentName>חיפה, ישראל</ParentName>
    <Latitude>32.811337</Latitude>
    <Longitude>35.063211</Longitude>
  </Street>
  <Street>
    <NativeName>המעלות</NativeName>
    <ParentName>חיפה, ישראל</ParentName>
    <Latitude>32.801080</Latitude>
    <Longitude>35.009597</Longitude>
  </Street>
  <Street>
    <NativeName>המעפילים</NativeName>
    <ParentName>חיפה, ישראל</ParentName>
    <Latitude>32.822427</Latitude>
    <Longitude>34.983508</Longitude>
  </Street>
  <Street>
    <NativeName>המפוח</NativeName>
    <ParentName>חיפה, ישראל</ParentName>
    <Latitude>32.811106</Latitude>
    <Longitude>35.058225</Longitude>
  </Street>
  <Street>
    <NativeName>המרוניטים</NativeName>
    <ParentName>חיפה, ישראל</ParentName>
    <Latitude>32.816727</Latitude>
    <Longitude>34.998934</Longitude>
  </Street>
  <Street>
    <NativeName>המשביר</NativeName>
    <ParentName>חיפה, ישראל</ParentName>
    <Latitude>32.784791</Latitude>
    <Longitude>35.036815</Longitude>
  </Street>
  <Street>
    <NativeName>המשטרה</NativeName>
    <ParentName>חיפה, ישראל</ParentName>
    <Latitude>32.824942</Latitude>
    <Longitude>34.990537</Longitude>
  </Street>
  <Street>
    <NativeName>הנאמנים</NativeName>
    <ParentName>חיפה, ישראל</ParentName>
    <Latitude>32.819822</Latitude>
    <Longitude>34.995852</Longitude>
  </Street>
  <Street>
    <NativeName>הנביאים</NativeName>
    <ParentName>חיפה, ישראל</ParentName>
    <Latitude>32.813109</Latitude>
    <Longitude>34.995615</Longitude>
  </Street>
  <Street>
    <NativeName>הנגב</NativeName>
    <ParentName>חיפה, ישראל</ParentName>
    <Latitude>32.802883</Latitude>
    <Longitude>35.004799</Longitude>
  </Street>
  <Street>
    <NativeName>הנגיד</NativeName>
    <ParentName>חיפה, ישראל</ParentName>
    <Latitude>32.803586</Latitude>
    <Longitude>35.009760</Longitude>
  </Street>
  <CityRegion>
    <NativeName>הנדסת חשמל בניין מאייר</NativeName>
    <ParentName>חיפה, ישראל</ParentName>
    <Latitude>32.776146</Latitude>
    <Longitude>35.024790</Longitude>
  </CityRegion>
  <Street>
    <NativeName>הנוטר</NativeName>
    <ParentName>חיפה, ישראל</ParentName>
    <Latitude>32.822468</Latitude>
    <Longitude>35.069169</Longitude>
  </Street>
  <Street>
    <NativeName>הנופר</NativeName>
    <ParentName>חיפה, ישראל</ParentName>
    <Latitude>32.816515</Latitude>
    <Longitude>35.056383</Longitude>
  </Street>
  <Street>
    <NativeName>הנמל</NativeName>
    <ParentName>חיפה, ישראל</ParentName>
    <Latitude>32.819357</Latitude>
    <Longitude>35.000270</Longitude>
  </Street>
  <Street>
    <NativeName>הנפח</NativeName>
    <ParentName>חיפה, ישראל</ParentName>
    <Latitude>32.787475</Latitude>
    <Longitude>35.035560</Longitude>
  </Street>
  <Street>
    <NativeName>הנצי"ב</NativeName>
    <ParentName>חיפה, ישראל</ParentName>
    <Latitude>32.832717</Latitude>
    <Longitude>35.068359</Longitude>
  </Street>
  <Street>
    <NativeName>הנרייטה סולד</NativeName>
    <ParentName>חיפה, ישראל</ParentName>
    <Latitude>32.805080</Latitude>
    <Longitude>34.990603</Longitude>
  </Street>
  <Street>
    <NativeName>הנרקיסים</NativeName>
    <ParentName>חיפה, ישראל</ParentName>
    <Latitude>32.807769</Latitude>
    <Longitude>34.979922</Longitude>
  </Street>
  <Street>
    <NativeName>הנשר</NativeName>
    <ParentName>חיפה, ישראל</ParentName>
    <Latitude>32.802220</Latitude>
    <Longitude>34.976100</Longitude>
  </Street>
  <Street>
    <NativeName>הס</NativeName>
    <ParentName>חיפה, ישראל</ParentName>
    <AlternateName>משה הס</AlternateName>
    <Latitude>32.807160</Latitude>
    <Longitude>34.992828</Longitude>
  </Street>
  <Street>
    <NativeName>הסביונים</NativeName>
    <ParentName>חיפה, ישראל</ParentName>
    <Latitude>32.806430</Latitude>
    <Longitude>34.988708</Longitude>
  </Street>
  <Street>
    <NativeName>הסדנה</NativeName>
    <ParentName>חיפה, ישראל</ParentName>
    <Latitude>32.788952</Latitude>
    <Longitude>35.030892</Longitude>
  </Street>
  <Street>
    <NativeName>הסולל</NativeName>
    <ParentName>חיפה, ישראל</ParentName>
    <Latitude>32.810567</Latitude>
    <Longitude>35.072552</Longitude>
  </Street>
  <Street>
    <NativeName>הסנה</NativeName>
    <ParentName>חיפה, ישראל</ParentName>
    <Latitude>32.812089</Latitude>
    <Longitude>34.969513</Longitude>
  </Street>
  <Street>
    <NativeName>הסנונית</NativeName>
    <ParentName>חיפה, ישראל</ParentName>
    <Latitude>32.823505</Latitude>
    <Longitude>35.075916</Longitude>
  </Street>
  <Street>
    <NativeName>הספורט</NativeName>
    <ParentName>חיפה, ישראל</ParentName>
    <Latitude>32.799270</Latitude>
    <Longitude>34.986358</Longitude>
  </Street>
  <Street>
    <NativeName>הסראיה</NativeName>
    <ParentName>חיפה, ישראל</ParentName>
    <Latitude>32.816788</Latitude>
    <Longitude>35.002689</Longitude>
  </Street>
  <Street>
    <NativeName>העבודה</NativeName>
    <ParentName>חיפה, ישראל</ParentName>
    <Latitude>32.810475</Latitude>
    <Longitude>35.063341</Longitude>
  </Street>
  <Street>
    <NativeName>העוגן</NativeName>
    <ParentName>חיפה, ישראל</ParentName>
    <Latitude>32.827313</Latitude>
    <Longitude>34.963793</Longitude>
  </Street>
  <CityRegion>
    <NativeName>העיר התחתית</NativeName>
    <ParentName>חיפה, ישראל</ParentName>
    <Latitude>32.817137</Latitude>
    <Longitude>35.001788</Longitude>
  </CityRegion>
  <Street>
    <NativeName>העלייה השנייה</NativeName>
    <ParentName>חיפה, ישראל</ParentName>
    <Latitude>32.832089</Latitude>
    <Longitude>34.977977</Longitude>
  </Street>
  <Street>
    <NativeName>העמלים</NativeName>
    <ParentName>חיפה, ישראל</ParentName>
    <Latitude>32.811525</Latitude>
    <Longitude>35.060608</Longitude>
  </Street>
  <Street>
    <NativeName>העמק</NativeName>
    <ParentName>חיפה, ישראל</ParentName>
    <Latitude>32.807632</Latitude>
    <Longitude>34.994206</Longitude>
  </Street>
  <Street>
    <NativeName>העתיד</NativeName>
    <ParentName>חיפה, ישראל</ParentName>
    <Latitude>32.809009</Latitude>
    <Longitude>35.014600</Longitude>
  </Street>
  <Street>
    <NativeName>הפועל</NativeName>
    <ParentName>חיפה, ישראל</ParentName>
    <Latitude>32.804471</Latitude>
    <Longitude>34.997362</Longitude>
  </Street>
  <Street>
    <NativeName>הפלוגות</NativeName>
    <ParentName>חיפה, ישראל</ParentName>
    <Latitude>32.827783</Latitude>
    <Longitude>35.071866</Longitude>
  </Street>
  <Street>
    <NativeName>הפלס</NativeName>
    <ParentName>חיפה, ישראל</ParentName>
    <Latitude>32.816388</Latitude>
    <Longitude>35.047270</Longitude>
  </Street>
  <Street>
    <NativeName>הפרחים</NativeName>
    <ParentName>חיפה, ישראל</ParentName>
    <Latitude>32.784054</Latitude>
    <Longitude>34.995303</Longitude>
  </Street>
  <Street>
    <NativeName>הפרטיזנים</NativeName>
    <ParentName>חיפה, ישראל</ParentName>
    <Latitude>32.823190</Latitude>
    <Longitude>34.981938</Longitude>
  </Street>
  <Street>
    <NativeName>הפרסה</NativeName>
    <ParentName>חיפה, ישראל</ParentName>
    <Latitude>32.814726</Latitude>
    <Longitude>35.048636</Longitude>
  </Street>
  <Street>
    <NativeName>הפרסים</NativeName>
    <ParentName>חיפה, ישראל</ParentName>
    <Latitude>32.817033</Latitude>
    <Longitude>34.990987</Longitude>
  </Street>
  <Street>
    <NativeName>הצדף</NativeName>
    <ParentName>חיפה, ישראל</ParentName>
    <Latitude>32.812210</Latitude>
    <Longitude>34.955869</Longitude>
  </Street>
  <Street>
    <NativeName>הצופים</NativeName>
    <ParentName>חיפה, ישראל</ParentName>
    <Latitude>32.804953</Latitude>
    <Longitude>34.980778</Longitude>
  </Street>
  <Street>
    <NativeName>הצלבנים</NativeName>
    <ParentName>חיפה, ישראל</ParentName>
    <Latitude>32.815720</Latitude>
    <Longitude>34.981283</Longitude>
  </Street>
  <Street>
    <NativeName>הצלפים</NativeName>
    <ParentName>חיפה, ישראל</ParentName>
    <Latitude>32.788251</Latitude>
    <Longitude>34.995778</Longitude>
  </Street>
  <Street>
    <NativeName>הצנחנים</NativeName>
    <ParentName>חיפה, ישראל</ParentName>
    <Latitude>32.831649</Latitude>
    <Longitude>34.977652</Longitude>
  </Street>
  <Street>
    <NativeName>הצפירה</NativeName>
    <ParentName>חיפה, ישראל</ParentName>
    <Latitude>32.779744</Latitude>
    <Longitude>35.015105</Longitude>
  </Street>
  <Street>
    <NativeName>הקונגרס</NativeName>
    <ParentName>חיפה, ישראל</ParentName>
    <Latitude>32.834605</Latitude>
    <Longitude>35.056869</Longitude>
  </Street>
  <Street>
    <NativeName>הקורנס</NativeName>
    <ParentName>חיפה, ישראל</ParentName>
    <Latitude>32.789271</Latitude>
    <Longitude>35.035712</Longitude>
  </Street>
  <Street>
    <NativeName>הקטר</NativeName>
    <ParentName>חיפה, ישראל</ParentName>
    <Latitude>32.810087</Latitude>
    <Longitude>35.005221</Longitude>
  </Street>
  <Street>
    <NativeName>הקיבוצים</NativeName>
    <ParentName>חיפה, ישראל</ParentName>
    <Latitude>32.825081</Latitude>
    <Longitude>35.074211</Longitude>
  </Street>
  <Street>
    <NativeName>הקיטור</NativeName>
    <ParentName>חיפה, ישראל</ParentName>
    <Latitude>32.811195</Latitude>
    <Longitude>35.058137</Longitude>
  </Street>
  <Street>
    <NativeName>הקישון</NativeName>
    <ParentName>חיפה, ישראל</ParentName>
    <Latitude>32.806226</Latitude>
    <Longitude>35.005113</Longitude>
  </Street>
  <Street>
    <NativeName>הקלעים</NativeName>
    <ParentName>חיפה, ישראל</ParentName>
    <Latitude>32.831566</Latitude>
    <Longitude>34.976027</Longitude>
  </Street>
  <Street>
    <NativeName>הקנאים</NativeName>
    <ParentName>חיפה, ישראל</ParentName>
    <Latitude>32.804658</Latitude>
    <Longitude>34.996900</Longitude>
  </Street>
  <Street>
    <NativeName>הקשת</NativeName>
    <ParentName>חיפה, ישראל</ParentName>
    <Latitude>32.803099</Latitude>
    <Longitude>34.974616</Longitude>
  </Street>
  <Street>
    <NativeName>הראל</NativeName>
    <ParentName>חיפה, ישראל</ParentName>
    <Latitude>32.789174</Latitude>
    <Longitude>34.992199</Longitude>
  </Street>
  <Street>
    <NativeName>הראשונים</NativeName>
    <ParentName>חיפה, ישראל</ParentName>
    <Latitude>32.824573</Latitude>
    <Longitude>35.067236</Longitude>
  </Street>
  <Street>
    <NativeName>הרב אברהם כלפון</NativeName>
    <ParentName>חיפה, ישראל</ParentName>
    <AlternateName>הרבי אברהם כלפון</AlternateName>
    <AlternateName>אברהם כלפון</AlternateName>
    <AlternateName>רבי אברהם כלפון</AlternateName>
    <Latitude>32.823189</Latitude>
    <Longitude>34.979050</Longitude>
  </Street>
  <Street>
    <NativeName>הרב אוחנה</NativeName>
    <ParentName>חיפה, ישראל</ParentName>
    <AlternateName>אוחנה</AlternateName>
    <AlternateName>רבי אוחנה</AlternateName>
    <AlternateName>הרבי אוחנה</AlternateName>
    <Latitude>32.810550</Latitude>
    <Longitude>35.002621</Longitude>
  </Street>
  <Street>
    <NativeName>הרב אסף דוד</NativeName>
    <ParentName>חיפה, ישראל</ParentName>
    <AlternateName>הרבי אסף דויד</AlternateName>
    <AlternateName>אסף דוד</AlternateName>
    <AlternateName>רבי אסף דוד</AlternateName>
    <AlternateName>רבי אסף דויד</AlternateName>
    <AlternateName>הרב אסף דויד</AlternateName>
    <AlternateName>אסף דויד</AlternateName>
    <AlternateName>הרבי אסף דוד</AlternateName>
    <Latitude>32.774507</Latitude>
    <Longitude>34.993786</Longitude>
  </Street>
  <Street>
    <NativeName>הרב אריה לוין</NativeName>
    <ParentName>חיפה, ישראל</ParentName>
    <AlternateName>רבי אריה לוין</AlternateName>
    <AlternateName>הרבי אריה לוין</AlternateName>
    <AlternateName>אריה לוין</AlternateName>
    <Latitude>32.841695</Latitude>
    <Longitude>35.070956</Longitude>
  </Street>
  <Street>
    <NativeName>הרב הרצוג</NativeName>
    <ParentName>חיפה, ישראל</ParentName>
    <AlternateName>רבי הרצוג</AlternateName>
    <AlternateName>הרבי הרצוג</AlternateName>
    <AlternateName>הרצוג</AlternateName>
    <Latitude>32.806209</Latitude>
    <Longitude>35.001628</Longitude>
  </Street>
  <Street>
    <NativeName>הרב מיימון</NativeName>
    <ParentName>חיפה, ישראל</ParentName>
    <AlternateName>מיימון</AlternateName>
    <AlternateName>רבי מיימון</AlternateName>
    <AlternateName>הרבי מיימון</AlternateName>
    <Latitude>32.784792</Latitude>
    <Longitude>35.022675</Longitude>
  </Street>
  <Street>
    <NativeName>הרב מרכוס</NativeName>
    <ParentName>חיפה, ישראל</ParentName>
    <AlternateName>הרבי מרכוס</AlternateName>
    <AlternateName>מרכוס</AlternateName>
    <AlternateName>רבי מרכוס</AlternateName>
    <Latitude>32.810669</Latitude>
    <Longitude>35.002537</Longitude>
  </Street>
  <Street>
    <NativeName>הרב משאש יוסף</NativeName>
    <ParentName>חיפה, ישראל</ParentName>
    <AlternateName>משאש יוסף</AlternateName>
    <AlternateName>הרבי משאש יוסף</AlternateName>
    <AlternateName>רבי משאש יוסף</AlternateName>
    <Latitude>32.792944</Latitude>
    <Longitude>35.020561</Longitude>
  </Street>
  <Street>
    <NativeName>הרב ניסים</NativeName>
    <ParentName>חיפה, ישראל</ParentName>
    <AlternateName>רבי ניסים</AlternateName>
    <AlternateName>ניסים</AlternateName>
    <AlternateName>הרבי ניסים</AlternateName>
    <Latitude>32.834837</Latitude>
    <Longitude>35.068989</Longitude>
  </Street>
  <Street>
    <NativeName>הרב פרץ חיות</NativeName>
    <ParentName>חיפה, ישראל</ParentName>
    <AlternateName>פרץ חיות</AlternateName>
    <AlternateName>רבי פרץ חיות</AlternateName>
    <AlternateName>הרבי פרץ חיות</AlternateName>
    <Latitude>32.821108</Latitude>
    <Longitude>34.973565</Longitude>
  </Street>
  <Street>
    <NativeName>הרב קלישר</NativeName>
    <ParentName>חיפה, ישראל</ParentName>
    <AlternateName>רבי קלישר</AlternateName>
    <AlternateName>קלישר</AlternateName>
    <AlternateName>הרבי קלישר</AlternateName>
    <Latitude>32.780901</Latitude>
    <Longitude>35.014779</Longitude>
  </Street>
  <Street>
    <NativeName>הרב קניאל</NativeName>
    <ParentName>חיפה, ישראל</ParentName>
    <AlternateName>קניאל</AlternateName>
    <AlternateName>הרבי קניאל</AlternateName>
    <AlternateName>רבי קניאל</AlternateName>
    <Latitude>32.797959</Latitude>
    <Longitude>35.000473</Longitude>
  </Street>
  <Street>
    <NativeName>הרב רפאל אנקואה</NativeName>
    <ParentName>חיפה, ישראל</ParentName>
    <AlternateName>רפאל אנקואה</AlternateName>
    <AlternateName>הרבי רפאל אנקואה</AlternateName>
    <AlternateName>רבי רפאל אנקואה</AlternateName>
    <Latitude>32.817031</Latitude>
    <Longitude>34.959374</Longitude>
  </Street>
  <Street>
    <NativeName>הרב שלמה גורן</NativeName>
    <ParentName>חיפה, ישראל</ParentName>
    <AlternateName>שלמה גורן</AlternateName>
    <AlternateName>רבי שלמה גורן</AlternateName>
    <AlternateName>הרבי שלמה גורן</AlternateName>
    <Latitude>32.836062</Latitude>
    <Longitude>35.070051</Longitude>
  </Street>
  <Street>
    <NativeName>הרבנית חיה מושקא</NativeName>
    <ParentName>חיפה, ישראל</ParentName>
    <Latitude>32.841102</Latitude>
    <Longitude>35.073534</Longitude>
  </Street>
  <Street>
    <NativeName>הרדוף</NativeName>
    <ParentName>חיפה, ישראל</ParentName>
    <Latitude>32.810083</Latitude>
    <Longitude>34.971437</Longitude>
  </Street>
  <Street>
    <NativeName>הרופא זלוצ'יסטי</NativeName>
    <ParentName>חיפה, ישראל</ParentName>
    <Latitude>32.785165</Latitude>
    <Longitude>34.981017</Longitude>
  </Street>
  <Street>
    <NativeName>הרותם</NativeName>
    <ParentName>חיפה, ישראל</ParentName>
    <Latitude>32.816387</Latitude>
    <Longitude>34.956181</Longitude>
  </Street>
  <Street>
    <NativeName>הרץ</NativeName>
    <ParentName>חיפה, ישראל</ParentName>
    <Latitude>32.808553</Latitude>
    <Longitude>35.015630</Longitude>
  </Street>
  <Street>
    <NativeName>הרצל גרינשפון</NativeName>
    <ParentName>חיפה, ישראל</ParentName>
    <Latitude>32.819072</Latitude>
    <Longitude>35.056810</Longitude>
  </Street>
  <Street>
    <NativeName>הרצל</NativeName>
    <ParentName>חיפה, ישראל</ParentName>
    <Latitude>32.808347</Latitude>
    <Longitude>35.000255</Longitude>
  </Street>
  <CityRegion>
    <NativeName>הרצליה</NativeName>
    <ParentName>חיפה, ישראל</ParentName>
    <Latitude>32.813021</Latitude>
    <Longitude>34.992246</Longitude>
  </CityRegion>
  <Street>
    <NativeName>הרקפות</NativeName>
    <ParentName>חיפה, ישראל</ParentName>
    <Latitude>32.808832</Latitude>
    <Longitude>34.978119</Longitude>
  </Street>
  <Street>
    <NativeName>השומר</NativeName>
    <ParentName>חיפה, ישראל</ParentName>
    <Latitude>32.807028</Latitude>
    <Longitude>35.004421</Longitude>
  </Street>
  <Street>
    <NativeName>השחף</NativeName>
    <ParentName>חיפה, ישראל</ParentName>
    <Latitude>32.834760</Latitude>
    <Longitude>34.980364</Longitude>
  </Street>
  <Street>
    <NativeName>השיירה</NativeName>
    <ParentName>חיפה, ישראל</ParentName>
    <Latitude>32.819729</Latitude>
    <Longitude>35.072854</Longitude>
  </Street>
  <Street>
    <NativeName>השילוח</NativeName>
    <ParentName>חיפה, ישראל</ParentName>
    <Latitude>32.804025</Latitude>
    <Longitude>35.000488</Longitude>
  </Street>
  <Street>
    <NativeName>השיש</NativeName>
    <ParentName>חיפה, ישראל</ParentName>
    <Latitude>32.808804</Latitude>
    <Longitude>35.061900</Longitude>
  </Street>
  <Street>
    <NativeName>השלום</NativeName>
    <ParentName>חיפה, ישראל</ParentName>
    <Latitude>32.811093</Latitude>
    <Longitude>34.992785</Longitude>
  </Street>
  <Street>
    <NativeName>השמש</NativeName>
    <ParentName>חיפה, ישראל</ParentName>
    <Latitude>32.809846</Latitude>
    <Longitude>35.001202</Longitude>
  </Street>
  <Street>
    <NativeName>השקד</NativeName>
    <ParentName>חיפה, ישראל</ParentName>
    <Latitude>32.819678</Latitude>
    <Longitude>35.077105</Longitude>
  </Street>
  <Street>
    <NativeName>השרון</NativeName>
    <ParentName>חיפה, ישראל</ParentName>
    <Latitude>32.833693</Latitude>
    <Longitude>34.978509</Longitude>
  </Street>
  <Street>
    <NativeName>התאנה</NativeName>
    <ParentName>חיפה, ישראל</ParentName>
    <Latitude>32.819678</Latitude>
    <Longitude>35.077105</Longitude>
  </Street>
  <Street>
    <NativeName>התור</NativeName>
    <ParentName>חיפה, ישראל</ParentName>
    <Latitude>32.801401</Latitude>
    <Longitude>34.982117</Longitude>
  </Street>
  <Street>
    <NativeName>התורן</NativeName>
    <ParentName>חיפה, ישראל</ParentName>
    <Latitude>32.826064</Latitude>
    <Longitude>34.961359</Longitude>
  </Street>
  <Street>
    <NativeName>התיכון</NativeName>
    <ParentName>חיפה, ישראל</ParentName>
    <Latitude>32.790195</Latitude>
    <Longitude>35.016136</Longitude>
  </Street>
  <Street>
    <NativeName>התמר</NativeName>
    <ParentName>חיפה, ישראל</ParentName>
    <Latitude>32.812858</Latitude>
    <Longitude>34.969864</Longitude>
  </Street>
  <Street>
    <NativeName>התקווה</NativeName>
    <ParentName>חיפה, ישראל</ParentName>
    <Latitude>32.825066</Latitude>
    <Longitude>34.986289</Longitude>
  </Street>
  <Street>
    <NativeName>התקומה</NativeName>
    <ParentName>חיפה, ישראל</ParentName>
    <Latitude>32.832336</Latitude>
    <Longitude>35.058845</Longitude>
  </Street>
  <Street>
    <NativeName>התשבי</NativeName>
    <ParentName>חיפה, ישראל</ParentName>
    <Latitude>32.811461</Latitude>
    <Longitude>34.981470</Longitude>
  </Street>
  <Street>
    <NativeName>התשעה</NativeName>
    <ParentName>חיפה, ישראל</ParentName>
    <Latitude>32.790846</Latitude>
    <Longitude>35.022406</Longitude>
  </Street>
  <Street>
    <NativeName>התשעים ושלוש</NativeName>
    <ParentName>חיפה, ישראל</ParentName>
    <Latitude>32.816928</Latitude>
    <Longitude>34.997534</Longitude>
  </Street>
  <CityRegion>
    <NativeName>ואדי ניסנאס</NativeName>
    <ParentName>חיפה, ישראל</ParentName>
    <Latitude>32.816074</Latitude>
    <Longitude>34.996039</Longitude>
  </CityRegion>
  <CityRegion>
    <NativeName>ואדי סאליב</NativeName>
    <ParentName>חיפה, ישראל</ParentName>
    <Latitude>32.810317</Latitude>
    <Longitude>35.000995</Longitude>
  </CityRegion>
  <Street>
    <NativeName>ואדי סאליב</NativeName>
    <ParentName>חיפה, ישראל</ParentName>
    <Latitude>32.811969</Latitude>
    <Longitude>35.003138</Longitude>
  </Street>
  <Street>
    <NativeName>ואדי</NativeName>
    <ParentName>חיפה, ישראל</ParentName>
    <Latitude>32.815596</Latitude>
    <Longitude>34.994045</Longitude>
  </Street>
  <Street>
    <NativeName>וולפסון</NativeName>
    <ParentName>חיפה, ישראל</ParentName>
    <Latitude>32.800608</Latitude>
    <Longitude>34.983257</Longitude>
  </Street>
  <Street>
    <NativeName>וילנסקי</NativeName>
    <ParentName>חיפה, ישראל</ParentName>
    <Latitude>32.807623</Latitude>
    <Longitude>34.990869</Longitude>
  </Street>
  <Street>
    <NativeName>ויצ"ו</NativeName>
    <ParentName>חיפה, ישראל</ParentName>
    <Latitude>32.799238</Latitude>
    <Longitude>34.971316</Longitude>
  </Street>
  <Street>
    <NativeName>ויקטור הוגו</NativeName>
    <ParentName>חיפה, ישראל</ParentName>
    <Latitude>32.820169</Latitude>
    <Longitude>34.967974</Longitude>
  </Street>
  <Street>
    <NativeName>ויתקין</NativeName>
    <ParentName>חיפה, ישראל</ParentName>
    <Latitude>32.783286</Latitude>
    <Longitude>34.985351</Longitude>
  </Street>
  <CityRegion>
    <NativeName>ורדיה</NativeName>
    <ParentName>חיפה, ישראל</ParentName>
    <Latitude>32.793916</Latitude>
    <Longitude>34.996161</Longitude>
  </CityRegion>
  <Street>
    <NativeName>ז'אן ז'ורס</NativeName>
    <ParentName>חיפה, ישראל</ParentName>
    <Latitude>32.823739</Latitude>
    <Longitude>34.962418</Longitude>
  </Street>
  <Street>
    <NativeName>זאב בנין</NativeName>
    <ParentName>חיפה, ישראל</ParentName>
    <Latitude>32.796113</Latitude>
    <Longitude>35.017438</Longitude>
  </Street>
  <Street>
    <NativeName>זאב הים</NativeName>
    <ParentName>חיפה, ישראל</ParentName>
    <Latitude>32.797867</Latitude>
    <Longitude>34.989702</Longitude>
  </Street>
  <Street>
    <NativeName>זאב וילנאי</NativeName>
    <ParentName>חיפה, ישראל</ParentName>
    <Latitude>32.775639</Latitude>
    <Longitude>35.014420</Longitude>
  </Street>
  <Street>
    <NativeName>זאב ז'בוטינסקי</NativeName>
    <ParentName>חיפה, ישראל</ParentName>
    <AlternateName>זבוטיסקי</AlternateName>
    <AlternateName>ז'בוטינסקי</AlternateName>
    <Latitude>32.818333</Latitude>
    <Longitude>34.975177</Longitude>
  </Street>
  <Street>
    <NativeName>זאב שוהם</NativeName>
    <ParentName>חיפה, ישראל</ParentName>
    <Latitude>32.798047</Latitude>
    <Longitude>34.990565</Longitude>
  </Street>
  <Street>
    <NativeName>זבולון</NativeName>
    <ParentName>חיפה, ישראל</ParentName>
    <Latitude>32.803837</Latitude>
    <Longitude>35.003259</Longitude>
  </Street>
  <Street>
    <NativeName>זיוונית</NativeName>
    <ParentName>חיפה, ישראל</ParentName>
    <Latitude>32.804494</Latitude>
    <Longitude>34.984570</Longitude>
  </Street>
  <Street>
    <NativeName>זילפה</NativeName>
    <ParentName>חיפה, ישראל</ParentName>
    <Latitude>32.824799</Latitude>
    <Longitude>34.979641</Longitude>
  </Street>
  <Street>
    <NativeName>זימנא</NativeName>
    <ParentName>חיפה, ישראל</ParentName>
    <Latitude>32.815561</Latitude>
    <Longitude>34.989090</Longitude>
  </Street>
  <Street>
    <NativeName>זכריה</NativeName>
    <ParentName>חיפה, ישראל</ParentName>
    <Latitude>32.815256</Latitude>
    <Longitude>34.975176</Longitude>
  </Street>
  <Street>
    <NativeName>זלמן ארן</NativeName>
    <ParentName>חיפה, ישראל</ParentName>
    <Latitude>32.832948</Latitude>
    <Longitude>35.059816</Longitude>
  </Street>
  <Street>
    <NativeName>זלמן שז"ר</NativeName>
    <ParentName>חיפה, ישראל</ParentName>
    <Latitude>32.785630</Latitude>
    <Longitude>35.001074</Longitude>
  </Street>
  <Street>
    <NativeName>זלמן שניאור</NativeName>
    <ParentName>חיפה, ישראל</ParentName>
    <Latitude>32.777468</Latitude>
    <Longitude>35.005636</Longitude>
  </Street>
  <Street>
    <NativeName>זמנהוף</NativeName>
    <ParentName>חיפה, ישראל</ParentName>
    <Latitude>32.780213</Latitude>
    <Longitude>34.993614</Longitude>
  </Street>
  <Street>
    <NativeName>זרובבל</NativeName>
    <ParentName>חיפה, ישראל</ParentName>
    <Latitude>32.794848</Latitude>
    <Longitude>34.986325</Longitude>
  </Street>
  <Street>
    <NativeName>ח'ורי</NativeName>
    <ParentName>חיפה, ישראל</ParentName>
    <Latitude>32.816859</Latitude>
    <Longitude>34.995393</Longitude>
  </Street>
  <Street>
    <NativeName>ח'טיב</NativeName>
    <ParentName>חיפה, ישראל</ParentName>
    <Latitude>32.816520</Latitude>
    <Longitude>34.999397</Longitude>
  </Street>
  <Street>
    <NativeName>חב"ד</NativeName>
    <ParentName>חיפה, ישראל</ParentName>
    <Latitude>32.837644</Latitude>
    <Longitude>35.072784</Longitude>
  </Street>
  <Street>
    <NativeName>חביבה רייך</NativeName>
    <ParentName>חיפה, ישראל</ParentName>
    <Latitude>32.779704</Latitude>
    <Longitude>35.007930</Longitude>
  </Street>
  <Street>
    <NativeName>חברון</NativeName>
    <ParentName>חיפה, ישראל</ParentName>
    <Latitude>32.810971</Latitude>
    <Longitude>34.992304</Longitude>
  </Street>
  <Street>
    <NativeName>חגית</NativeName>
    <ParentName>חיפה, ישראל</ParentName>
    <Latitude>32.799110</Latitude>
    <Longitude>34.972366</Longitude>
  </Street>
  <Street>
    <NativeName>חדאד</NativeName>
    <ParentName>חיפה, ישראל</ParentName>
    <Latitude>32.815463</Latitude>
    <Longitude>34.993720</Longitude>
  </Street>
  <Street>
    <NativeName>חדרה</NativeName>
    <ParentName>חיפה, ישראל</ParentName>
    <Latitude>32.808183</Latitude>
    <Longitude>35.003099</Longitude>
  </Street>
  <Street>
    <NativeName>חוחית</NativeName>
    <ParentName>חיפה, ישראל</ParentName>
    <Latitude>32.785904</Latitude>
    <Longitude>35.008819</Longitude>
  </Street>
  <Street>
    <NativeName>חולדה</NativeName>
    <ParentName>חיפה, ישראל</ParentName>
    <Latitude>32.800908</Latitude>
    <Longitude>34.992923</Longitude>
  </Street>
  <Street>
    <NativeName>חומה ומגדל</NativeName>
    <ParentName>חיפה, ישראל</ParentName>
    <Latitude>32.818826</Latitude>
    <Longitude>35.075362</Longitude>
  </Street>
  <Street>
    <NativeName>חוסן</NativeName>
    <ParentName>חיפה, ישראל</ParentName>
    <Latitude>32.801885</Latitude>
    <Longitude>35.009246</Longitude>
  </Street>
  <Street>
    <NativeName>חוף השנהב</NativeName>
    <ParentName>חיפה, ישראל</ParentName>
    <Latitude>32.767886</Latitude>
    <Longitude>35.003449</Longitude>
  </Street>
  <Street>
    <NativeName>חורב</NativeName>
    <ParentName>חיפה, ישראל</ParentName>
    <Latitude>32.782100</Latitude>
    <Longitude>34.989040</Longitude>
  </Street>
  <Street>
    <NativeName>חורשה</NativeName>
    <ParentName>חיפה, ישראל</ParentName>
    <Latitude>32.813136</Latitude>
    <Longitude>34.980893</Longitude>
  </Street>
  <Street>
    <NativeName>חטיבת כרמלי</NativeName>
    <ParentName>חיפה, ישראל</ParentName>
    <Latitude>32.796153</Latitude>
    <Longitude>35.018206</Longitude>
  </Street>
  <Street>
    <NativeName>חטיבת עודד</NativeName>
    <ParentName>חיפה, ישראל</ParentName>
    <Latitude>32.790622</Latitude>
    <Longitude>34.996631</Longitude>
  </Street>
  <Street>
    <NativeName>חיים ברלב</NativeName>
    <ParentName>חיפה, ישראל</ParentName>
    <Latitude>32.790543</Latitude>
    <Longitude>35.020668</Longitude>
  </Street>
  <Street>
    <NativeName>חיים הזז</NativeName>
    <ParentName>חיפה, ישראל</ParentName>
    <Latitude>32.767506</Latitude>
    <Longitude>35.013215</Longitude>
  </Street>
  <Street>
    <NativeName>חיים ינקולוביץ'</NativeName>
    <ParentName>חיפה, ישראל</ParentName>
    <Latitude>32.764718</Latitude>
    <Longitude>34.988182</Longitude>
  </Street>
  <Street>
    <NativeName>חיים סוטין</NativeName>
    <ParentName>חיפה, ישראל</ParentName>
    <Latitude>32.821760</Latitude>
    <Longitude>34.960497</Longitude>
  </Street>
  <Street>
    <NativeName>חיל הים</NativeName>
    <ParentName>חיפה, ישראל</ParentName>
    <Latitude>32.829456</Latitude>
    <Longitude>34.984643</Longitude>
  </Street>
  <Street>
    <NativeName>חירם</NativeName>
    <ParentName>חיפה, ישראל</ParentName>
    <Latitude>32.809924</Latitude>
    <Longitude>35.009662</Longitude>
  </Street>
  <Street>
    <NativeName>חלוצי התעשייה</NativeName>
    <ParentName>חיפה, ישראל</ParentName>
    <Latitude>32.817453</Latitude>
    <Longitude>35.056605</Longitude>
  </Street>
  <CityRegion>
    <NativeName>חליסה</NativeName>
    <ParentName>חיפה, ישראל</ParentName>
    <Latitude>32.801509</Latitude>
    <Longitude>35.006741</Longitude>
  </CityRegion>
  <Street>
    <NativeName>חלמיש</NativeName>
    <ParentName>חיפה, ישראל</ParentName>
    <Latitude>32.772416</Latitude>
    <Longitude>35.008189</Longitude>
  </Street>
  <Street>
    <NativeName>חלץ</NativeName>
    <ParentName>חיפה, ישראל</ParentName>
    <Latitude>32.799415</Latitude>
    <Longitude>35.020849</Longitude>
  </Street>
  <Street>
    <NativeName>חמאם אל פשא</NativeName>
    <ParentName>חיפה, ישראל</ParentName>
    <Latitude>32.813461</Latitude>
    <Longitude>35.002576</Longitude>
  </Street>
  <Street>
    <NativeName>חנה סנש</NativeName>
    <ParentName>חיפה, ישראל</ParentName>
    <Latitude>32.800720</Latitude>
    <Longitude>34.997179</Longitude>
  </Street>
  <Street>
    <NativeName>חנה רובינא</NativeName>
    <ParentName>חיפה, ישראל</ParentName>
    <Latitude>32.773314</Latitude>
    <Longitude>35.003988</Longitude>
  </Street>
  <Street>
    <NativeName>חנה</NativeName>
    <ParentName>חיפה, ישראל</ParentName>
    <Latitude>32.797510</Latitude>
    <Longitude>34.976039</Longitude>
  </Street>
  <Street>
    <NativeName>חניתה</NativeName>
    <ParentName>חיפה, ישראל</ParentName>
    <Latitude>32.790406</Latitude>
    <Longitude>35.013929</Longitude>
  </Street>
  <Street>
    <NativeName>חסידי אומות העולם</NativeName>
    <ParentName>חיפה, ישראל</ParentName>
    <Latitude>32.777688</Latitude>
    <Longitude>35.013935</Longitude>
  </Street>
  <Street>
    <NativeName>חסן שוקרי</NativeName>
    <ParentName>חיפה, ישראל</ParentName>
    <Latitude>32.813270</Latitude>
    <Longitude>34.999108</Longitude>
  </Street>
  <Street>
    <NativeName>חפציבה</NativeName>
    <ParentName>חיפה, ישראל</ParentName>
    <Latitude>32.834222</Latitude>
    <Longitude>35.058560</Longitude>
  </Street>
  <Street>
    <NativeName>חצב</NativeName>
    <ParentName>חיפה, ישראל</ParentName>
    <Latitude>32.821374</Latitude>
    <Longitude>34.974935</Longitude>
  </Street>
  <CityRegion>
    <NativeName>חצרות כרמל</NativeName>
    <ParentName>חיפה, ישראל</ParentName>
    <Latitude>32.784557</Latitude>
    <Longitude>34.966144</Longitude>
  </CityRegion>
  <Street>
    <NativeName>חרב לאת</NativeName>
    <ParentName>חיפה, ישראל</ParentName>
    <Latitude>32.835383</Latitude>
    <Longitude>35.056616</Longitude>
  </Street>
  <Street>
    <NativeName>חרוב</NativeName>
    <ParentName>חיפה, ישראל</ParentName>
    <Latitude>32.813919</Latitude>
    <Longitude>34.968043</Longitude>
  </Street>
  <Street>
    <NativeName>חרות</NativeName>
    <ParentName>חיפה, ישראל</ParentName>
    <Latitude>32.804427</Latitude>
    <Longitude>34.998225</Longitude>
  </Street>
  <Street>
    <NativeName>חרמון</NativeName>
    <ParentName>חיפה, ישראל</ParentName>
    <Latitude>32.804136</Latitude>
    <Longitude>35.001543</Longitude>
  </Street>
  <Street>
    <NativeName>חשבון</NativeName>
    <ParentName>חיפה, ישראל</ParentName>
    <Latitude>32.820137</Latitude>
    <Longitude>34.995646</Longitude>
  </Street>
  <Street>
    <NativeName>חת"ם סופר</NativeName>
    <ParentName>חיפה, ישראל</ParentName>
    <Latitude>32.803185</Latitude>
    <Longitude>35.001604</Longitude>
  </Street>
  <Street>
    <NativeName>טבנקין</NativeName>
    <ParentName>חיפה, ישראל</ParentName>
    <Latitude>32.797049</Latitude>
    <Longitude>35.008802</Longitude>
  </Street>
  <Street>
    <NativeName>טבריה</NativeName>
    <ParentName>חיפה, ישראל</ParentName>
    <Latitude>32.811143</Latitude>
