<?xml version="1.0" encoding="UTF-8"?><LocationData>
  <City>
    <RegionCode>R103</RegionCode>
    <NativeName>א נעים</NativeName>
    <ParentName>ישראל</ParentName>
    <Latitude>32.888073</Latitude>
    <Longitude>35.290128</Longitude>
  </City>
  <City>
    <RegionCode>R103</RegionCode>
    <NativeName>א-שייח' דנון</NativeName>
    <ParentName>ישראל</ParentName>
    <AlternateName>א שייח' דנון</AlternateName>
    <Latitude>32.991764</Latitude>
    <Longitude>35.147364</Longitude>
  </City>
  <City>
    <Code>472</Code>
    <RegionCode>R101</RegionCode>
    <NativeName>אבו גוש</NativeName>
    <ParentName>ישראל</ParentName>
    <Latitude>31.806293</Latitude>
    <Longitude>35.109193</Longitude>
  </City>
  <City>
    <RegionCode>R102</RegionCode>
    <NativeName>אבו כף אום בטין</NativeName>
    <ParentName>ישראל</ParentName>
    <Latitude>31.281260</Latitude>
    <Longitude>34.884030</Longitude>
  </City>
  <City>
    <Code>473</Code>
    <RegionCode>R103</RegionCode>
    <NativeName>אבו סנאן</NativeName>
    <ParentName>ישראל</ParentName>
    <Latitude>32.958030</Latitude>
    <Longitude>35.171969</Longitude>
  </City>
  <City>
    <RegionCode>R102</RegionCode>
    <NativeName>אבו תלול</NativeName>
    <ParentName>ישראל</ParentName>
    <Latitude>31.142612</Latitude>
    <Longitude>34.913514</Longitude>
  </City>
  <City>
    <RegionCode>R103</RegionCode>
    <NativeName>אבטליון</NativeName>
    <ParentName>ישראל</ParentName>
    <Latitude>32.835781</Latitude>
    <Longitude>35.350442</Longitude>
  </City>
  <City>
    <RegionCode>R103</RegionCode>
    <NativeName>אביאל</NativeName>
    <ParentName>ישראל</ParentName>
    <Latitude>32.531346</Latitude>
    <Longitude>34.993493</Longitude>
  </City>
  <City>
    <RegionCode>3</RegionCode>
    <NativeName>אביבים</NativeName>
    <ParentName>ישראל</ParentName>
    <Latitude>33.089381</Latitude>
    <Longitude>35.470338</Longitude>
  </City>
  <City>
    <RegionCode>8</RegionCode>
    <NativeName>אביגדור</NativeName>
    <ParentName>ישראל</ParentName>
    <Latitude>31.711901</Latitude>
    <Longitude>34.740369</Longitude>
  </City>
  <City>
    <Code>175</Code>
    <RegionCode>1</RegionCode>
    <NativeName>אביחיל</NativeName>
    <ParentName>ישראל</ParentName>
    <Latitude>32.350708</Latitude>
    <Longitude>34.871229</Longitude>
  </City>
  <City>
    <RegionCode>R103</RegionCode>
    <NativeName>אביטל</NativeName>
    <ParentName>ישראל</ParentName>
    <Latitude>32.557676</Latitude>
    <Longitude>35.306412</Longitude>
  </City>
  <City>
    <RegionCode>R101</RegionCode>
    <NativeName>אביעזר</NativeName>
    <ParentName>ישראל</ParentName>
    <Latitude>31.681996</Latitude>
    <Longitude>35.018821</Longitude>
  </City>
  <City>
    <RegionCode>3</RegionCode>
    <NativeName>אבירים</NativeName>
    <ParentName>ישראל</ParentName>
    <Latitude>33.038086</Latitude>
    <Longitude>35.286044</Longitude>
  </City>
  <City>
    <Code>182</Code>
    <RegionCode>1</RegionCode>
    <NativeName>אבן יהודה</NativeName>
    <ParentName>ישראל</ParentName>
    <Latitude>32.276648</Latitude>
    <Longitude>34.885087</Longitude>
  </City>
  <City>
    <RegionCode>3</RegionCode>
    <NativeName>אבן מנחם</NativeName>
    <ParentName>ישראל</ParentName>
    <Latitude>33.075143</Latitude>
    <Longitude>35.295219</Longitude>
  </City>
  <City>
    <RegionCode>R101</RegionCode>
    <NativeName>אבן ספיר</NativeName>
    <ParentName>ישראל</ParentName>
    <Latitude>31.762500</Latitude>
    <Longitude>35.134991</Longitude>
  </City>
  <City>
    <RegionCode>R102</RegionCode>
    <NativeName>אבן שמואל</NativeName>
    <ParentName>ישראל</ParentName>
    <Latitude>31.576429</Latitude>
    <Longitude>34.762963</Longitude>
  </City>
  <City>
    <RegionCode>R102</RegionCode>
    <NativeName>אבשלום</NativeName>
    <ParentName>ישראל</ParentName>
    <Latitude>31.195397</Latitude>
    <Longitude>34.331200</Longitude>
  </City>
  <City>
    <RegionCode>R103</RegionCode>
    <NativeName>אדירים</NativeName>
    <ParentName>ישראל</ParentName>
    <Latitude>32.548941</Latitude>
    <Longitude>35.271637</Longitude>
  </City>
  <City>
    <RegionCode>R103</RegionCode>
    <NativeName>אדמית</NativeName>
    <ParentName>ישראל</ParentName>
    <Latitude>33.078842</Latitude>
    <Longitude>35.209510</Longitude>
  </City>
  <City>
    <RegionCode>R101</RegionCode>
    <NativeName>אדרת</NativeName>
    <ParentName>ישראל</ParentName>
    <Latitude>31.659715</Latitude>
    <Longitude>34.994440</Longitude>
  </City>
  <City>
    <Code>446</Code>
    <RegionCode>1</RegionCode>
    <NativeName>אודים</NativeName>
    <ParentName>ישראל</ParentName>
    <Latitude>32.266865</Latitude>
    <Longitude>34.846995</Longitude>
  </City>
  <City>
    <RegionCode>R102</RegionCode>
    <NativeName>אוהד</NativeName>
    <ParentName>ישראל</ParentName>
    <Latitude>31.238436</Latitude>
    <Longitude>34.431893</Longitude>
  </City>
  <City>
    <Code>2710</Code>
    <RegionCode>R103</RegionCode>
    <NativeName>אום אל-פחם</NativeName>
    <ParentName>ישראל</ParentName>
    <AlternateName>אום אל פחם</AlternateName>
    <Latitude>32.517127</Latitude>
    <Longitude>35.148529</Longitude>
  </City>
  <City>
    <RegionCode>R103</RegionCode>
    <NativeName>אום אל-קוטוף</NativeName>
    <ParentName>ישראל</ParentName>
    <AlternateName>אום אל קוטוף</AlternateName>
    <Latitude>32.468084</Latitude>
    <Longitude>35.059149</Longitude>
  </City>
  <City>
    <RegionCode>R103</RegionCode>
    <NativeName>אומן</NativeName>
    <ParentName>ישראל</ParentName>
    <Latitude>32.564279</Latitude>
    <Longitude>35.241941</Longitude>
  </City>
  <City>
    <RegionCode>1</RegionCode>
    <NativeName>אומץ</NativeName>
    <ParentName>ישראל</ParentName>
    <Latitude>32.369216</Latitude>
    <Longitude>34.993129</Longitude>
  </City>
  <City>
    <Code>31</Code>
    <RegionCode>R102</RegionCode>
    <NativeName>אופקים</NativeName>
    <ParentName>ישראל</ParentName>
    <AlternateName>Ofakim</AlternateName>
    <Latitude>31.311337</Latitude>
    <Longitude>34.622824</Longitude>
  </City>
  <City>
    <RegionCode>3</RegionCode>
    <NativeName>אור הגנוז</NativeName>
    <ParentName>ישראל</ParentName>
    <Latitude>33.005183</Latitude>
    <Longitude>35.446736</Longitude>
  </City>
  <City>
    <RegionCode>R102</RegionCode>
    <NativeName>אור הנר</NativeName>
    <ParentName>ישראל</ParentName>
    <Latitude>31.556197</Latitude>
    <Longitude>34.602305</Longitude>
  </City>
  <City>
    <Code>2400</Code>
    <RegionCode>8</RegionCode>
    <NativeName>אור יהודה</NativeName>
    <ParentName>ישראל</ParentName>
    <AlternateName>Or Yehuda</AlternateName>
    <Latitude>32.029748</Latitude>
    <Longitude>34.856173</Longitude>
  </City>
  <City>
    <Code>1020</Code>
    <RegionCode>R103</RegionCode>
    <NativeName>אור עקיבא</NativeName>
    <ParentName>ישראל</ParentName>
    <AlternateName>Or Akiva</AlternateName>
    <Latitude>32.509965</Latitude>
    <Longitude>34.920394</Longitude>
  </City>
  <City>
    <Code>780</Code>
    <RegionCode>R101</RegionCode>
    <NativeName>אורה</NativeName>
    <ParentName>ישראל</ParentName>
    <Latitude>31.752109</Latitude>
    <Longitude>35.150165</Longitude>
  </City>
  <City>
    <RegionCode>8</RegionCode>
    <NativeName>אורות</NativeName>
    <ParentName>ישראל</ParentName>
    <Latitude>31.740364</Latitude>
    <Longitude>34.735600</Longitude>
  </City>
  <City>
    <RegionCode>R102</RegionCode>
    <NativeName>אורים</NativeName>
    <ParentName>ישראל</ParentName>
    <Latitude>31.304094</Latitude>
    <Longitude>34.524868</Longitude>
  </City>
  <City>
    <RegionCode>R103</RegionCode>
    <NativeName>אושה</NativeName>
    <ParentName>ישראל</ParentName>
    <Latitude>32.796458</Latitude>
    <Longitude>35.114584</Longitude>
  </City>
  <City>
    <RegionCode>R103</RegionCode>
    <NativeName>אושרת</NativeName>
    <ParentName>ישראל</ParentName>
    <Latitude>32.971645</Latitude>
    <Longitude>35.155700</Longitude>
  </City>
  <City>
    <Code>565</Code>
    <RegionCode>8</RegionCode>
    <NativeName>אזור</NativeName>
    <ParentName>ישראל</ParentName>
    <Latitude>32.029558</Latitude>
    <Longitude>34.799648</Longitude>
  </City>
  <City>
    <RegionCode>8</RegionCode>
    <NativeName>אחווה</NativeName>
    <ParentName>ישראל</ParentName>
    <Latitude>31.742893</Latitude>
    <Longitude>34.767848</Longitude>
  </City>
  <City>
    <RegionCode>R102</RegionCode>
    <NativeName>אחוזם</NativeName>
    <ParentName>ישראל</ParentName>
    <Latitude>31.552682</Latitude>
    <Longitude>34.770151</Longitude>
  </City>
  <City>
    <Code>1330</Code>
    <RegionCode>R103</RegionCode>
    <NativeName>אחוזת ברק</NativeName>
    <ParentName>ישראל</ParentName>
    <Latitude>32.643101</Latitude>
    <Longitude>35.338893</Longitude>
  </City>
  <City>
    <RegionCode>R103</RegionCode>
    <NativeName>אחיהוד</NativeName>
    <ParentName>ישראל</ParentName>
    <Latitude>32.907405</Latitude>
    <Longitude>35.171715</Longitude>
  </City>
  <City>
    <RegionCode>1</RegionCode>
    <NativeName>אחיטוב</NativeName>
    <ParentName>ישראל</ParentName>
    <Latitude>32.387701</Latitude>
    <Longitude>34.990826</Longitude>
  </City>
  <City>
    <RegionCode>8</RegionCode>
    <NativeName>אחיסמך</NativeName>
    <ParentName>ישראל</ParentName>
    <Latitude>31.931906</Latitude>
    <Longitude>34.908576</Longitude>
  </City>
  <City>
    <RegionCode>8</RegionCode>
    <NativeName>אחיעזר</NativeName>
    <ParentName>ישראל</ParentName>
    <Latitude>31.981671</Latitude>
    <Longitude>34.871821</Longitude>
  </City>
  <City>
    <RegionCode>R103</RegionCode>
    <NativeName>איבטין</NativeName>
    <ParentName>ישראל</ParentName>
    <Latitude>32.759963</Latitude>
    <Longitude>35.114601</Longitude>
  </City>
  <City>
    <RegionCode>R102</RegionCode>
    <NativeName>איבים</NativeName>
    <ParentName>ישראל</ParentName>
    <Latitude>31.533597</Latitude>
    <Longitude>34.609697</Longitude>
  </City>
  <City>
    <RegionCode>1</RegionCode>
    <NativeName>אייל</NativeName>
    <ParentName>ישראל</ParentName>
    <Latitude>32.210711</Latitude>
    <Longitude>34.978259</Longitude>
  </City>
  <City>
    <RegionCode>3</RegionCode>
    <NativeName>איילת השחר</NativeName>
    <ParentName>ישראל</ParentName>
    <Latitude>33.021115</Latitude>
    <Longitude>35.576732</Longitude>
  </City>
  <City>
    <RegionCode>R103</RegionCode>
    <NativeName>איכסאל</NativeName>
    <ParentName>ישראל</ParentName>
    <Latitude>32.682085</Latitude>
    <Longitude>35.320743</Longitude>
  </City>
  <City>
    <RegionCode>R103</RegionCode>
    <NativeName>אילון</NativeName>
    <ParentName>ישראל</ParentName>
    <Latitude>33.062526</Latitude>
    <Longitude>35.219162</Longitude>
  </City>
  <City>
    <RegionCode>R102</RegionCode>
    <NativeName>אילות</NativeName>
    <ParentName>ישראל</ParentName>
    <Latitude>29.580548</Latitude>
    <Longitude>34.963023</Longitude>
  </City>
  <City>
    <RegionCode>R103</RegionCode>
    <NativeName>אילניה</NativeName>
    <ParentName>ישראל</ParentName>
    <Latitude>32.753908</Latitude>
    <Longitude>35.408188</Longitude>
  </City>
  <City>
    <Code>2600</Code>
    <RegionCode>R102</RegionCode>
    <NativeName>אילת</NativeName>
    <ParentName>ישראל</ParentName>
    <AlternateName>Eilat</AlternateName>
    <Latitude>29.557669</Latitude>
    <Longitude>34.951925</Longitude>
  </City>
  <City>
    <RegionCode>R102</RegionCode>
    <NativeName>איתן</NativeName>
    <ParentName>ישראל</ParentName>
    <Latitude>31.572213</Latitude>
    <Longitude>34.747909</Longitude>
  </City>
  <City>
    <RegionCode>R101</RegionCode>
    <NativeName>איתנים</NativeName>
    <ParentName>ישראל</ParentName>
    <Latitude>31.778889</Latitude>
    <Longitude>35.095278</Longitude>
  </City>
  <City>
    <RegionCode>8</RegionCode>
    <NativeName>אל-עזי</NativeName>
    <ParentName>ישראל</ParentName>
    <AlternateName>אל עזי</AlternateName>
    <Latitude>31.718868</Latitude>
    <Longitude>34.814254</Longitude>
  </City>
  <City>
    <RegionCode>R103</RegionCode>
    <NativeName>אל-עריאן</NativeName>
    <ParentName>ישראל</ParentName>
    <AlternateName>אל עריאן</AlternateName>
    <Latitude>32.498076</Latitude>
    <Longitude>35.125094</Longitude>
  </City>
  <City>
    <RegionCode>8</RegionCode>
    <NativeName>אלומה</NativeName>
    <ParentName>ישראל</ParentName>
    <Latitude>31.652041</Latitude>
    <Longitude>34.742872</Longitude>
  </City>
  <City>
    <RegionCode>3</RegionCode>
    <NativeName>אלומות</NativeName>
    <ParentName>ישראל</ParentName>
    <Latitude>32.706628</Latitude>
    <Longitude>35.546088</Longitude>
  </City>
  <City>
    <RegionCode>R103</RegionCode>
    <NativeName>אלון הגליל</NativeName>
    <ParentName>ישראל</ParentName>
    <Latitude>32.756874</Latitude>
    <Longitude>35.220294</Longitude>
  </City>
  <City>
    <RegionCode>R103</RegionCode>
    <NativeName>אלוני אבא</NativeName>
    <ParentName>ישראל</ParentName>
    <Latitude>32.730945</Latitude>
    <Longitude>35.172028</Longitude>
  </City>
  <City>
    <RegionCode>R103</RegionCode>
    <NativeName>אלוני יצחק</NativeName>
    <ParentName>ישראל</ParentName>
    <Latitude>32.509997</Latitude>
    <Longitude>35.005200</Longitude>
  </City>
  <City>
    <RegionCode>R103</RegionCode>
    <NativeName>אלונים</NativeName>
    <ParentName>ישראל</ParentName>
    <Latitude>32.721459</Latitude>
    <Longitude>35.143399</Longitude>
  </City>
  <City>
    <Code>41</Code>
    <RegionCode>1</RegionCode>
    <NativeName>אליכין</NativeName>
    <ParentName>ישראל</ParentName>
    <Latitude>32.407659</Latitude>
    <Longitude>34.925028</Longitude>
  </City>
  <City>
    <RegionCode>R102</RegionCode>
    <NativeName>אליפז</NativeName>
    <ParentName>ישראל</ParentName>
    <Latitude>29.796248</Latitude>
    <Longitude>35.012094</Longitude>
  </City>
  <City>
    <RegionCode>3</RegionCode>
    <NativeName>אליפלט</NativeName>
    <ParentName>ישראל</ParentName>
    <Latitude>32.947834</Latitude>
    <Longitude>35.548516</Longitude>
  </City>
  <City>
    <RegionCode>R103</RegionCode>
    <NativeName>אליקים</NativeName>
    <ParentName>ישראל</ParentName>
    <Latitude>32.633345</Latitude>
    <Longitude>35.067613</Longitude>
  </City>
  <City>
    <RegionCode>1</RegionCode>
    <NativeName>אלישיב</NativeName>
    <ParentName>ישראל</ParentName>
    <Latitude>32.380196</Latitude>
    <Longitude>34.909945</Longitude>
  </City>
  <City>
    <Code>841</Code>
    <RegionCode>1</RegionCode>
    <NativeName>אלישמע</NativeName>
    <ParentName>ישראל</ParentName>
    <Latitude>32.154778</Latitude>
    <Longitude>34.930461</Longitude>
  </City>
  <City>
    <RegionCode>3</RegionCode>
    <NativeName>אלמגור</NativeName>
    <ParentName>ישראל</ParentName>
    <Latitude>32.912709</Latitude>
    <Longitude>35.602310</Longitude>
  </City>
  <City>
    <Code>1309</Code>
    <RegionCode>1</RegionCode>
    <NativeName>אלעד</NativeName>
    <ParentName>ישראל</ParentName>
    <AlternateName>Elad</AlternateName>
    <Latitude>32.049530</Latitude>
    <Longitude>34.950750</Longitude>
  </City>
  <City>
    <RegionCode>3</RegionCode>
    <NativeName>אלקוש</NativeName>
    <ParentName>ישראל</ParentName>
    <Latitude>33.034294</Latitude>
    <Longitude>35.326348</Longitude>
  </City>
  <City>
    <RegionCode>8</RegionCode>
    <NativeName>אמונים</NativeName>
    <ParentName>ישראל</ParentName>
    <Latitude>31.743885</Latitude>
    <Longitude>34.674492</Longitude>
  </City>
  <City>
    <RegionCode>3</RegionCode>
    <NativeName>אמירים</NativeName>
    <ParentName>ישראל</ParentName>
    <AlternateName>עמירים</AlternateName>
    <Latitude>32.937351</Latitude>
    <Longitude>35.450365</Longitude>
  </City>
  <City>
    <RegionCode>3</RegionCode>
    <NativeName>אמנון</NativeName>
    <ParentName>ישראל</ParentName>
    <Latitude>32.904989</Latitude>
    <Longitude>35.571136</Longitude>
  </City>
  <City>
    <RegionCode>R102</RegionCode>
    <NativeName>אמציה</NativeName>
    <ParentName>ישראל</ParentName>
    <Latitude>31.531176</Latitude>
    <Longitude>34.914463</Longitude>
  </City>
  <City>
    <Code>529</Code>
    <RegionCode>R103</RegionCode>
    <NativeName>אעבלין</NativeName>
    <ParentName>ישראל</ParentName>
    <Latitude>32.821799</Latitude>
    <Longitude>35.190120</Longitude>
  </City>
  <City>
    <RegionCode>3</RegionCode>
    <NativeName>אפיקים</NativeName>
    <ParentName>ישראל</ParentName>
    <Latitude>32.680564</Latitude>
    <Longitude>35.577730</Longitude>
  </City>
  <City>
    <RegionCode>R103</RegionCode>
    <NativeName>אפק</NativeName>
    <ParentName>ישראל</ParentName>
    <Latitude>32.838316</Latitude>
    <Longitude>35.127780</Longitude>
  </City>
  <City>
    <RegionCode>3</RegionCode>
    <NativeName>ארבל</NativeName>
    <ParentName>ישראל</ParentName>
    <Latitude>32.812247</Latitude>
    <Longitude>35.486453</Longitude>
  </City>
  <City>
    <RegionCode>R102</RegionCode>
    <NativeName>ארז</NativeName>
    <ParentName>ישראל</ParentName>
    <Latitude>31.559840</Latitude>
    <Longitude>34.564889</Longitude>
  </City>
  <City>
    <RegionCode>1</RegionCode>
    <NativeName>ארסוף</NativeName>
    <ParentName>ישראל</ParentName>
    <Latitude>32.212841</Latitude>
    <Longitude>34.815977</Longitude>
  </City>
  <City>
    <RegionCode>R102</RegionCode>
    <NativeName>אשבול</NativeName>
    <ParentName>ישראל</ParentName>
    <Latitude>31.445516</Latitude>
    <Longitude>34.666654</Longitude>
  </City>
  <City>
    <RegionCode>R103</RegionCode>
    <NativeName>אשבל</NativeName>
    <ParentName>ישראל</ParentName>
    <Latitude>32.876984</Latitude>
    <Longitude>35.306010</Longitude>
  </City>
  <City>
    <Code>70</Code>
    <RegionCode>8</RegionCode>
    <NativeName>אשדוד</NativeName>
    <ParentName>ישראל</ParentName>
    <AlternateName>Ashdod</AlternateName>
    <Latitude>31.804381</Latitude>
    <Longitude>34.655314</Longitude>
  </City>
  <City>
    <RegionCode>R103</RegionCode>
    <NativeName>אשחר</NativeName>
    <ParentName>ישראל</ParentName>
    <Latitude>32.885084</Latitude>
    <Longitude>35.299622</Longitude>
  </City>
  <City>
    <RegionCode>R102</RegionCode>
    <NativeName>אשל הנשיא</NativeName>
    <ParentName>ישראל</ParentName>
    <Latitude>31.326828</Latitude>
    <Longitude>34.697497</Longitude>
  </City>
  <City>
    <RegionCode>R102</RegionCode>
    <NativeName>אשלים</NativeName>
    <ParentName>ישראל</ParentName>
    <Latitude>30.964245</Latitude>
    <Longitude>34.699674</Longitude>
  </City>
  <City>
    <Code>7100</Code>
    <RegionCode>8</RegionCode>
    <NativeName>אשקלון</NativeName>
    <ParentName>ישראל</ParentName>
    <AlternateName>Ashqelon</AlternateName>
    <Latitude>31.665945</Latitude>
    <Longitude>34.559464</Longitude>
  </City>
  <City>
    <RegionCode>R101</RegionCode>
    <NativeName>אשתאול</NativeName>
    <ParentName>ישראל</ParentName>
    <Latitude>31.780385</Latitude>
    <Longitude>35.010102</Longitude>
  </City>
  <City>
    <RegionCode>R103</RegionCode>
    <NativeName>אתגר</NativeName>
    <ParentName>ישראל</ParentName>
    <Latitude>32.859351</Latitude>
    <Longitude>35.256072</Longitude>
  </City>
  <City>
    <Code>21</Code>
    <RegionCode>R102</RegionCode>
    <NativeName>באר אורה</NativeName>
    <ParentName>ישראל</ParentName>
    <Latitude>29.710166</Latitude>
    <Longitude>34.987218</Longitude>
  </City>
  <City>
    <RegionCode>8</RegionCode>
    <NativeName>באר גנים</NativeName>
    <ParentName>ישראל</ParentName>
    <Latitude>31.700354</Latitude>
    <Longitude>34.610934</Longitude>
  </City>
  <City>
    <RegionCode>8</RegionCode>
    <NativeName>באר טוביה</NativeName>
    <ParentName>ישראל</ParentName>
    <Latitude>31.737127</Latitude>
    <Longitude>34.725570</Longitude>
  </City>
  <City>
    <Code>2530</Code>
    <RegionCode>8</RegionCode>
    <NativeName>באר יעקב</NativeName>
    <ParentName>ישראל</ParentName>
    <Latitude>31.943507</Latitude>
    <Longitude>34.839040</Longitude>
  </City>
  <City>
    <RegionCode>R102</RegionCode>
    <NativeName>באר מילכה</NativeName>
    <ParentName>ישראל</ParentName>
    <Latitude>30.934112</Latitude>
    <Longitude>34.405643</Longitude>
  </City>
  <City>
    <Code>9000</Code>
    <RegionCode>4</RegionCode>
    <NativeName>באר שבע</NativeName>
    <ParentName>ישראל</ParentName>
    <AlternateName>Be'er Sheva</AlternateName>
    <Latitude>31.252973</Latitude>
    <Longitude>34.791462</Longitude>
  </City>
  <City>
    <RegionCode>R102</RegionCode>
    <NativeName>בארות יצחק</NativeName>
    <ParentName>ישראל</ParentName>
    <Latitude>31.465278</Latitude>
    <Longitude>34.506944</Longitude>
  </City>
  <City>
    <RegionCode>1</RegionCode>
    <NativeName>בארותיים</NativeName>
    <ParentName>ישראל</ParentName>
    <Latitude>32.321039</Latitude>
    <Longitude>34.983430</Longitude>
  </City>
  <City>
    <RegionCode>R102</RegionCode>
    <NativeName>בארי</NativeName>
    <ParentName>ישראל</ParentName>
    <Latitude>31.424513</Latitude>
    <Longitude>34.492567</Longitude>
  </City>
  <City>
    <RegionCode>R103</RegionCode>
    <NativeName>בוסתן הגליל</NativeName>
    <ParentName>ישראל</ParentName>
    <Latitude>32.948636</Latitude>
    <Longitude>35.080688</Longitude>
  </City>
  <City>
    <RegionCode>1</RegionCode>
    <NativeName>בורגתה</NativeName>
    <ParentName>ישראל</ParentName>
    <Latitude>32.325972</Latitude>
    <Longitude>34.963848</Longitude>
  </City>
  <City>
    <Code>2043</Code>
    <RegionCode>1</RegionCode>
    <NativeName>בחן</NativeName>
    <ParentName>ישראל</ParentName>
    <Latitude>32.351831</Latitude>
    <Longitude>35.018542</Longitude>
  </City>
  <City>
    <RegionCode>R102</RegionCode>
    <NativeName>ביטחה</NativeName>
    <ParentName>ישראל</ParentName>
    <Latitude>31.333869</Latitude>
    <Longitude>34.634318</Longitude>
  </City>
  <City>
    <RegionCode>8</RegionCode>
    <NativeName>ביצרון</NativeName>
    <ParentName>ישראל</ParentName>
    <Latitude>31.795406</Latitude>
    <Longitude>34.729110</Longitude>
  </City>
  <City>
    <RegionCode>R103</RegionCode>
    <NativeName>ביר אל-מכסור</NativeName>
    <ParentName>ישראל</ParentName>
    <AlternateName>ביר אל מכסור</AlternateName>
    <Latitude>32.777291</Latitude>
    <Longitude>35.220571</Longitude>
  </City>
  <City>
    <RegionCode>R102</RegionCode>
    <NativeName>ביר הדאג'</NativeName>
    <ParentName>ישראל</ParentName>
    <Latitude>31.023160</Latitude>
    <Longitude>34.709138</Longitude>
  </City>
  <City>
    <RegionCode>3</RegionCode>
    <NativeName>ביריה</NativeName>
    <ParentName>ישראל</ParentName>
    <Latitude>32.978108</Latitude>
    <Longitude>35.503096</Longitude>
  </City>
  <City>
    <RegionCode>R103</RegionCode>
    <NativeName>בית אורן</NativeName>
    <ParentName>ישראל</ParentName>
    <Latitude>32.731601</Latitude>
    <Longitude>35.006320</Longitude>
  </City>
  <City>
    <RegionCode>8</RegionCode>
    <NativeName>בית אלעזרי</NativeName>
    <ParentName>ישראל</ParentName>
    <Latitude>31.844717</Latitude>
    <Longitude>34.806627</Longitude>
  </City>
  <City>
    <RegionCode>R103</RegionCode>
    <NativeName>בית אלפא</NativeName>
    <ParentName>ישראל</ParentName>
    <Latitude>32.516357</Latitude>
    <Longitude>35.430499</Longitude>
  </City>
  <City>
    <Code>480</Code>
    <RegionCode>3</RegionCode>
    <NativeName>בית ג'ן</NativeName>
    <ParentName>ישראל</ParentName>
    <Latitude>32.965655</Latitude>
    <Longitude>35.381268</Longitude>
  </City>
  <City>
    <RegionCode>8</RegionCode>
    <NativeName>בית גוברין</NativeName>
    <ParentName>ישראל</ParentName>
    <Latitude>31.612880</Latitude>
    <Longitude>34.895568</Longitude>
  </City>
  <City>
    <RegionCode>8</RegionCode>
    <NativeName>בית גמליאל</NativeName>
    <ParentName>ישראל</ParentName>
    <Latitude>31.856128</Latitude>
    <Longitude>34.760947</Longitude>
  </City>
  <City>
    <Code>466</Code>
    <RegionCode>8</RegionCode>
    <NativeName>בית דגן</NativeName>
    <ParentName>ישראל</ParentName>
    <Latitude>32.000086</Latitude>
    <Longitude>34.832163</Longitude>
  </City>
  <City>
    <RegionCode>R102</RegionCode>
    <NativeName>בית הגדי</NativeName>
    <ParentName>ישראל</ParentName>
    <Latitude>31.422839</Latitude>
    <Longitude>34.607878</Longitude>
  </City>
  <City>
    <RegionCode>1</RegionCode>
    <NativeName>בית הלוי</NativeName>
    <ParentName>ישראל</ParentName>
    <Latitude>32.351596</Latitude>
    <Longitude>34.930443</Longitude>
  </City>
  <City>
    <RegionCode>3</RegionCode>
    <NativeName>בית הלל</NativeName>
    <ParentName>ישראל</ParentName>
    <Latitude>33.208782</Latitude>
    <Longitude>35.606515</Longitude>
  </City>
  <City>
    <RegionCode>R103</RegionCode>
    <NativeName>בית העמק</NativeName>
    <ParentName>ישראל</ParentName>
    <Latitude>32.970683</Latitude>
    <Longitude>35.144845</Longitude>
  </City>
  <City>
    <RegionCode>R103</RegionCode>
    <NativeName>בית השיטה</NativeName>
    <ParentName>ישראל</ParentName>
    <Latitude>32.550874</Latitude>
    <Longitude>35.439351</Longitude>
  </City>
  <City>
    <RegionCode>R103</RegionCode>
    <NativeName>בית זיד</NativeName>
    <ParentName>ישראל</ParentName>
    <Latitude>32.702414</Latitude>
    <Longitude>35.131109</Longitude>
  </City>
  <City>
    <Code>710</Code>
    <RegionCode>R101</RegionCode>
    <NativeName>בית זית</NativeName>
    <ParentName>ישראל</ParentName>
    <Latitude>31.783058</Latitude>
    <Longitude>35.161117</Longitude>
  </City>
  <City>
    <RegionCode>3</RegionCode>
    <NativeName>בית זרע</NativeName>
    <ParentName>ישראל</ParentName>
    <Latitude>32.689296</Latitude>
    <Longitude>35.574062</Longitude>
  </City>
  <City>
    <RegionCode>8</RegionCode>
    <NativeName>בית חלקיה</NativeName>
    <ParentName>ישראל</ParentName>
    <Latitude>31.793001</Latitude>
    <Longitude>34.809698</Longitude>
  </City>
  <City>
    <RegionCode>8</RegionCode>
    <NativeName>בית חנן</NativeName>
    <ParentName>ישראל</ParentName>
    <Latitude>31.935211</Latitude>
    <Longitude>34.775596</Longitude>
  </City>
  <City>
    <Code>800</Code>
    <RegionCode>R103</RegionCode>
    <NativeName>בית חנניה</NativeName>
    <ParentName>ישראל</ParentName>
    <Latitude>32.529504</Latitude>
    <Longitude>34.926734</Longitude>
  </City>
  <City>
    <RegionCode>1</RegionCode>
    <NativeName>בית חרות</NativeName>
    <ParentName>ישראל</ParentName>
    <Latitude>32.376223</Latitude>
    <Longitude>34.873765</Longitude>
  </City>
  <City>
    <Code>1050</Code>
    <RegionCode>8</RegionCode>
    <NativeName>בית חשמונאי</NativeName>
    <ParentName>ישראל</ParentName>
    <Latitude>31.890298</Latitude>
    <Longitude>34.917599</Longitude>
  </City>
  <City>
    <Code>288</Code>
    <RegionCode>1</RegionCode>
    <NativeName>בית יהושע</NativeName>
    <ParentName>ישראל</ParentName>
    <AlternateName>בית יהושוע</AlternateName>
    <Latitude>32.262075</Latitude>
    <Longitude>34.865418</Longitude>
  </City>
  <City>
    <RegionCode>R103</RegionCode>
    <NativeName>בית יוסף</NativeName>
    <ParentName>ישראל</ParentName>
    <Latitude>32.558698</Latitude>
    <Longitude>35.552773</Longitude>
  </City>
  <City>
    <RegionCode>1</RegionCode>
    <NativeName>בית ינאי</NativeName>
    <ParentName>ישראל</ParentName>
    <Latitude>32.381729</Latitude>
    <Longitude>34.863507</Longitude>
  </City>
  <City>
    <RegionCode>1</RegionCode>
    <NativeName>בית יצחק שער חפר</NativeName>
    <ParentName>ישראל</ParentName>
    <Latitude>32.335580</Latitude>
    <Longitude>34.889500</Longitude>
  </City>
  <City>
    <RegionCode>R103</RegionCode>
    <NativeName>בית לחם הגלילית</NativeName>
    <ParentName>ישראל</ParentName>
    <Latitude>32.734558</Latitude>
    <Longitude>35.191271</Longitude>
  </City>
  <City>
    <RegionCode>R101</RegionCode>
    <NativeName>בית מאיר</NativeName>
    <ParentName>ישראל</ParentName>
    <Latitude>31.794786</Latitude>
    <Longitude>35.036753</Longitude>
  </City>
  <City>
    <RegionCode>8</RegionCode>
    <NativeName>בית נחמיה</NativeName>
    <ParentName>ישראל</ParentName>
    <Latitude>31.977142</Latitude>
    <Longitude>34.953835</Longitude>
  </City>
  <City>
    <RegionCode>8</RegionCode>
    <NativeName>בית ניר</NativeName>
    <ParentName>ישראל</ParentName>
    <Latitude>31.647627</Latitude>
    <Longitude>34.873107</Longitude>
  </City>
  <City>
    <RegionCode>R101</RegionCode>
    <NativeName>בית נקופה</NativeName>
    <ParentName>ישראל</ParentName>
    <Latitude>31.804392</Latitude>
    <Longitude>35.126876</Longitude>
  </City>
  <City>
    <RegionCode>8</RegionCode>
    <NativeName>בית עובד</NativeName>
    <ParentName>ישראל</ParentName>
    <Latitude>31.921287</Latitude>
    <Longitude>34.774905</Longitude>
  </City>
  <City>
    <RegionCode>8</RegionCode>
    <NativeName>בית עוזיאל</NativeName>
    <ParentName>ישראל</ParentName>
    <Latitude>31.870050</Latitude>
    <Longitude>34.904858</Longitude>
  </City>
  <City>
    <RegionCode>8</RegionCode>
    <NativeName>בית עזרא</NativeName>
    <ParentName>ישראל</ParentName>
    <Latitude>31.736402</Latitude>
    <Longitude>34.657514</Longitude>
  </City>
  <City>
    <RegionCode>8</RegionCode>
    <NativeName>בית עריף</NativeName>
    <ParentName>ישראל</ParentName>
    <Latitude>31.995352</Latitude>
    <Longitude>34.935103</Longitude>
  </City>
  <City>
    <RegionCode>R102</RegionCode>
    <NativeName>בית קמה</NativeName>
    <ParentName>ישראל</ParentName>
    <Latitude>31.446566</Latitude>
    <Longitude>34.762248</Longitude>
  </City>
  <City>
    <RegionCode>R103</RegionCode>
    <NativeName>בית קשת</NativeName>
    <ParentName>ישראל</ParentName>
    <Latitude>32.718446</Latitude>
    <Longitude>35.394952</Longitude>
  </City>
  <City>
    <RegionCode>R103</RegionCode>
    <NativeName>בית רימון</NativeName>
    <ParentName>ישראל</ParentName>
    <Latitude>32.781845</Latitude>
    <Longitude>35.327738</Longitude>
  </City>
  <City>
    <Code>9200</Code>
    <RegionCode>R103</RegionCode>
    <NativeName>בית שאן</NativeName>
    <ParentName>ישראל</ParentName>
    <AlternateName>Beit She'An</AlternateName>
    <Latitude>32.497103</Latitude>
    <Longitude>35.497336</Longitude>
  </City>
  <City>
    <RegionCode>8</RegionCode>
    <NativeName>בית שיקמה</NativeName>
    <ParentName>ישראל</ParentName>
    <Latitude>31.637735</Latitude>
    <Longitude>34.610074</Longitude>
  </City>
  <City>
    <Code>2610</Code>
    <RegionCode>R101</RegionCode>
    <NativeName>בית שמש</NativeName>
    <ParentName>ישראל</ParentName>
    <AlternateName>Beit Shemesh</AlternateName>
    <Latitude>31.747041</Latitude>
    <Longitude>34.988099</Longitude>
  </City>
  <City>
    <RegionCode>R103</RegionCode>
    <NativeName>בית שערים</NativeName>
    <ParentName>ישראל</ParentName>
    <Latitude>32.697679</Latitude>
    <Longitude>35.179905</Longitude>
  </City>
  <City>
    <RegionCode>1</RegionCode>
    <NativeName>ביתן אהרון</NativeName>
    <ParentName>ישראל</ParentName>
    <Latitude>32.364928</Latitude>
    <Longitude>34.869560</Longitude>
  </City>
  <City>
    <RegionCode>R103</RegionCode>
    <NativeName>בלפוריה</NativeName>
    <ParentName>ישראל</ParentName>
    <Latitude>32.629988</Latitude>
    <Longitude>35.296281</Longitude>
  </City>
  <City>
    <RegionCode>8</RegionCode>
    <NativeName>בן זכאי</NativeName>
    <ParentName>ישראל</ParentName>
    <AlternateName>רבן יוחנן בן זכאי</AlternateName>
    <Latitude>31.857223</Latitude>
    <Longitude>34.727432</Longitude>
  </City>
  <City>
    <RegionCode>R103</RegionCode>
    <NativeName>בן עמי</NativeName>
    <ParentName>ישראל</ParentName>
    <Latitude>33.005369</Latitude>
    <Longitude>35.122218</Longitude>
  </City>
  <City>
    <Code>6100</Code>
    <RegionCode>1</RegionCode>
    <NativeName>בני ברק</NativeName>
    <ParentName>ישראל</ParentName>
    <AlternateName>Bnei Brak</AlternateName>
    <Latitude>32.084932</Latitude>
    <Longitude>34.835226</Longitude>
  </City>
  <City>
    <RegionCode>R102</RegionCode>
    <NativeName>בני דקלים</NativeName>
    <ParentName>ישראל</ParentName>
    <Latitude>31.517188</Latitude>
    <Longitude>34.917033</Longitude>
  </City>
  <City>
    <RegionCode>8</RegionCode>
    <NativeName>בני דרום</NativeName>
    <ParentName>ישראל</ParentName>
    <Latitude>31.820870</Latitude>
    <Longitude>34.691609</Longitude>
  </City>
  <City>
    <Code>386</Code>
    <RegionCode>1</RegionCode>
    <NativeName>בני דרור</NativeName>
    <ParentName>ישראל</ParentName>
    <Latitude>32.261795</Latitude>
    <Longitude>34.901791</Longitude>
  </City>
  <City>
    <RegionCode>R102</RegionCode>
    <NativeName>בני נצרים</NativeName>
    <ParentName>ישראל</ParentName>
    <Latitude>31.143513</Latitude>
    <Longitude>34.316403</Longitude>
  </City>
  <City>
    <RegionCode>1</RegionCode>
    <NativeName>בני עטרות</NativeName>
    <ParentName>ישראל</ParentName>
    <Latitude>32.021470</Latitude>
    <Longitude>34.910146</Longitude>
  </City>
  <City>
    <Code>1066</Code>
    <RegionCode>8</RegionCode>
    <NativeName>בני עי"ש</NativeName>
    <ParentName>ישראל</ParentName>
    <Latitude>31.790235</Latitude>
    <Longitude>34.759291</Longitude>
  </City>
  <City>
    <Code>418</Code>
    <RegionCode>1</RegionCode>
    <NativeName>בני ציון</NativeName>
    <ParentName>ישראל</ParentName>
    <Latitude>32.219839</Latitude>
    <Longitude>34.868378</Longitude>
  </City>
  <City>
    <RegionCode>8</RegionCode>
    <NativeName>בני רא"ם</NativeName>
    <ParentName>ישראל</ParentName>
    <Latitude>31.769972</Latitude>
    <Longitude>34.790463</Longitude>
  </City>
  <City>
    <RegionCode>8</RegionCode>
    <NativeName>בניה</NativeName>
    <ParentName>ישראל</ParentName>
    <Latitude>31.843444</Latitude>
    <Longitude>34.751793</Longitude>
  </City>
  <City>
    <RegionCode>R103</RegionCode>
    <NativeName>בסמ"ה</NativeName>
    <ParentName>ישראל</ParentName>
    <Latitude>32.529401</Latitude>
    <Longitude>35.103199</Longitude>
  </City>
  <City>
    <RegionCode>R103</RegionCode>
    <NativeName>בסמת טבעון</NativeName>
    <ParentName>ישראל</ParentName>
    <Latitude>32.736287</Latitude>
    <Longitude>35.153200</Longitude>
  </City>
  <City>
    <Code>483</Code>
    <RegionCode>R103</RegionCode>
    <NativeName>בענה</NativeName>
    <ParentName>ישראל</ParentName>
    <Latitude>32.929538</Latitude>
    <Longitude>35.271917</Longitude>
  </City>
  <City>
    <Code>389</Code>
    <RegionCode>1</RegionCode>
    <NativeName>בצרה</NativeName>
    <ParentName>ישראל</ParentName>
    <Latitude>32.214541</Latitude>
    <Longitude>34.878123</Longitude>
  </City>
  <City>
    <RegionCode>R103</RegionCode>
    <NativeName>בצת</NativeName>
    <ParentName>ישראל</ParentName>
    <Latitude>33.070047</Latitude>
    <Longitude>35.132636</Longitude>
  </City>
  <City>
    <RegionCode>8</RegionCode>
    <NativeName>בקוע</NativeName>
    <ParentName>ישראל</ParentName>
    <Latitude>31.827899</Latitude>
    <Longitude>34.924732</Longitude>
  </City>
  <City>
    <RegionCode>R101</RegionCode>
    <NativeName>בר גיורא</NativeName>
    <ParentName>ישראל</ParentName>
    <Latitude>31.729683</Latitude>
    <Longitude>35.073414</Longitude>
  </City>
  <City>
    <RegionCode>3</RegionCode>
    <NativeName>בר יוחאי</NativeName>
    <ParentName>ישראל</ParentName>
    <Latitude>32.997704</Latitude>
    <Longitude>35.448190</Longitude>
  </City>
  <City>
    <RegionCode>R102</RegionCode>
    <NativeName>ברור חיל</NativeName>
    <ParentName>ישראל</ParentName>
    <Latitude>31.556985</Latitude>
    <Longitude>34.646547</Longitude>
  </City>
  <City>
    <RegionCode>R102</RegionCode>
    <NativeName>ברוש</NativeName>
    <ParentName>ישראל</ParentName>
    <Latitude>31.370721</Latitude>
    <Longitude>34.634978</Longitude>
  </City>
  <City>
    <RegionCode>8</RegionCode>
    <NativeName>ברכיה</NativeName>
    <ParentName>ישראל</ParentName>
    <Latitude>31.668047</Latitude>
    <Longitude>34.624296</Longitude>
  </City>
  <City>
    <RegionCode>3</RegionCode>
    <NativeName>ברעם</NativeName>
    <ParentName>ישראל</ParentName>
    <Latitude>33.058979</Latitude>
    <Longitude>35.433235</Longitude>
  </City>
  <City>
    <RegionCode>R103</RegionCode>
    <NativeName>ברק</NativeName>
    <ParentName>ישראל</ParentName>
    <Latitude>32.542821</Latitude>
    <Longitude>35.265291</Longitude>
  </City>
  <City>
    <RegionCode>R103</RegionCode>
    <NativeName>ברקאי</NativeName>
    <ParentName>ישראל</ParentName>
    <Latitude>32.476096</Latitude>
    <Longitude>35.031044</Longitude>
  </City>
  <City>
    <RegionCode>1</RegionCode>
    <NativeName>ברקת</NativeName>
    <ParentName>ישראל</ParentName>
    <Latitude>32.018344</Latitude>
    <Longitude>34.943179</Longitude>
  </City>
  <City>
    <RegionCode>8</RegionCode>
    <NativeName>בת הדר</NativeName>
    <ParentName>ישראל</ParentName>
    <Latitude>31.648125</Latitude>
    <Longitude>34.597146</Longitude>
  </City>
  <City>
    <RegionCode>1</RegionCode>
    <NativeName>בת חן</NativeName>
    <ParentName>ישראל</ParentName>
    <Latitude>32.360194</Latitude>
    <Longitude>34.872388</Longitude>
  </City>
  <City>
    <Code>1319</Code>
    <RegionCode>1</RegionCode>
    <NativeName>בת חפר</NativeName>
    <ParentName>ישראל</ParentName>
    <Latitude>32.333714</Latitude>
    <Longitude>35.013729</Longitude>
  </City>
  <City>
    <Code>6200</Code>
    <RegionCode>8</RegionCode>
    <NativeName>בת ים</NativeName>
    <ParentName>ישראל</ParentName>
    <AlternateName>Bat Yam</AlternateName>
    <Latitude>32.013186</Latitude>
    <Longitude>34.748019</Longitude>
  </City>
  <City>
    <RegionCode>R103</RegionCode>
    <NativeName>בת שלמה</NativeName>
    <ParentName>ישראל</ParentName>
    <Latitude>32.600335</Latitude>
    <Longitude>35.003837</Longitude>
  </City>
  <City>
    <RegionCode>R103</RegionCode>
    <NativeName>ג'ודידה מכר</NativeName>
    <ParentName>ישראל</ParentName>
    <Latitude>32.928656</Latitude>
    <Longitude>35.150573</Longitude>
  </City>
  <City>
    <RegionCode>R103</RegionCode>
    <NativeName>ג'יסר א-זרקה</NativeName>
    <ParentName>ישראל</ParentName>
    <AlternateName>ג'יסר א זרקה</AlternateName>
    <Latitude>32.536262</Latitude>
    <Longitude>34.911569</Longitude>
  </City>
  <City>
    <Code>627</Code>
    <RegionCode>1</RegionCode>
    <NativeName>ג'לג'וליה</NativeName>
    <ParentName>ישראל</ParentName>
    <Latitude>32.155469</Latitude>
    <Longitude>34.950714</Longitude>
  </City>
  <City>
    <RegionCode>1</RegionCode>
    <NativeName>גאולי תימן</NativeName>
    <ParentName>ישראל</ParentName>
    <Latitude>32.391837</Latitude>
    <Longitude>34.900989</Longitude>
  </City>
  <City>
    <RegionCode>1</RegionCode>
    <NativeName>גאולים</NativeName>
    <ParentName>ישראל</ParentName>
    <Latitude>32.296487</Latitude>
    <Longitude>34.943862</Longitude>
  </City>
  <City>
    <RegionCode>8</RegionCode>
    <NativeName>גאליה</NativeName>
    <ParentName>ישראל</ParentName>
    <Latitude>31.885644</Latitude>
    <Longitude>34.765351</Longitude>
  </City>
  <City>
    <RegionCode>R102</RegionCode>
    <NativeName>גבולות</NativeName>
    <ParentName>ישראל</ParentName>
    <Latitude>31.211168</Latitude>
    <Longitude>34.466199</Longitude>
  </City>
  <City>
    <RegionCode>R102</RegionCode>
    <NativeName>גבים</NativeName>
    <ParentName>ישראל</ParentName>
    <Latitude>31.506273</Latitude>
    <Longitude>34.598949</Longitude>
  </City>
  <City>
    <Code>683</Code>
    <RegionCode>R103</RegionCode>
    <NativeName>גבע כרמל</NativeName>
    <ParentName>ישראל</ParentName>
    <Latitude>32.662163</Latitude>
    <Longitude>34.954078</Longitude>
  </City>
  <City>
    <RegionCode>R102</RegionCode>
    <NativeName>גבעולים</NativeName>
    <ParentName>ישראל</ParentName>
    <Latitude>31.397604</Latitude>
    <Longitude>34.593821</Longitude>
  </City>
  <City>
    <RegionCode>R102</RegionCode>
    <NativeName>גבעות בר</NativeName>
    <ParentName>ישראל</ParentName>
    <Latitude>31.357209</Latitude>
    <Longitude>34.755541</Longitude>
  </City>
  <City>
    <RegionCode>R103</RegionCode>
    <NativeName>גבעת אבני</NativeName>
    <ParentName>ישראל</ParentName>
    <Latitude>32.775382</Latitude>
    <Longitude>35.436154</Longitude>
  </City>
  <City>
    <Code>1288</Code>
    <RegionCode>R103</RegionCode>
    <NativeName>גבעת אלה</NativeName>
    <ParentName>ישראל</ParentName>
    <Latitude>32.722007</Latitude>
    <Longitude>35.244822</Longitude>
  </City>
  <City>
    <RegionCode>8</RegionCode>
    <NativeName>גבעת ברנר</NativeName>
    <ParentName>ישראל</ParentName>
    <Latitude>31.866610</Latitude>
    <Longitude>34.802254</Longitude>
  </City>
  <City>
    <RegionCode>1</RegionCode>
    <NativeName>גבעת השלושה</NativeName>
    <ParentName>ישראל</ParentName>
    <Latitude>32.096340</Latitude>
    <Longitude>34.920628</Longitude>
  </City>
  <City>
    <RegionCode>8</RegionCode>
    <NativeName>גבעת וושינגטון</NativeName>
    <ParentName>ישראל</ParentName>
    <Latitude>31.817500</Latitude>
    <Longitude>34.728889</Longitude>
  </City>
  <City>
    <RegionCode>1</RegionCode>
    <NativeName>גבעת חן</NativeName>
    <ParentName>ישראל</ParentName>
    <Latitude>32.167580</Latitude>
    <Longitude>34.875514</Longitude>
  </City>
  <City>
    <Code>787</Code>
    <RegionCode>R101</RegionCode>
    <NativeName>גבעת יערים</NativeName>
    <ParentName>ישראל</ParentName>
    <Latitude>31.786089</Latitude>
    <Longitude>35.092770</Longitude>
  </City>
  <City>
    <RegionCode>R101</RegionCode>
    <NativeName>גבעת ישעיהו</NativeName>
    <ParentName>ישראל</ParentName>
    <Latitude>31.671680</Latitude>
    <Longitude>34.943738</Longitude>
  </City>
  <City>
    <RegionCode>1</RegionCode>
    <NativeName>גבעת כ"ח</NativeName>
    <ParentName>ישראל</ParentName>
    <Latitude>32.032091</Latitude>
    <Longitude>34.938796</Longitude>
  </City>
  <City>
    <RegionCode>R103</RegionCode>
    <NativeName>גבעת ניל"י</NativeName>
    <ParentName>ישראל</ParentName>
    <Latitude>32.549043</Latitude>
    <Longitude>35.041194</Longitude>
  </City>
  <City>
    <RegionCode>R103</RegionCode>
    <NativeName>גבעת עוז</NativeName>
    <ParentName>ישראל</ParentName>
    <Latitude>32.555934</Latitude>
    <Longitude>35.198004</Longitude>
  </City>
  <City>
    <Code>681</Code>
    <RegionCode>1</RegionCode>
    <NativeName>גבעת שמואל</NativeName>
    <ParentName>ישראל</ParentName>
    <AlternateName>Giv'at shmuel</AlternateName>
    <Latitude>32.077299</Latitude>
    <Longitude>34.849206</Longitude>
  </City>
  <City>
    <RegionCode>8</RegionCode>
    <NativeName>גבעת שמש</NativeName>
    <ParentName>ישראל</ParentName>
    <Latitude>31.774167</Latitude>
    <Longitude>34.950556</Longitude>
  </City>
  <City>
    <RegionCode>1</RegionCode>
    <NativeName>גבעת שפירא</NativeName>
    <ParentName>ישראל</ParentName>
    <Latitude>32.357630</Latitude>
    <Longitude>34.875845</Longitude>
  </City>
  <City>
    <RegionCode>8</RegionCode>
    <NativeName>גבעתי</NativeName>
    <ParentName>ישראל</ParentName>
    <Latitude>31.733138</Latitude>
    <Longitude>34.679478</Longitude>
  </City>
  <City>
    <Code>6300</Code>
    <RegionCode>2</RegionCode>
    <NativeName>גבעתיים</NativeName>
    <ParentName>ישראל</ParentName>
    <AlternateName>Givatayim</AlternateName>
    <Latitude>32.072176</Latitude>
    <Longitude>34.808871</Longitude>
  </City>
  <City>
    <RegionCode>R102</RegionCode>
    <NativeName>גברעם</NativeName>
    <ParentName>ישראל</ParentName>
    <Latitude>31.591461</Latitude>
    <Longitude>34.612156</Longitude>
  </City>
  <City>
    <RegionCode>R103</RegionCode>
    <NativeName>גבת</NativeName>
    <ParentName>ישראל</ParentName>
    <Latitude>32.676560</Latitude>
    <Longitude>35.213151</Longitude>
  </City>
  <City>
    <RegionCode>R103</RegionCode>
    <NativeName>גדיש</NativeName>
    <ParentName>ישראל</ParentName>
    <Latitude>32.558844</Latitude>
    <Longitude>35.244430</Longitude>
  </City>
  <City>
    <RegionCode>R103</RegionCode>
    <NativeName>גדעונה</NativeName>
    <ParentName>ישראל</ParentName>
    <Latitude>32.549927</Latitude>
    <Longitude>35.359202</Longitude>
  </City>
  <City>
    <Code>2550</Code>
    <RegionCode>8</RegionCode>
    <NativeName>גדרה</NativeName>
    <ParentName>ישראל</ParentName>
    <Latitude>31.817531</Latitude>
    <Longitude>34.785101</Longitude>
  </City>
  <City>
    <RegionCode>3</RegionCode>
    <NativeName>גונן</NativeName>
    <ParentName>ישראל</ParentName>
    <Latitude>33.123564</Latitude>
    <Longitude>35.647701</Longitude>
  </City>
  <City>
    <RegionCode>R103</RegionCode>
    <NativeName>גורן</NativeName>
    <ParentName>ישראל</ParentName>
    <Latitude>33.055566</Latitude>
    <Longitude>35.233619</Longitude>
  </City>
  <City>
    <RegionCode>R103</RegionCode>
    <NativeName>גזית</NativeName>
    <ParentName>ישראל</ParentName>
    <Latitude>32.639307</Latitude>
    <Longitude>35.446239</Longitude>
  </City>
  <City>
    <RegionCode>8</RegionCode>
    <NativeName>גזר</NativeName>
    <ParentName>ישראל</ParentName>
    <Latitude>31.876349</Latitude>
    <Longitude>34.921110</Longitude>
  </City>
  <City>
    <RegionCode>8</RegionCode>
    <NativeName>גיאה</NativeName>
    <ParentName>ישראל</ParentName>
    <Latitude>31.628467</Latitude>
    <Longitude>34.602678</Longitude>
  </City>
  <City>
    <RegionCode>8</RegionCode>
    <NativeName>גיבתון</NativeName>
    <ParentName>ישראל</ParentName>
    <Latitude>31.888318</Latitude>
    <Longitude>34.799060</Longitude>
  </City>
  <City>
    <RegionCode>8</RegionCode>
    <NativeName>גיזו</NativeName>
    <ParentName>ישראל</ParentName>
    <Latitude>31.805585</Latitude>
    <Longitude>34.939653</Longitude>
  </City>
  <City>
    <RegionCode>R103</RegionCode>
    <NativeName>גילון</NativeName>
    <ParentName>ישראל</ParentName>
    <Latitude>32.904338</Latitude>
    <Longitude>35.232191</Longitude>
  </City>
  <City>
    <RegionCode>R102</RegionCode>
    <NativeName>גילת</NativeName>
    <ParentName>ישראל</ParentName>
    <Latitude>31.326321</Latitude>
    <Longitude>34.648934</Longitude>
  </City>
  <City>
    <RegionCode>8</RegionCode>
    <NativeName>גימזו</NativeName>
    <ParentName>ישראל</ParentName>
    <Latitude>31.927217</Latitude>
    <Longitude>34.941128</Longitude>
  </City>
  <City>
    <RegionCode>3</RegionCode>
    <NativeName>גינוסר</NativeName>
    <ParentName>ישראל</ParentName>
    <Latitude>32.848666</Latitude>
    <Longitude>35.523152</Longitude>
  </City>
  <City>
    <Code>863</Code>
    <RegionCode>8</RegionCode>
    <NativeName>גינתון</NativeName>
    <ParentName>ישראל</ParentName>
    <Latitude>31.962801</Latitude>
    <Longitude>34.913062</Longitude>
  </City>
  <City>
    <RegionCode>R103</RegionCode>
    <NativeName>גיתה</NativeName>
    <ParentName>ישראל</ParentName>
    <Latitude>32.967233</Latitude>
    <Longitude>35.249125</Longitude>
  </City>
  <City>
    <RegionCode>8</RegionCode>
    <NativeName>גלאון</NativeName>
    <ParentName>ישראל</ParentName>
    <Latitude>31.633371</Latitude>
    <Longitude>34.848898</Longitude>
  </City>
  <City>
    <RegionCode>1</RegionCode>
    <NativeName>גליל ים</NativeName>
    <ParentName>ישראל</ParentName>
    <Latitude>32.158797</Latitude>
    <Longitude>34.831876</Longitude>
  </City>
  <City>
    <RegionCode>8</RegionCode>
    <NativeName>גן הדרום</NativeName>
    <ParentName>ישראל</ParentName>
    <Latitude>31.804056</Latitude>
    <Longitude>34.699870</Longitude>
  </City>
  <City>
    <RegionCode>R103</RegionCode>
    <NativeName>גן השומרון</NativeName>
    <ParentName>ישראל</ParentName>
    <Latitude>32.465007</Latitude>
    <Longitude>34.999047</Longitude>
  </City>
  <City>
    <Code>239</Code>
    <RegionCode>1</RegionCode>
    <NativeName>גן חיים</NativeName>
    <ParentName>ישראל</ParentName>
    <Latitude>32.195761</Latitude>
    <Longitude>34.906957</Longitude>
  </City>
  <City>
    <Code>734</Code>
    <RegionCode>1</RegionCode>
    <NativeName>גן יאשיה</NativeName>
    <ParentName>ישראל</ParentName>
    <Latitude>32.349487</Latitude>
    <Longitude>34.996245</Longitude>
  </City>
  <City>
    <Code>166</Code>
    <RegionCode>8</RegionCode>
    <NativeName>גן יבנה</NativeName>
    <ParentName>ישראל</ParentName>
    <Latitude>31.783056</Latitude>
    <Longitude>34.703101</Longitude>
  </City>
  <City>
    <Code>1274</Code>
    <RegionCode>R103</RegionCode>
    <NativeName>גן נר</NativeName>
    <ParentName>ישראל</ParentName>
    <Latitude>32.528706</Latitude>
    <Longitude>35.336254</Longitude>
  </City>
  <City>
    <RegionCode>8</RegionCode>
    <NativeName>גן שורק</NativeName>
    <ParentName>ישראל</ParentName>
    <Latitude>31.944011</Latitude>
    <Longitude>34.758322</Longitude>
  </City>
  <City>
    <RegionCode>8</RegionCode>
    <NativeName>גן שלמה</NativeName>
    <ParentName>ישראל</ParentName>
    <Latitude>31.878777</Latitude>
    <Longitude>34.798901</Longitude>
  </City>
  <City>
    <RegionCode>1</RegionCode>
    <NativeName>גן שמואל</NativeName>
    <ParentName>ישראל</ParentName>
    <Latitude>32.452911</Latitude>
    <Longitude>34.949311</Longitude>
  </City>
  <City>
    <Code>549</Code>
    <RegionCode>1</RegionCode>
    <NativeName>גנות הדר</NativeName>
    <ParentName>ישראל</ParentName>
    <Latitude>32.321740</Latitude>
    <Longitude>34.900715</Longitude>
  </City>
  <City>
    <RegionCode>8</RegionCode>
    <NativeName>גנות</NativeName>
    <ParentName>ישראל</ParentName>
    <Latitude>32.018204</Latitude>
    <Longitude>34.825877</Longitude>
  </City>
  <City>
    <RegionCode>8</RegionCode>
    <NativeName>גני הדר</NativeName>
    <ParentName>ישראל</ParentName>
    <Latitude>31.878924</Latitude>
    <Longitude>34.854028</Longitude>
  </City>
  <City>
    <RegionCode>8</RegionCode>
    <NativeName>גני טל</NativeName>
    <ParentName>ישראל</ParentName>
    <Latitude>31.788573</Latitude>
    <Longitude>34.791392</Longitude>
  </City>
  <City>
    <RegionCode>8</RegionCode>
    <NativeName>גני יוחנן</NativeName>
    <ParentName>ישראל</ParentName>
    <Latitude>31.859924</Latitude>
    <Longitude>34.840827</Longitude>
  </City>
  <City>
    <RegionCode>1</RegionCode>
    <NativeName>גני עם</NativeName>
    <ParentName>ישראל</ParentName>
    <Latitude>32.149838</Latitude>
    <Longitude>34.903358</Longitude>
  </City>
  <City>
    <Code>229</Code>
    <RegionCode>1</RegionCode>
    <NativeName>גני תקווה</NativeName>
    <ParentName>ישראל</ParentName>
    <Latitude>32.060497</Latitude>
    <Longitude>34.873121</Longitude>
  </City>
  <City>
    <RegionCode>R103</RegionCode>
    <NativeName>גניגר</NativeName>
    <ParentName>ישראל</ParentName>
    <Latitude>32.663419</Latitude>
    <Longitude>35.259861</Longitude>
  </City>
  <City>
    <RegionCode>1</RegionCode>
    <NativeName>געש</NativeName>
    <ParentName>ישראל</ParentName>
    <Latitude>32.228477</Latitude>
    <Longitude>34.824411</Longitude>
  </City>
  <City>
    <RegionCode>R103</RegionCode>
    <NativeName>געתון</NativeName>
    <ParentName>ישראל</ParentName>
    <Latitude>33.006075</Latitude>
    <Longitude>35.213831</Longitude>
  </City>
  <City>
    <RegionCode>8</RegionCode>
    <NativeName>גפן</NativeName>
    <ParentName>ישראל</ParentName>
    <Latitude>31.740766</Latitude>
    <Longitude>34.878563</Longitude>
  </City>
  <City>
    <RegionCode>R102</RegionCode>
    <NativeName>גרופית</NativeName>
    <ParentName>ישראל</ParentName>
    <Latitude>29.941617</Latitude>
    <Longitude>35.064691</Longitude>
  </City>
  <City>
    <RegionCode>R103</RegionCode>
    <NativeName>גרנות הגליל</NativeName>
    <ParentName>ישראל</ParentName>
    <Latitude>33.059286</Latitude>
    <Longitude>35.249670</Longitude>
  </City>
  <City>
    <Code>574</Code>
    <RegionCode>R103</RegionCode>
    <NativeName>גשר הזיו</NativeName>
    <ParentName>ישראל</ParentName>
    <Latitude>33.040532</Latitude>
    <Longitude>35.110563</Longitude>
  </City>
  <City>
    <RegionCode>R103</RegionCode>
    <NativeName>גשר</NativeName>
    <ParentName>ישראל</ParentName>
    <Latitude>32.621205</Latitude>
    <Longitude>35.550376</Longitude>
  </City>
  <City>
    <RegionCode>1</RegionCode>
    <NativeName>גת רימון</NativeName>
    <ParentName>ישראל</ParentName>
    <Latitude>32.068105</Latitude>
    <Longitude>34.881362</Longitude>
  </City>
  <City>
    <Code>494</Code>
    <RegionCode>R103</RegionCode>
    <NativeName>דאלית אל-כרמל</NativeName>
    <ParentName>ישראל</ParentName>
    <AlternateName>דאלית אל כרמל</AlternateName>
    <Latitude>32.693796</Latitude>
    <Longitude>35.055447</Longitude>
  </City>
  <City>
    <RegionCode>R103</RegionCode>
    <NativeName>דבורה</NativeName>
    <ParentName>ישראל</ParentName>
    <Latitude>32.552895</Latitude>
    <Longitude>35.263853</Longitude>
  </City>
  <City>
    <RegionCode>R103</RegionCode>
    <NativeName>דבוריה</NativeName>
    <ParentName>ישראל</ParentName>
    <Latitude>32.694120</Latitude>
    <Longitude>35.368513</Longitude>
  </City>
  <City>
    <RegionCode>R102</RegionCode>
    <NativeName>דבירה</NativeName>
    <ParentName>ישראל</ParentName>
    <Latitude>31.411699</Latitude>
    <Longitude>34.825177</Longitude>
  </City>
  <City>
    <RegionCode>R103</RegionCode>
    <NativeName>דברת</NativeName>
    <ParentName>ישראל</ParentName>
    <Latitude>32.646729</Latitude>
    <Longitude>35.350085</Longitude>
  </City>
  <City>
    <RegionCode>3</RegionCode>
    <NativeName>דגניה א'</NativeName>
    <ParentName>ישראל</ParentName>
    <Latitude>32.706938</Latitude>
    <Longitude>35.575062</Longitude>
  </City>
  <City>
    <RegionCode>3</RegionCode>
    <NativeName>דגניה ב'</NativeName>
    <ParentName>ישראל</ParentName>
    <Latitude>32.699070</Latitude>
    <Longitude>35.577551</Longitude>
  </City>
  <City>
    <RegionCode>3</RegionCode>
    <NativeName>דוב"ב</NativeName>
    <ParentName>ישראל</ParentName>
    <Latitude>33.050800</Latitude>
    <Longitude>35.407747</Longitude>
  </City>
  <City>
    <RegionCode>R103</RegionCode>
    <NativeName>דור</NativeName>
    <ParentName>ישראל</ParentName>
    <Latitude>32.607802</Latitude>
    <Longitude>34.923316</Longitude>
  </City>
  <City>
    <RegionCode>R102</RegionCode>
    <NativeName>דורות</NativeName>
    <ParentName>ישראל</ParentName>
    <Latitude>31.507207</Latitude>
    <Longitude>34.645725</Longitude>
  </City>
  <City>
    <RegionCode>R103</RegionCode>
    <NativeName>דחי</NativeName>
    <ParentName>ישראל</ParentName>
    <Latitude>32.622491</Latitude>
    <Longitude>35.343604</Longitude>
  </City>
  <City>
    <Code>2200</Code>
    <RegionCode>R102</RegionCode>
    <NativeName>דימונה</NativeName>
    <ParentName>ישראל</ParentName>
    <AlternateName>Dimona</AlternateName>
    <Latitude>31.069419</Latitude>
    <Longitude>35.033363</Longitude>
  </City>
  <City>
    <RegionCode>R103</RegionCode>
    <NativeName>דיר אל-אסד</NativeName>
    <ParentName>ישראל</ParentName>
    <AlternateName>דיר אל אסד</AlternateName>
    <Latitude>32.934450</Latitude>
    <Longitude>35.268394</Longitude>
  </City>
  <City>
    <RegionCode>R103</RegionCode>
    <NativeName>דיר חנא</NativeName>
    <ParentName>ישראל</ParentName>
    <Latitude>32.862316</Latitude>
    <Longitude>35.365253</Longitude>
  </City>
  <City>
    <RegionCode>8</RegionCode>
    <NativeName>דיר ראפאת</NativeName>
    <ParentName>ישראל</ParentName>
    <Latitude>31.776530</Latitude>
    <Longitude>34.947439</Longitude>
  </City>
  <City>
    <RegionCode>3</RegionCode>
    <NativeName>דישון</NativeName>
    <ParentName>ישראל</ParentName>
    <Latitude>33.082318</Latitude>
    <Longitude>35.517572</Longitude>
  </City>
  <City>
    <RegionCode>R103</RegionCode>
    <NativeName>דליה</NativeName>
    <ParentName>ישראל</ParentName>
    <Latitude>32.589250</Latitude>
    <Longitude>35.076965</Longitude>
  </City>
  <City>
    <RegionCode>3</RegionCode>
    <NativeName>דלתון</NativeName>
    <ParentName>ישראל</ParentName>
    <Latitude>33.016553</Latitude>
    <Longitude>35.489911</Longitude>
  </City>
  <City>
    <RegionCode>R103</RegionCode>
    <NativeName>דמיידה</NativeName>
    <ParentName>ישראל</ParentName>
    <Latitude>32.817188</Latitude>
    <Longitude>35.228531</Longitude>
  </City>
  <City>
    <RegionCode>3</RegionCode>
    <NativeName>דן</NativeName>
    <ParentName>ישראל</ParentName>
    <Latitude>33.239637</Latitude>
    <Longitude>35.653953</Longitude>
  </City>
  <City>
    <RegionCode>3</RegionCode>
    <NativeName>דפנה</NativeName>
    <ParentName>ישראל</ParentName>
    <Latitude>33.230750</Latitude>
    <Longitude>35.638268</Longitude>
  </City>
  <City>
    <RegionCode>R102</RegionCode>
    <NativeName>דקל</NativeName>
    <ParentName>ישראל</ParentName>
    <Latitude>31.195908</Latitude>
    <Longitude>34.346771</Longitude>
  </City>
  <City>
    <Code>1349</Code>
    <RegionCode>R102</RegionCode>
    <NativeName>דריג'את</NativeName>
    <ParentName>ישראל</ParentName>
    <Latitude>31.301885</Latitude>
    <Longitude>35.076793</Longitude>
  </City>
  <City>
    <RegionCode>R103</RegionCode>
    <NativeName>הבונים</NativeName>
    <ParentName>ישראל</ParentName>
    <Latitude>32.636586</Latitude>
    <Longitude>34.932704</Longitude>
  </City>
  <City>
    <RegionCode>3</RegionCode>
    <NativeName>הגושרים</NativeName>
    <ParentName>ישראל</ParentName>
    <Latitude>33.221485</Latitude>
    <Longitude>35.623028</Longitude>
  </City>
  <City>
    <Code>191</Code>
    <RegionCode>1</RegionCode>
    <NativeName>הדר עם</NativeName>
    <ParentName>ישראל</ParentName>
    <Latitude>32.349653</Latitude>
    <Longitude>34.898945</Longitude>
  </City>
  <City>
    <Code>9700</Code>
    <RegionCode>1</RegionCode>
    <NativeName>הוד השרון</NativeName>
    <ParentName>ישראל</ParentName>
    <AlternateName>Hod Hasharon</AlternateName>
    <Latitude>32.155694</Latitude>
    <Longitude>34.893595</Longitude>
  </City>
  <City>
    <RegionCode>8</RegionCode>
    <NativeName>הודיה</NativeName>
    <ParentName>ישראל</ParentName>
    <Latitude>31.676356</Latitude>
    <Longitude>34.639275</Longitude>
  </City>
  <City>
    <RegionCode>R103</RegionCode>
    <NativeName>הודיות</NativeName>
    <ParentName>ישראל</ParentName>
    <Latitude>32.788611</Latitude>
    <Longitude>35.435000</Longitude>
  </City>
  <City>
    <RegionCode>R103</RegionCode>
    <NativeName>הושעיה</NativeName>
    <ParentName>ישראל</ParentName>
    <Latitude>32.757927</Latitude>
    <Longitude>35.295225</Longitude>
  </City>
  <City>
    <RegionCode>R103</RegionCode>
    <NativeName>הזורע</NativeName>
    <ParentName>ישראל</ParentName>
    <Latitude>32.644516</Latitude>
    <Longitude>35.119180</Longitude>
  </City>
  <City>
    <RegionCode>R103</RegionCode>
    <NativeName>הזורעים</NativeName>
    <ParentName>ישראל</ParentName>
    <Latitude>32.748140</Latitude>
    <Longitude>35.499922</Longitude>
  </City>
  <City>
    <RegionCode>R103</RegionCode>
    <NativeName>החותרים</NativeName>
    <ParentName>ישראל</ParentName>
    <Latitude>32.752311</Latitude>
    <Longitude>34.957545</Longitude>
  </City>
  <City>
    <RegionCode>R103</RegionCode>
    <NativeName>היוגב</NativeName>
    <ParentName>ישראל</ParentName>
    <Latitude>32.612753</Latitude>
    <Longitude>35.207483</Longitude>
  </City>
  <City>
    <RegionCode>R103</RegionCode>
    <NativeName>הילה</NativeName>
    <ParentName>ישראל</ParentName>
    <Latitude>33.036175</Latitude>
    <Longitude>35.244582</Longitude>
  </City>
  <City>
    <RegionCode>1</RegionCode>
    <NativeName>המעפיל</NativeName>
    <ParentName>ישראל</ParentName>
    <Latitude>32.378035</Latitude>
    <Longitude>34.983146</Longitude>
  </City>
  <City>
    <RegionCode>R103</RegionCode>
    <NativeName>הסוללים</NativeName>
    <ParentName>ישראל</ParentName>
    <Latitude>32.751802</Latitude>
    <Longitude>35.238022</Longitude>
  </City>
  <City>
    <RegionCode>1</RegionCode>
    <NativeName>העוגן</NativeName>
    <ParentName>ישראל</ParentName>
    <Latitude>32.360437</Latitude>
    <Longitude>34.923338</Longitude>
  </City>
  <City>
    <RegionCode>R102</RegionCode>
    <NativeName>הר עמשא</NativeName>
    <ParentName>ישראל</ParentName>
    <Latitude>31.342717</Latitude>
    <Longitude>35.101599</Longitude>
  </City>
  <City>
    <RegionCode>8</RegionCode>
    <NativeName>הראל</NativeName>
    <ParentName>ישראל</ParentName>
    <Latitude>31.808975</Latitude>
    <Longitude>34.947959</Longitude>
  </City>
  <City>
    <RegionCode>R103</RegionCode>
    <NativeName>הרדוף</NativeName>
    <ParentName>ישראל</ParentName>
    <Latitude>32.763717</Latitude>
    <Longitude>35.174663</Longitude>
  </City>
  <City>
    <Code>6400</Code>
    <RegionCode>1</RegionCode>
    <NativeName>הרצליה</NativeName>
    <ParentName>ישראל</ParentName>
    <AlternateName>Herzliya</AlternateName>
    <Latitude>32.162413</Latitude>
    <Longitude>34.844675</Longitude>
  </City>
  <City>
    <RegionCode>R103</RegionCode>
    <NativeName>הררית</NativeName>
    <ParentName>ישראל</ParentName>
    <Latitude>32.845696</Latitude>
    <Longitude>35.369257</Longitude>
  </City>
  <City>
    <RegionCode>8</RegionCode>
    <NativeName>ורדון</NativeName>
    <ParentName>ישראל</ParentName>
    <Latitude>31.663823</Latitude>
    <Longitude>34.781766</Longitude>
  </City>
  <City>
    <RegionCode>8</RegionCode>
    <NativeName>זבדיאל</NativeName>
    <ParentName>ישראל</ParentName>
    <Latitude>31.657560</Latitude>
    <Longitude>34.759336</Longitude>
  </City>
  <City>
    <RegionCode>8</RegionCode>
    <NativeName>זוהר</NativeName>
    <ParentName>ישראל</ParentName>
    <Latitude>31.595592</Latitude>
    <Longitude>34.692362</Longitude>
  </City>
  <City>
    <RegionCode>R102</RegionCode>
    <NativeName>זימרת</NativeName>
    <ParentName>ישראל</ParentName>
    <Latitude>31.447853</Latitude>
    <Longitude>34.552288</Longitude>
  </City>
  <City>
    <RegionCode>8</RegionCode>
    <NativeName>זיקים</NativeName>
    <ParentName>ישראל</ParentName>
    <Latitude>31.607204</Latitude>
    <Longitude>34.520968</Longitude>
  </City>
  <City>
    <RegionCode>8</RegionCode>
    <NativeName>זיתן</NativeName>
    <ParentName>ישראל</ParentName>
    <Latitude>31.975178</Latitude>
    <Longitude>34.891732</Longitude>
  </City>
  <City>
    <Code>9300</Code>
    <RegionCode>R103</RegionCode>
    <NativeName>זכרון יעקב</NativeName>
    <ParentName>ישראל</ParentName>
    <Latitude>32.573905</Latitude>
    <Longitude>34.951977</Longitude>
  </City>
  <City>
    <RegionCode>8</RegionCode>
    <NativeName>זכריה</NativeName>
    <ParentName>ישראל</ParentName>
    <Latitude>31.708812</Latitude>
    <Longitude>34.944708</Longitude>
  </City>
  <City>
    <RegionCode>1</RegionCode>
    <NativeName>זמר</NativeName>
    <ParentName>ישראל</ParentName>
    <Latitude>32.365684</Latitude>
    <Longitude>35.034651</Longitude>
  </City>
  <City>
    <RegionCode>R101</RegionCode>
    <NativeName>זנוח</NativeName>
    <ParentName>ישראל</ParentName>
    <Latitude>31.733813</Latitude>
    <Longitude>34.999369</Longitude>
  </City>
  <City>
    <RegionCode>R102</RegionCode>
    <NativeName>זרועה</NativeName>
    <ParentName>ישראל</ParentName>
    <Latitude>31.459133</Latitude>
    <Longitude>34.624161</Longitude>
  </City>
  <City>
    <RegionCode>R103</RegionCode>
    <NativeName>זרזיר</NativeName>
    <ParentName>ישראל</ParentName>
    <Latitude>32.723291</Latitude>
    <Longitude>35.220436</Longitude>
  </City>
  <City>
    <RegionCode>8</RegionCode>
    <NativeName>זרחיה</NativeName>
    <ParentName>ישראל</ParentName>
    <Latitude>31.681742</Latitude>
    <Longitude>34.746419</Longitude>
  </City>
  <City>
    <RegionCode>R103</RegionCode>
    <NativeName>ח'ואלד</NativeName>
    <ParentName>ישראל</ParentName>
    <Latitude>32.758894</Latitude>
    <Longitude>35.158374</Longitude>
  </City>
  <City>
    <RegionCode>1</RegionCode>
    <NativeName>חבצלת השרון</NativeName>
    <ParentName>ישראל</ParentName>
    <Latitude>32.360400</Latitude>
    <Longitude>34.861819</Longitude>
  </City>
  <City>
    <RegionCode>R103</RegionCode>
    <NativeName>חבר</NativeName>
    <ParentName>ישראל</ParentName>
    <Latitude>32.549097</Latitude>
    <Longitude>35.264911</Longitude>
  </City>
  <City>
    <RegionCode>1</RegionCode>
    <NativeName>חגור</NativeName>
    <ParentName>ישראל</ParentName>
    <Latitude>32.138591</Latitude>
    <Longitude>34.947614</Longitude>
  </City>
  <City>
    <RegionCode>8</RegionCode>
    <NativeName>חדיד</NativeName>
    <ParentName>ישראל</ParentName>
    <Latitude>31.969429</Latitude>
    <Longitude>34.932156</Longitude>
  </City>
  <City>
    <Code>6500</Code>
    <RegionCode>1</RegionCode>
    <NativeName>חדרה</NativeName>
    <ParentName>ישראל</ParentName>
    <AlternateName>Hadera</AlternateName>
    <Latitude>32.442785</Latitude>
    <Longitude>34.920878</Longitude>
  </City>
  <City>
    <RegionCode>1</RegionCode>
    <NativeName>חוגלה</NativeName>
    <ParentName>ישראל</ParentName>
    <Latitude>32.389070</Latitude>
    <Longitude>34.924252</Longitude>
  </City>
  <City>
    <RegionCode>8</RegionCode>
    <NativeName>חולדה</NativeName>
    <ParentName>ישראל</ParentName>
    <Latitude>31.832150</Latitude>
    <Longitude>34.881523</Longitude>
  </City>
  <City>
    <Code>6600</Code>
    <RegionCode>8</RegionCode>
    <NativeName>חולון</NativeName>
    <ParentName>ישראל</ParentName>
    <AlternateName>Holon</AlternateName>
    <Latitude>32.015833</Latitude>
    <Longitude>34.787384</Longitude>
  </City>
  <City>
    <RegionCode>R102</RegionCode>
    <NativeName>חולית</NativeName>
    <ParentName>ישראל</ParentName>
    <Latitude>31.230563</Latitude>
    <Longitude>34.327340</Longitude>
  </City>
  <City>
    <RegionCode>3</RegionCode>
    <NativeName>חולתה</NativeName>
    <ParentName>ישראל</ParentName>
    <Latitude>33.052851</Latitude>
    <Longitude>35.609244</Longitude>
  </City>
  <City>
    <Code>662</Code>
    <RegionCode>R103</RegionCode>
    <NativeName>חוסן</NativeName>
    <ParentName>ישראל</ParentName>
    <Latitude>32.997699</Latitude>
    <Longitude>35.298723</Longitude>
  </City>
  <City>
    <RegionCode>R103</RegionCode>
    <NativeName>חוסנייה</NativeName>
    <ParentName>ישראל</ParentName>
    <Latitude>32.900573</Latitude>
    <Longitude>35.322507</Longitude>
  </City>
  <City>
    <RegionCode>1</RegionCode>
    <NativeName>חופית</NativeName>
    <ParentName>ישראל</ParentName>
    <Latitude>32.386082</Latitude>
    <Longitude>34.874078</Longitude>
  </City>
  <City>
    <RegionCode>3</RegionCode>
    <NativeName>חוקוק</NativeName>
    <ParentName>ישראל</ParentName>
    <Latitude>32.878631</Latitude>
    <Longitude>35.496654</Longitude>
  </City>
  <City>
    <Code>1303</Code>
    <RegionCode>R102</RegionCode>
    <NativeName>חורה</NativeName>
    <ParentName>ישראל</ParentName>
    <Latitude>31.300399</Latitude>
    <Longitude>34.935688</Longitude>
  </City>
  <City>
    <RegionCode>3</RegionCode>
    <NativeName>חורפיש</NativeName>
    <ParentName>ישראל</ParentName>
    <Latitude>33.016688</Latitude>
    <Longitude>35.347106</Longitude>
  </City>
  <City>
    <RegionCode>1</RegionCode>
    <NativeName>חורשים</NativeName>
    <ParentName>ישראל</ParentName>
    <Latitude>32.137875</Latitude>
    <Longitude>34.971020</Longitude>
  </City>
  <City>
    <RegionCode>3</RegionCode>
    <NativeName>חזון</NativeName>
    <ParentName>ישראל</ParentName>
    <Latitude>32.906580</Latitude>
    <Longitude>35.395291</Longitude>
  </City>
  <City>
    <RegionCode>1</RegionCode>
    <NativeName>חיבת ציון</NativeName>
    <ParentName>ישראל</ParentName>
    <Latitude>32.397995</Latitude>
    <Longitude>34.911931</Longitude>
  </City>
  <City>
    <Code>4000</Code>
    <RegionCode>7</RegionCode>
    <NativeName>חיפה</NativeName>
    <ParentName>ישראל</ParentName>
    <AlternateName>Haifa</AlternateName>
    <Latitude>32.830361</Latitude>
    <Longitude>34.974338</Longitude>
  </City>
  <City>
    <RegionCode>R103</RegionCode>
    <NativeName>חלוץ</NativeName>
    <ParentName>ישראל</ParentName>
    <Latitude>32.951271</Latitude>
    <Longitude>35.311103</Longitude>
  </City>
  <City>
    <RegionCode>R102</RegionCode>
    <NativeName>חלץ</NativeName>
    <ParentName>ישראל</ParentName>
    <Latitude>31.577940</Latitude>
    <Longitude>34.658391</Longitude>
  </City>
  <City>
    <RegionCode>3</RegionCode>
    <NativeName>חמאם</NativeName>
    <ParentName>ישראל</ParentName>
    <Latitude>32.828399</Latitude>
    <Longitude>35.491721</Longitude>
  </City>
  <City>
    <RegionCode>8</RegionCode>
    <NativeName>חמד</NativeName>
    <ParentName>ישראל</ParentName>
    <Latitude>32.017992</Latitude>
    <Longitude>34.841265</Longitude>
  </City>
  <City>
    <RegionCode>R103</RegionCode>
    <NativeName>חמדיה</NativeName>
    <ParentName>ישראל</ParentName>
    <Latitude>32.519773</Latitude>
    <Longitude>35.520568</Longitude>
  </City>
  <City>
    <RegionCode>1</RegionCode>
    <NativeName>חניאל</NativeName>
    <ParentName>ישראל</ParentName>
    <Latitude>32.332803</Latitude>
    <Longitude>34.947693</Longitude>
  </City>
  <City>
    <RegionCode>R103</RegionCode>
    <NativeName>חניתה</NativeName>
    <ParentName>ישראל</ParentName>
    <Latitude>33.087634</Latitude>
    <Longitude>35.173430</Longitude>
  </City>
  <City>
    <RegionCode>R103</RegionCode>
    <NativeName>חנתון</NativeName>
    <ParentName>ישראל</ParentName>
    <Latitude>32.783051</Latitude>
    <Longitude>35.245063</Longitude>
  </City>
  <City>
    <RegionCode>8</RegionCode>
    <NativeName>חפץ חיים</NativeName>
    <ParentName>ישראל</ParentName>
    <Latitude>31.789319</Latitude>
    <Longitude>34.799739</Longitude>
  </City>
  <City>
    <RegionCode>R103</RegionCode>
    <NativeName>חפצי בה</NativeName>
    <ParentName>ישראל</ParentName>
    <Latitude>32.518729</Latitude>
    <Longitude>35.426247</Longitude>
  </City>
  <City>
    <RegionCode>8</RegionCode>
    <NativeName>חצב</NativeName>
    <ParentName>ישראל</ParentName>
    <Latitude>31.780095</Latitude>
    <Longitude>34.770572</Longitude>
  </City>
  <City>
    <RegionCode>R102</RegionCode>
    <NativeName>חצבה</NativeName>
    <ParentName>ישראל</ParentName>
    <Latitude>30.767942</Latitude>
    <Longitude>35.278498</Longitude>
  </City>
  <City>
    <RegionCode>8</RegionCode>
    <NativeName>חצור אשדוד</NativeName>
    <ParentName>ישראל</ParentName>
    <Latitude>31.772744</Latitude>
    <Longitude>34.719366</Longitude>
  </City>
  <City>
    <Code>2034</Code>
    <RegionCode>3</RegionCode>
    <NativeName>חצור הגלילית</NativeName>
    <ParentName>ישראל</ParentName>
    <Latitude>32.980382</Latitude>
    <Longitude>35.543548</Longitude>
  </City>
  <City>
    <RegionCode>1</RegionCode>
    <NativeName>חרב לאת</NativeName>
    <ParentName>ישראל</ParentName>
    <Latitude>32.403526</Latitude>
    <Longitude>34.917146</Longitude>
  </City>
  <City>
    <RegionCode>1</RegionCode>
    <NativeName>חרוצים</NativeName>
    <ParentName>ישראל</ParentName>
    <Latitude>32.227710</Latitude>
    <Longitude>34.864772</Longitude>
  </City>
  <City>
    <RegionCode>R103</RegionCode>
    <NativeName>חרשים</NativeName>
    <ParentName>ישראל</ParentName>
    <Latitude>32.957737</Latitude>
    <Longitude>35.328217</Longitude>
  </City>
  <City>
    <Code>6700</Code>
    <RegionCode>3</RegionCode>
    <NativeName>טבריה</NativeName>
    <ParentName>ישראל</ParentName>
    <AlternateName>Tiberias</AlternateName>
    <Latitude>32.795859</Latitude>
    <Longitude>35.530973</Longitude>
  </City>
  <City>
    <RegionCode>3</RegionCode>
    <NativeName>טובא זנגריה</NativeName>
    <ParentName>ישראל</ParentName>
    <Latitude>32.966210</Latitude>
    <Longitude>35.592018</Longitude>
  </City>
  <City>
    <Code>498</Code>
    <RegionCode>R103</RegionCode>
    <NativeName>טורעאן</NativeName>
    <ParentName>ישראל</ParentName>
    <Latitude>32.775137</Latitude>
    <Longitude>35.378344</Longitude>
  </City>
  <City>
    <Code>2730</Code>
    <RegionCode>1</RegionCode>
    <NativeName>טייבה</NativeName>
    <ParentName>ישראל</ParentName>
    <Latitude>32.266892</Latitude>
    <Longitude>35.009675</Longitude>
  </City>
  <City>
    <Code>2720</Code>
    <RegionCode>1</RegionCode>
    <NativeName>טירה</NativeName>
    <ParentName>ישראל</ParentName>
    <AlternateName>Tira</AlternateName>
    <Latitude>32.235466</Latitude>
    <Longitude>34.950506</Longitude>
  </City>
  <City>
    <RegionCode>8</RegionCode>
    <NativeName>טירת יהודה</NativeName>
    <ParentName>ישראל</ParentName>
    <Latitude>32.014833</Latitude>
    <Longitude>34.935878</Longitude>
  </City>
  <City>
    <Code>2100</Code>
    <RegionCode>R103</RegionCode>
    <NativeName>טירת כרמל</NativeName>
    <ParentName>ישראל</ParentName>
    <AlternateName>Tirat Carmel</AlternateName>
    <Latitude>32.762127</Latitude>
    <Longitude>34.972980</Longitude>
  </City>
  <City>
    <RegionCode>R103</RegionCode>
    <NativeName>טירת צבי</NativeName>
    <ParentName>ישראל</ParentName>
    <Latitude>32.422486</Latitude>
    <Longitude>35.528320</Longitude>
  </City>
  <City>
    <RegionCode>R103</RegionCode>
    <NativeName>טל אל</NativeName>
    <ParentName>ישראל</ParentName>
    <Latitude>32.927306</Latitude>
    <Longitude>35.182499</Longitude>
  </City>
  <City>
    <RegionCode>8</RegionCode>
    <NativeName>טל שחר</NativeName>
    <ParentName>ישראל</ParentName>
    <Latitude>31.804404</Latitude>
    <Longitude>34.903272</Longitude>
  </City>
  <City>
    <RegionCode>R102</RegionCode>
    <NativeName>טללים</NativeName>
    <ParentName>ישראל</ParentName>
    <Latitude>30.991511</Latitude>
    <Longitude>34.771261</Longitude>
  </City>
  <City>
    <Code>8900</Code>
    <RegionCode>R103</RegionCode>
    <NativeName>טמרה</NativeName>
    <ParentName>ישראל</ParentName>
    <Latitude>32.852247</Latitude>
    <Longitude>35.201315</Longitude>
  </City>
  <City>
    <RegionCode>3</RegionCode>
    <NativeName>טפחות</NativeName>
    <ParentName>ישראל</ParentName>
    <Latitude>32.868562</Latitude>
    <Longitude>35.422204</Longitude>
  </City>
  <City>
    <RegionCode>R103</RegionCode>
    <NativeName>יאנוח ג'ת</NativeName>
    <ParentName>ישראל</ParentName>
    <Latitude>32.981568</Latitude>
    <Longitude>35.241169</Longitude>
  </City>
  <City>
    <RegionCode>R102</RegionCode>
    <NativeName>יבול</NativeName>
    <ParentName>ישראל</ParentName>
    <Latitude>31.189458</Latitude>
    <Longitude>34.318952</Longitude>
  </City>
  <City>
    <Code>46</Code>
    <RegionCode>R103</RegionCode>
    <NativeName>יבנאל</NativeName>
    <ParentName>ישראל</ParentName>
    <Latitude>32.708765</Latitude>
    <Longitude>35.503778</Longitude>
  </City>
  <City>
    <Code>2660</Code>
    <RegionCode>8</RegionCode>
    <NativeName>יבנה</NativeName>
    <ParentName>ישראל</ParentName>
    <AlternateName>Yavne</AlternateName>
    <Latitude>31.877958</Latitude>
    <Longitude>34.739449</Longitude>
  </City>
  <City>
    <Code>96</Code>
    <RegionCode>R103</RegionCode>
    <NativeName>יגור</NativeName>
    <ParentName>ישראל</ParentName>
    <Latitude>32.741532</Latitude>
    <Longitude>35.076826</Longitude>
  </City>
  <City>
    <RegionCode>8</RegionCode>
    <NativeName>יגל</NativeName>
    <ParentName>ישראל</ParentName>
    <Latitude>31.987792</Latitude>
    <Longitude>34.880262</Longitude>
  </City>
  <City>
    <Code>577</Code>
    <RegionCode>8</RegionCode>
    <NativeName>יד בנימין</NativeName>
    <ParentName>ישראל</ParentName>
    <Latitude>31.796685</Latitude>
    <Longitude>34.820370</Longitude>
  </City>
  <City>
    <RegionCode>R101</RegionCode>
    <NativeName>יד השמונה</NativeName>
    <ParentName>ישראל</ParentName>
    <Latitude>31.809550</Latitude>
    <Longitude>35.089617</Longitude>
  </City>
  <City>
    <RegionCode>1</RegionCode>
    <NativeName>יד חנה</NativeName>
    <ParentName>ישראל</ParentName>
    <Latitude>32.325311</Latitude>
    <Longitude>35.006692</Longitude>
  </City>
  <City>
    <RegionCode>R102</RegionCode>
    <NativeName>יד מרדכי</NativeName>
    <ParentName>ישראל</ParentName>
    <Latitude>31.586963</Latitude>
    <Longitude>34.557500</Longitude>
  </City>
  <City>
    <RegionCode>8</RegionCode>
    <NativeName>יד נתן</NativeName>
    <ParentName>ישראל</ParentName>
    <Latitude>31.652961</Latitude>
    <Longitude>34.704874</Longitude>
  </City>
  <City>
    <RegionCode>8</RegionCode>
    <NativeName>יד רמב"ם</NativeName>
    <ParentName>ישראל</ParentName>
    <Latitude>31.899841</Latitude>
    <Longitude>34.900086</Longitude>
  </City>
  <City>
    <RegionCode>R101</RegionCode>
    <NativeName>ידידה</NativeName>
    <ParentName>ישראל</ParentName>
    <Latitude>31.812222</Latitude>
    <Longitude>35.104722</Longitude>
  </City>
  <City>
    <Code>0320203487</Code>
    <RegionCode>1</RegionCode>
    <NativeName>יהוד מונוסון</NativeName>
    <ParentName>ישראל</ParentName>
    <Latitude>32.029338</Latitude>
    <Longitude>34.879579</Longitude>
  </City>
  <City>
    <RegionCode>R102</RegionCode>
    <NativeName>יהל</NativeName>
    <ParentName>ישראל</ParentName>
    <Latitude>30.084234</Latitude>
    <Longitude>35.128393</Longitude>
  </City>
  <City>
    <RegionCode>3</RegionCode>
    <NativeName>יובל</NativeName>
    <ParentName>ישראל</ParentName>
    <Latitude>33.246577</Latitude>
    <Longitude>35.597063</Longitude>
  </City>
  <City>
    <RegionCode>R103</RegionCode>
    <NativeName>יובלים</NativeName>
    <ParentName>ישראל</ParentName>
    <Latitude>32.878163</Latitude>
    <Longitude>35.269294</Longitude>
  </City>
  <City>
    <RegionCode>R103</RegionCode>
    <NativeName>יודפת</NativeName>
    <ParentName>ישראל</ParentName>
    <Latitude>32.836596</Latitude>
    <Longitude>35.271481</Longitude>
  </City>
  <City>
    <RegionCode>R102</RegionCode>
    <NativeName>יוטבתה</NativeName>
    <ParentName>ישראל</ParentName>
    <Latitude>29.896322</Latitude>
    <Longitude>35.059227</Longitude>
  </City>
  <City>
    <RegionCode>R103</RegionCode>
    <NativeName>יוקנעם עילית</NativeName>
    <ParentName>ישראל</ParentName>
    <Latitude>32.660225</Latitude>
    <Longitude>35.104606</Longitude>
  </City>
  <City>
    <RegionCode>R102</RegionCode>
    <NativeName>יושיביה</NativeName>
    <ParentName>ישראל</ParentName>
    <Latitude>31.444699</Latitude>
    <Longitude>34.608784</Longitude>
  </City>
  <City>
    <RegionCode>R103</RegionCode>
    <NativeName>יזרעאל</NativeName>
    <ParentName>ישראל</ParentName>
    <Latitude>32.562589</Latitude>
    <Longitude>35.319425</Longitude>
  </City>
  <City>
    <RegionCode>R103</RegionCode>
    <NativeName>יחיעם</NativeName>
    <ParentName>ישראל</ParentName>
    <Latitude>32.996109</Latitude>
    <Longitude>35.221091</Longitude>
  </City>
  <City>
    <RegionCode>R102</RegionCode>
    <NativeName>יכיני</NativeName>
    <ParentName>ישראל</ParentName>
    <Latitude>31.482205</Latitude>
    <Longitude>34.598634</Longitude>
  </City>
  <City>
    <Code>753</Code>
    <RegionCode>1</RegionCode>
    <NativeName>ינוב</NativeName>
    <ParentName>ישראל</ParentName>
    <Latitude>32.307431</Latitude>
    <Longitude>34.951384</Longitude>
  </City>
  <City>
    <RegionCode>8</RegionCode>
    <NativeName>ינון</NativeName>
    <ParentName>ישראל</ParentName>
    <Latitude>31.741832</Latitude>
    <Longitude>34.780947</Longitude>
  </City>
  <City>
    <Code>29</Code>
    <RegionCode>3</RegionCode>
    <NativeName>יסוד המעלה</NativeName>
    <ParentName>ישראל</ParentName>
    <Latitude>33.053580</Latitude>
    <Longitude>35.589013</Longitude>
  </City>
  <City>
    <RegionCode>8</RegionCode>
    <NativeName>יסודות</NativeName>
    <ParentName>ישראל</ParentName>
    <Latitude>31.815835</Latitude>
    <Longitude>34.865636</Longitude>
  </City>
  <City>
    <RegionCode>R103</RegionCode>
    <NativeName>יסעור</NativeName>
    <ParentName>ישראל</ParentName>
    <Latitude>32.901145</Latitude>
    <Longitude>35.166641</Longitude>
  </City>
  <City>
    <RegionCode>R103</RegionCode>
    <NativeName>יעד</NativeName>
    <ParentName>ישראל</ParentName>
    <Latitude>32.881225</Latitude>
    <Longitude>35.240640</Longitude>
  </City>
  <City>
    <RegionCode>R103</RegionCode>
    <NativeName>יעל</NativeName>
    <ParentName>ישראל</ParentName>
    <Latitude>32.552064</Latitude>
    <Longitude>35.306548</Longitude>
  </City>
  <City>
    <RegionCode>1</RegionCode>
    <NativeName>יעף</NativeName>
    <ParentName>ישראל</ParentName>
    <Latitude>32.268254</Latitude>
    <Longitude>34.967425</Longitude>
  </City>
  <City>
    <RegionCode>R103</RegionCode>
    <NativeName>יערה</NativeName>
    <ParentName>ישראל</ParentName>
    <Latitude>33.068013</Latitude>
    <Longitude>35.186080</Longitude>
  </City>
  <City>
    <Code>499</Code>
    <RegionCode>R103</RegionCode>
    <NativeName>יפיע</NativeName>
    <ParentName>ישראל</ParentName>
    <Latitude>32.695002</Latitude>
    <Longitude>35.282010</Longitude>
  </City>
  <City>
    <RegionCode>R103</RegionCode>
    <NativeName>יפעת</NativeName>
    <ParentName>ישראל</ParentName>
    <Latitude>32.675853</Latitude>
    <Longitude>35.223982</Longitude>
  </City>
  <City>
    <RegionCode>3</RegionCode>
    <NativeName>יפתח</NativeName>
    <ParentName>ישראל</ParentName>
    <Latitude>33.128346</Latitude>
    <Longitude>35.552030</Longitude>
  </City>
  <City>
    <RegionCode>8</RegionCode>
    <NativeName>יציץ</NativeName>
    <ParentName>ישראל</ParentName>
    <Latitude>31.863226</Latitude>
    <Longitude>34.861903</Longitude>
  </City>
  <City>
    <RegionCode>1</RegionCode>
    <NativeName>יקום</NativeName>
    <ParentName>ישראל</ParentName>
    <Latitude>32.249196</Latitude>
    <Longitude>34.841903</Longitude>
  </City>
  <City>
    <RegionCode>3</RegionCode>
    <NativeName>יראון</NativeName>
    <ParentName>ישראל</ParentName>
    <Latitude>33.077239</Latitude>
    <Longitude>35.454291</Longitude>
  </City>
  <City>
    <RegionCode>R103</RegionCode>
    <NativeName>ירדנה</NativeName>
    <ParentName>ישראל</ParentName>
    <Latitude>32.565357</Latitude>
    <Longitude>35.565978</Longitude>
  </City>
  <City>
    <Code>831</Code>
    <RegionCode>R102</RegionCode>
    <NativeName>ירוחם</NativeName>
    <ParentName>ישראל</ParentName>
    <Latitude>30.987804</Latitude>
    <Longitude>34.929741</Longitude>
  </City>
  <City>
    <Code>3000</Code>
    <RegionCode>5</RegionCode>
    <NativeName>ירושלים</NativeName>
    <ParentName>ישראל</ParentName>
    <AlternateName>jerusalem</AlternateName>
    <Latitude>31.768319</Latitude>
    <Longitude>35.213710</Longitude>
  </City>
  <City>
    <RegionCode>1</RegionCode>
    <NativeName>ירחיב</NativeName>
    <ParentName>ישראל</ParentName>
    <Latitude>32.151536</Latitude>
    <Longitude>34.967992</Longitude>
  </City>
  <City>
    <RegionCode>R103</RegionCode>
    <NativeName>ירכא</NativeName>
    <ParentName>ישראל</ParentName>
    <Latitude>32.953492</Latitude>
    <Longitude>35.211990</Longitude>
  </City>
  <City>
    <Code>183</Code>
    <RegionCode>1</RegionCode>
    <NativeName>ירקונה</NativeName>
    <ParentName>ישראל</ParentName>
    <Latitude>32.144524</Latitude>
    <Longitude>34.897882</Longitude>
  </City>
  <City>
    <RegionCode>R102</RegionCode>
    <NativeName>ישע</NativeName>
    <ParentName>ישראל</ParentName>
    <Latitude>31.247595</Latitude>
    <Longitude>34.403091</Longitude>
  </City>
  <City>
    <RegionCode>8</RegionCode>
    <NativeName>ישעי</NativeName>
    <ParentName>ישראל</ParentName>
    <Latitude>31.752969</Latitude>
    <Longitude>34.962586</Longitude>
  </City>
  <City>
    <RegionCode>8</RegionCode>
    <NativeName>ישרש</NativeName>
    <ParentName>ישראל</ParentName>
    <Latitude>31.915667</Latitude>
    <Longitude>34.847337</Longitude>
  </City>
  <City>
    <RegionCode>R102</RegionCode>
    <NativeName>יתד</NativeName>
    <ParentName>ישראל</ParentName>
    <Latitude>31.207042</Latitude>
    <Longitude>34.326126</Longitude>
  </City>
  <City>
    <RegionCode>R103</RegionCode>
    <NativeName>כאבול</NativeName>
    <ParentName>ישראל</ParentName>
    <Latitude>32.867506</Latitude>
    <Longitude>35.213354</Longitude>
  </City>
  <City>
    <RegionCode>R103</RegionCode>
    <NativeName>כאוכב אבו אל היגא</NativeName>
    <ParentName>ישראל</ParentName>
    <Latitude>32.831888</Latitude>
    <Longitude>35.248701</Longitude>
  </City>
  <City>
    <RegionCode>R103</RegionCode>
    <NativeName>כברי</NativeName>
    <ParentName>ישראל</ParentName>
    <Latitude>33.020985</Latitude>
    <Longitude>35.147007</Longitude>
  </City>
  <City>
    <Code>1224</Code>
    <RegionCode>1</RegionCode>
    <NativeName>כוכב יאיר</NativeName>
    <ParentName>ישראל</ParentName>
    <Latitude>32.220922</Latitude>
    <Longitude>34.992405</Longitude>
  </City>
  <City>
    <Code>824</Code>
    <RegionCode>8</RegionCode>
    <NativeName>כוכב מיכאל</NativeName>
    <ParentName>ישראל</ParentName>
    <Latitude>31.631482</Latitude>
    <Longitude>34.667794</Longitude>
  </City>
  <City>
    <RegionCode>3</RegionCode>
    <NativeName>כורזים</NativeName>
    <ParentName>ישראל</ParentName>
    <Latitude>32.911372</Latitude>
    <Longitude>35.563776</Longitude>
  </City>
  <City>
    <RegionCode>3</RegionCode>
    <NativeName>כחל</NativeName>
    <ParentName>ישראל</ParentName>
    <Latitude>32.890465</Latitude>
    <Longitude>35.511572</Longitude>
  </City>
  <City>
    <RegionCode>R102</RegionCode>
    <NativeName>כיסופים</NativeName>
    <ParentName>ישראל</ParentName>
    <Latitude>31.374545</Latitude>
    <Longitude>34.398992</Longitude>
  </City>
  <City>
    <RegionCode>R103</RegionCode>
    <NativeName>כיסרא סומיע</NativeName>
    <ParentName>ישראל</ParentName>
    <Latitude>32.972320</Latitude>
    <Longitude>35.298528</Longitude>
  </City>
  <City>
    <RegionCode>R103</RegionCode>
    <NativeName>כישור</NativeName>
    <ParentName>ישראל</ParentName>
    <Latitude>32.946651</Latitude>
    <Longitude>35.250213</Longitude>
  </City>
  <City>
    <RegionCode>R103</RegionCode>
    <NativeName>כליל</NativeName>
    <ParentName>ישראל</ParentName>
    <Latitude>32.983567</Latitude>
    <Longitude>35.199672</Longitude>
  </City>
  <City>
    <RegionCode>3</RegionCode>
    <NativeName>כלנית</NativeName>
    <ParentName>ישראל</ParentName>
    <Latitude>32.875328</Latitude>
    <Longitude>35.453972</Longitude>
  </City>
  <City>
    <RegionCode>R103</RegionCode>
    <NativeName>כמאנה</NativeName>
    <ParentName>ישראל</ParentName>
    <Latitude>32.909311</Latitude>
    <Longitude>35.336928</Longitude>
  </City>
  <City>
    <RegionCode>R102</RegionCode>
    <NativeName>כמהין</NativeName>
    <ParentName>ישראל</ParentName>
    <Latitude>30.910327</Latitude>
    <Longitude>34.430725</Longitude>
  </City>
  <City>
    <RegionCode>R103</RegionCode>
    <NativeName>כמון</NativeName>
    <ParentName>ישראל</ParentName>
    <Latitude>32.909119</Latitude>
    <Longitude>35.360916</Longitude>
  </City>
  <City>
    <Code>1059</Code>
    <RegionCode>R102</RegionCode>
    <NativeName>כסיפה</NativeName>
    <ParentName>ישראל</ParentName>
    <Latitude>31.249246</Latitude>
    <Longitude>35.083681</Longitude>
  </City>
  <City>
    <RegionCode>R101</RegionCode>
    <NativeName>כסלון</NativeName>
    <ParentName>ישראל</ParentName>
    <Latitude>31.774262</Latitude>
    <Longitude>35.048171</Longitude>
  </City>
  <City>
    <RegionCode>R103</RegionCode>
    <NativeName>כעביה טבאש חג'אג'רה</NativeName>
    <ParentName>ישראל</ParentName>
    <Latitude>32.750389</Latitude>
    <Longitude>35.184000</Longitude>
  </City>
  <City>
    <RegionCode>8</RegionCode>
    <NativeName>כפר אביב</NativeName>
    <ParentName>ישראל</ParentName>
    <Latitude>31.831039</Latitude>
    <Longitude>34.722577</Longitude>
  </City>
  <City>
    <RegionCode>8</RegionCode>
    <NativeName>כפר אוריה</NativeName>
    <ParentName>ישראל</ParentName>
    <Latitude>31.793399</Latitude>
    <Longitude>34.944757</Longitude>
  </City>
  <City>
    <RegionCode>8</RegionCode>
    <NativeName>כפר אחים</NativeName>
    <ParentName>ישראל</ParentName>
    <Latitude>31.745864</Latitude>
    <Longitude>34.755932</Longitude>
  </City>
  <City>
    <RegionCode>R103</RegionCode>
    <NativeName>כפר ביאליק</NativeName>
    <ParentName>ישראל</ParentName>
    <Latitude>32.821376</Latitude>
    <Longitude>35.087749</Longitude>
  </City>
  <City>
    <Code>177</Code>
    <RegionCode>8</RegionCode>
    <NativeName>כפר ביל"ו</NativeName>
    <ParentName>ישראל</ParentName>
    <Latitude>31.870475</Latitude>
    <Longitude>34.826734</Longitude>
  </City>
  <City>
    <RegionCode>3</RegionCode>
    <NativeName>כפר בלום</NativeName>
    <ParentName>ישראל</ParentName>
    <Latitude>33.172527</Latitude>
    <Longitude>35.607938</Longitude>
  </City>
  <City>
    <RegionCode>8</RegionCode>
    <NativeName>כפר בן-נון</NativeName>
    <ParentName>ישראל</ParentName>
    <AlternateName>כפר בן נון</AlternateName>
    <Latitude>31.861679</Latitude>
    <Longitude>34.947191</Longitude>
  </City>
  <City>
    <RegionCode>1</RegionCode>
    <NativeName>כפר ברא</NativeName>
    <ParentName>ישראל</ParentName>
    <Latitude>32.130911</Latitude>
    <Longitude>34.970108</Longitude>
  </City>
  <City>
    <RegionCode>R103</RegionCode>
    <NativeName>כפר ברוך</NativeName>
    <ParentName>ישראל</ParentName>
    <Latitude>32.646048</Latitude>
    <Longitude>35.193078</Longitude>
  </City>
  <City>
    <RegionCode>R103</RegionCode>
    <NativeName>כפר גדעון</NativeName>
    <ParentName>ישראל</ParentName>
    <Latitude>32.644579</Latitude>
    <Longitude>35.289278</Longitude>
  </City>
  <City>
    <RegionCode>R103</RegionCode>
    <NativeName>כפר גלים</NativeName>
    <ParentName>ישראל</ParentName>
    <Latitude>32.766111</Latitude>
    <Longitude>34.959444</Longitude>
  </City>
  <City>
    <RegionCode>R103</RegionCode>
    <NativeName>כפר גליקסון</NativeName>
    <ParentName>ישראל</ParentName>
    <Latitude>32.505824</Latitude>
    <Longitude>35.003540</Longitude>
  </City>
  <City>
    <RegionCode>3</RegionCode>
    <NativeName>כפר גלעדי</NativeName>
    <ParentName>ישראל</ParentName>
    <Latitude>33.242078</Latitude>
    <Longitude>35.574142</Longitude>
  </City>
  <City>
    <RegionCode>8</RegionCode>
    <NativeName>כפר דניאל</NativeName>
    <ParentName>ישראל</ParentName>
    <Latitude>31.933521</Latitude>
    <Longitude>34.932306</Longitude>
  </City>
  <City>
    <Code>3796</Code>
    <RegionCode>R101</RegionCode>
    <NativeName>כפר האורנים</NativeName>
    <ParentName>ישראל</ParentName>
    <Latitude>31.919928</Latitude>
    <Longitude>35.036911</Longitude>
  </City>
  <City>
    <RegionCode>R103</RegionCode>
    <NativeName>כפר החורש</NativeName>
    <ParentName>ישראל</ParentName>
    <Latitude>32.701549</Latitude>
    <Longitude>35.272956</Longitude>
  </City>
  <City>
    <RegionCode>R103</RegionCode>
    <NativeName>כפר המכבי</NativeName>
    <ParentName>ישראל</ParentName>
    <Latitude>32.791804</Latitude>
    <Longitude>35.114793</Longitude>
  </City>
  <City>
    <RegionCode>8</RegionCode>
    <NativeName>כפר הנגיד</NativeName>
    <ParentName>ישראל</ParentName>
    <Latitude>31.887134</Latitude>
    <Longitude>34.748725</Longitude>
  </City>
  <City>
    <RegionCode>R103</RegionCode>
    <NativeName>כפר הנוער הדתי</NativeName>
    <ParentName>ישראל</ParentName>
    <Latitude>32.742897</Latitude>
    <Longitude>35.096150</Longitude>
  </City>
  <City>
    <RegionCode>3</RegionCode>
    <NativeName>כפר הנשיא</NativeName>
    <ParentName>ישראל</ParentName>
    <Latitude>32.974660</Latitude>
    <Longitude>35.602308</Longitude>
  </City>
  <City>
    <RegionCode>1</RegionCode>
    <NativeName>כפר הס</NativeName>
    <ParentName>ישראל</ParentName>
    <Latitude>32.247721</Latitude>
    <Longitude>34.935137</Longitude>
  </City>
  <City>
    <RegionCode>1</RegionCode>
    <NativeName>כפר הרא"ה</NativeName>
    <ParentName>ישראל</ParentName>
    <Latitude>32.391037</Latitude>
    <Longitude>34.910917</Longitude>
  </City>
  <City>
    <RegionCode>8</RegionCode>
    <NativeName>כפר הרי"ף</NativeName>
    <ParentName>ישראל</ParentName>
    <Latitude>31.747029</Latitude>
    <Longitude>34.790928</Longitude>
  </City>
  <City>
    <Code>190</Code>
    <RegionCode>1</RegionCode>
    <NativeName>כפר ויתקין</NativeName>
    <ParentName>ישראל</ParentName>
    <Latitude>32.380541</Latitude>
    <Longitude>34.875308</Longitude>
  </City>
  <City>
    <Code>320</Code>
    <RegionCode>8</RegionCode>
    <NativeName>כפר ורבורג</NativeName>
    <ParentName>ישראל</ParentName>
    <Latitude>31.718747</Latitude>
    <Longitude>34.728680</Longitude>
  </City>
  <City>
    <Code>1263</Code>
    <RegionCode>R103</RegionCode>
    <NativeName>כפר ורדים</NativeName>
    <ParentName>ישראל</ParentName>
    <Latitude>32.995088</Latitude>
    <Longitude>35.269101</Longitude>
  </City>
  <City>
    <RegionCode>R101</RegionCode>
    <NativeName>כפר זוהרים</NativeName>
    <ParentName>ישראל</ParentName>
    <Latitude>31.622500</Latitude>
    <Longitude>34.925556</Longitude>
  </City>
  <City>
    <RegionCode>3</RegionCode>
    <NativeName>כפר זיתים</NativeName>
    <ParentName>ישראל</ParentName>
    <Latitude>32.811614</Latitude>
    <Longitude>35.465165</Longitude>
  </City>
  <City>
    <RegionCode>8</RegionCode>
    <NativeName>כפר חב"ד</NativeName>
    <ParentName>ישראל</ParentName>
    <Latitude>31.990144</Latitude>
    <Longitude>34.849103</Longitude>
  </City>
  <City>
    <RegionCode>3</RegionCode>
    <NativeName>כפר חושן</NativeName>
    <ParentName>ישראל</ParentName>
    <Latitude>33.012331</Latitude>
    <Longitude>35.441489</Longitude>
  </City>
  <City>
    <RegionCode>3</RegionCode>
    <NativeName>כפר חיטים</NativeName>
    <ParentName>ישראל</ParentName>
    <Latitude>32.799998</Latitude>
    <Longitude>35.503280</Longitude>
  </City>
  <City>
    <RegionCode>1</RegionCode>
    <NativeName>כפר חיים</NativeName>
    <ParentName>ישראל</ParentName>
    <Latitude>32.353857</Latitude>
    <Longitude>34.900709</Longitude>
  </City>
  <City>
    <RegionCode>3</RegionCode>
    <NativeName>כפר חנניה</NativeName>
    <ParentName>ישראל</ParentName>
    <Latitude>32.915993</Latitude>
    <Longitude>35.423785</Longitude>
  </City>
  <City>
    <Code>112</Code>
    <RegionCode>R103</RegionCode>
    <NativeName>כפר חסידים א'</NativeName>
    <ParentName>ישראל</ParentName>
    <Latitude>32.752262</Latitude>
    <Longitude>35.094212</Longitude>
  </City>
  <City>
    <RegionCode>R103</RegionCode>
    <NativeName>כפר חסידים ב'</NativeName>
    <ParentName>ישראל</ParentName>
    <Latitude>32.750515</Latitude>
    <Longitude>35.088281</Longitude>
  </City>
  <City>
    <Code>673</Code>
    <RegionCode>8</RegionCode>
    <NativeName>כפר טרומן</NativeName>
    <ParentName>ישראל</ParentName>
    <Latitude>31.980493</Latitude>
    <Longitude>34.927696</Longitude>
  </City>
  <City>
    <RegionCode>R103</RegionCode>
    <NativeName>כפר יאסיף</NativeName>
    <ParentName>ישראל</ParentName>
    <Latitude>32.956362</Latitude>
    <Longitude>35.165465</Longitude>
  </City>
  <City>
    <Code>233</Code>
    <RegionCode>1</RegionCode>
    <NativeName>כפר ידידיה</NativeName>
    <ParentName>ישראל</ParentName>
    <Latitude>32.344902</Latitude>
    <Longitude>34.899038</Longitude>
  </City>
  <City>
    <RegionCode>R103</RegionCode>
    <NativeName>כפר יהושע</NativeName>
    <ParentName>ישראל</ParentName>
    <AlternateName>כפר יהושוע</AlternateName>
    <Latitude>32.681639</Latitude>
    <Longitude>35.151976</Longitude>
  </City>
  <City>
    <Code>168</Code>
    <RegionCode>1</RegionCode>
    <NativeName>כפר יונה</NativeName>
    <ParentName>ישראל</ParentName>
    <AlternateName>Kfar Yona</AlternateName>
    <Latitude>32.317719</Latitude>
    <Longitude>34.933615</Longitude>
  </City>
  <City>
    <RegionCode>R103</RegionCode>
    <NativeName>כפר יחזקאל</NativeName>
    <ParentName>ישראל</ParentName>
    <Latitude>32.566949</Latitude>
    <Longitude>35.360888</Longitude>
  </City>
  <City>
    <RegionCode>1</RegionCode>
    <NativeName>כפר יעבץ</NativeName>
    <ParentName>ישראל</ParentName>
    <Latitude>32.273945</Latitude>
    <Longitude>34.965463</Longitude>
  </City>
  <City>
    <RegionCode>R103</RegionCode>
    <NativeName>כפר כמא</NativeName>
    <ParentName>ישראל</ParentName>
    <Latitude>32.721105</Latitude>
    <Longitude>35.442834</Longitude>
  </City>
  <City>
    <Code>509</Code>
    <RegionCode>R103</RegionCode>
    <NativeName>כפר כנא</NativeName>
    <ParentName>ישראל</ParentName>
    <Latitude>32.744999</Latitude>
    <Longitude>35.339758</Longitude>
  </City>
  <City>
    <RegionCode>1</RegionCode>
    <NativeName>כפר מונש</NativeName>
    <ParentName>ישראל</ParentName>
    <Latitude>32.345607</Latitude>
    <Longitude>34.916426</Longitude>
  </City>
  <City>
    <RegionCode>R102</RegionCode>
    <NativeName>כפר מימון</NativeName>
    <ParentName>ישראל</ParentName>
    <Latitude>31.431401</Latitude>
    <Longitude>34.537180</Longitude>
  </City>
  <City>
    <RegionCode>R103</RegionCode>
    <NativeName>כפר מיסר</NativeName>
    <ParentName>ישראל</ParentName>
    <Latitude>32.647371</Latitude>
    <Longitude>35.421551</Longitude>
  </City>
  <City>
    <RegionCode>1</RegionCode>
    <NativeName>כפר מל"ל</NativeName>
    <ParentName>ישראל</ParentName>
    <Latitude>32.167567</Latitude>
    <Longitude>34.894744</Longitude>
  </City>
  <City>
    <Code>510</Code>
    <RegionCode>R103</RegionCode>
    <NativeName>כפר מנדא</NativeName>
    <ParentName>ישראל</ParentName>
    <Latitude>32.812360</Latitude>
    <Longitude>35.258613</Longitude>
  </City>
  <City>
    <RegionCode>8</RegionCode>
    <NativeName>כפר מנחם</NativeName>
    <ParentName>ישראל</ParentName>
    <Latitude>31.732077</Latitude>
    <Longitude>34.835079</Longitude>
  </City>
  <City>
    <RegionCode>R103</RegionCode>
    <NativeName>כפר מסריק</NativeName>
    <ParentName>ישראל</ParentName>
    <Latitude>32.891218</Latitude>
    <Longitude>35.098414</Longitude>
  </City>
  <City>
    <RegionCode>1</RegionCode>
    <NativeName>כפר מעש</NativeName>
    <ParentName>ישראל</ParentName>
    <Latitude>32.063511</Latitude>
    <Longitude>34.892639</Longitude>
  </City>
  <City>
    <Code>764</Code>
    <RegionCode>8</RegionCode>
    <NativeName>כפר מרדכי</NativeName>
    <ParentName>ישראל</ParentName>
    <Latitude>31.831504</Latitude>
    <Longitude>34.756643</Longitude>
  </City>
  <City>
    <RegionCode>1</RegionCode>
    <NativeName>כפר נטר</NativeName>
    <ParentName>ישראל</ParentName>
    <Latitude>32.271928</Latitude>
    <Longitude>34.871979</Longitude>
  </City>
  <City>
    <RegionCode>3</RegionCode>
    <NativeName>כפר סאלד</NativeName>
    <ParentName>ישראל</ParentName>
    <Latitude>33.196035</Latitude>
    <Longitude>35.657993</Longitude>
  </City>
  <City>
    <Code>6900</Code>
    <RegionCode>1</RegionCode>
    <NativeName>כפר סבא</NativeName>
    <ParentName>ישראל</ParentName>
    <AlternateName>Kefar Saba</AlternateName>
    <AlternateName>Kefar Sava</AlternateName>
    <Latitude>32.178195</Latitude>
    <Longitude>34.907610</Longitude>
  </City>
  <City>
    <RegionCode>8</RegionCode>
    <NativeName>כפר סילבר</NativeName>
    <ParentName>ישראל</ParentName>
    <Latitude>31.675556</Latitude>
    <Longitude>34.612222</Longitude>
  </City>
  <City>
    <RegionCode>1</RegionCode>
    <NativeName>כפר סירקין</NativeName>
    <ParentName>ישראל</ParentName>
    <Latitude>32.076684</Latitude>
    <Longitude>34.922763</Longitude>
  </City>
  <City>
    <RegionCode>1</RegionCode>
    <NativeName>כפר עבודה</NativeName>
    <ParentName>ישראל</ParentName>
    <Latitude>32.255833</Latitude>
    <Longitude>34.939722</Longitude>
  </City>
  <City>
    <RegionCode>R102</RegionCode>
    <NativeName>כפר עזה</NativeName>
    <ParentName>ישראל</ParentName>
    <Latitude>31.483416</Latitude>
    <Longitude>34.532291</Longitude>
  </City>
  <City>
    <RegionCode>R103</RegionCode>
    <NativeName>כפר פינס</NativeName>
    <ParentName>ישראל</ParentName>
    <Latitude>32.482717</Latitude>
    <Longitude>35.002063</Longitude>
  </City>
  <City>
    <Code>634</Code>
    <RegionCode>1</RegionCode>
