<?xml version="1.0" encoding="UTF-8"?><LocationData>
  <Street>
    <NativeName>אלה</NativeName>
    <ParentName>עשרת, ישראל</ParentName>
    <Latitude>31.822283</Latitude>
    <Longitude>34.747191</Longitude>
  </Street>
  <Street>
    <NativeName>ברקן</NativeName>
    <ParentName>עשרת, ישראל</ParentName>
    <Latitude>31.822484</Latitude>
    <Longitude>34.747268</Longitude>
  </Street>
  <Street>
    <NativeName>גומא</NativeName>
    <ParentName>עשרת, ישראל</ParentName>
    <Latitude>31.822704</Latitude>
    <Longitude>34.747257</Longitude>
  </Street>
  <Street>
    <NativeName>דולב</NativeName>
    <ParentName>עשרת, ישראל</ParentName>
    <Latitude>31.822756</Latitude>
    <Longitude>34.747313</Longitude>
  </Street>
  <Street>
    <NativeName>האגוז</NativeName>
    <ParentName>עשרת, ישראל</ParentName>
    <Latitude>31.821875</Latitude>
    <Longitude>34.747403</Longitude>
  </Street>
  <Street>
    <NativeName>האורן</NativeName>
    <ParentName>עשרת, ישראל</ParentName>
    <Latitude>31.824820</Latitude>
    <Longitude>34.744925</Longitude>
  </Street>
  <Street>
    <NativeName>האלון</NativeName>
    <ParentName>עשרת, ישראל</ParentName>
    <Latitude>31.821733</Latitude>
    <Longitude>34.746292</Longitude>
  </Street>
  <Street>
    <NativeName>האשל</NativeName>
    <ParentName>עשרת, ישראל</ParentName>
    <Latitude>31.823627</Latitude>
    <Longitude>34.747645</Longitude>
  </Street>
  <Street>
    <NativeName>הגפן</NativeName>
    <ParentName>עשרת, ישראל</ParentName>
    <Latitude>31.826888</Latitude>
    <Longitude>34.744808</Longitude>
  </Street>
  <Street>
    <NativeName>הדקל</NativeName>
    <ParentName>עשרת, ישראל</ParentName>
    <Latitude>31.823759</Latitude>
    <Longitude>34.748984</Longitude>
  </Street>
  <Street>
    <NativeName>הזית</NativeName>
    <ParentName>עשרת, ישראל</ParentName>
    <Latitude>31.821159</Latitude>
    <Longitude>34.747811</Longitude>
  </Street>
  <Street>
    <NativeName>החרוב</NativeName>
    <ParentName>עשרת, ישראל</ParentName>
    <Latitude>31.823516</Latitude>
    <Longitude>34.744625</Longitude>
  </Street>
  <Street>
    <NativeName>הפרדס</NativeName>
    <ParentName>עשרת, ישראל</ParentName>
    <Latitude>31.820581</Latitude>
    <Longitude>34.746578</Longitude>
  </Street>
  <Street>
    <NativeName>הרימון</NativeName>
    <ParentName>עשרת, ישראל</ParentName>
    <Latitude>31.824681</Latitude>
    <Longitude>34.746098</Longitude>
  </Street>
  <Street>
    <NativeName>השיקמה</NativeName>
    <ParentName>עשרת, ישראל</ParentName>
    <Latitude>31.826749</Latitude>
    <Longitude>34.747902</Longitude>
  </Street>
  <Street>
    <NativeName>השקד</NativeName>
    <ParentName>עשרת, ישראל</ParentName>
    <Latitude>31.825836</Latitude>
    <Longitude>34.749199</Longitude>
  </Street>
  <Street>
    <NativeName>התמר</NativeName>
    <ParentName>עשרת, ישראל</ParentName>
    <Latitude>31.821341</Latitude>
    <Longitude>34.747159</Longitude>
  </Street>
  <Street>
    <NativeName>ריזה</NativeName>
    <ParentName>עשרת, ישראל</ParentName>
    <Latitude>31.824677</Latitude>
    <Longitude>34.742503</Longitude>
  </Street>
</LocationData>
