<?xml version="1.0" encoding="UTF-8"?><LocationData>
  <Street>
    <NativeName>א דוור אל אוול</NativeName>
    <ParentName>ירושלים, ישראל</ParentName>
    <Latitude>31.745174</Latitude>
    <Longitude>35.205232</Longitude>
  </Street>
  <Street>
    <NativeName>א טברי</NativeName>
    <ParentName>ירושלים, ישראל</ParentName>
    <Latitude>31.790554</Latitude>
    <Longitude>35.237353</Longitude>
  </Street>
  <CityRegion>
    <NativeName>א טור</NativeName>
    <ParentName>ירושלים, ישראל</ParentName>
    <Latitude>31.779547</Latitude>
    <Longitude>35.246521</Longitude>
  </CityRegion>
  <Street>
    <NativeName>א טור</NativeName>
    <ParentName>ירושלים, ישראל</ParentName>
    <Latitude>31.796712</Latitude>
    <Longitude>35.247383</Longitude>
  </Street>
  <Street>
    <NativeName>א נהדה</NativeName>
    <ParentName>ירושלים, ישראל</ParentName>
    <Latitude>31.744633</Latitude>
    <Longitude>35.203910</Longitude>
  </Street>
  <Street>
    <NativeName>א נח'יל</NativeName>
    <ParentName>ירושלים, ישראל</ParentName>
    <Latitude>31.833244</Latitude>
    <Longitude>35.226993</Longitude>
  </Street>
  <Street>
    <NativeName>א סאפא</NativeName>
    <ParentName>ירושלים, ישראל</ParentName>
    <Latitude>31.739921</Latitude>
    <Longitude>35.201310</Longitude>
  </Street>
  <Street>
    <NativeName>א סהל</NativeName>
    <ParentName>ירושלים, ישראל</ParentName>
    <Latitude>31.815153</Latitude>
    <Longitude>35.226553</Longitude>
  </Street>
  <CityRegion>
    <NativeName>א סוואנה</NativeName>
    <ParentName>ירושלים, ישראל</ParentName>
    <Latitude>31.783963</Latitude>
    <Longitude>35.240684</Longitude>
  </CityRegion>
  <Street>
    <NativeName>א סידה</NativeName>
    <ParentName>ירושלים, ישראל</ParentName>
    <Latitude>31.779296</Latitude>
    <Longitude>35.229473</Longitude>
  </Street>
  <Street>
    <NativeName>א רחמה</NativeName>
    <ParentName>ירושלים, ישראל</ParentName>
    <Latitude>31.745640</Latitude>
    <Longitude>35.200047</Longitude>
  </Street>
  <Street>
    <NativeName>א שאבי</NativeName>
    <ParentName>ירושלים, ישראל</ParentName>
    <Latitude>31.817717</Latitude>
    <Longitude>35.229254</Longitude>
  </Street>
  <CityRegion>
    <NativeName>א שייח'</NativeName>
    <ParentName>ירושלים, ישראל</ParentName>
    <Latitude>31.776495</Latitude>
    <Longitude>35.248680</Longitude>
  </CityRegion>
  <Street>
    <NativeName>א שייח'</NativeName>
    <ParentName>ירושלים, ישראל</ParentName>
    <Latitude>31.773550</Latitude>
    <Longitude>35.250957</Longitude>
  </Street>
  <Street>
    <NativeName>א.ד. גורדון</NativeName>
    <ParentName>ירושלים, ישראל</ParentName>
    <AlternateName>גורדון</AlternateName>
    <Latitude>31.766642</Latitude>
    <Longitude>35.177259</Longitude>
  </Street>
  <Street>
    <NativeName>א.י. שחראי</NativeName>
    <ParentName>ירושלים, ישראל</ParentName>
    <Latitude>31.770171</Latitude>
    <Longitude>35.186455</Longitude>
  </Street>
  <Street>
    <NativeName>א.מ. ברכיהו</NativeName>
    <ParentName>ירושלים, ישראל</ParentName>
    <Latitude>31.776989</Latitude>
    <Longitude>35.188845</Longitude>
  </Street>
  <Street>
    <NativeName>א.מ. שמורק</NativeName>
    <ParentName>ירושלים, ישראל</ParentName>
    <Latitude>31.766008</Latitude>
    <Longitude>35.176466</Longitude>
  </Street>
  <Street>
    <NativeName>א.ש. הרטום</NativeName>
    <ParentName>ירושלים, ישראל</ParentName>
    <Latitude>31.802887</Latitude>
    <Longitude>35.211200</Longitude>
  </Street>
  <Street>
    <NativeName>אבא אחימאיר</NativeName>
    <ParentName>ירושלים, ישראל</ParentName>
    <AlternateName>אחימאיר</AlternateName>
    <Latitude>31.837330</Latitude>
    <Longitude>35.235704</Longitude>
  </Street>
  <Street>
    <NativeName>אבא ברדיצ'ב</NativeName>
    <ParentName>ירושלים, ישראל</ParentName>
    <Latitude>31.805974</Latitude>
    <Longitude>35.241167</Longitude>
  </Street>
  <Street>
    <NativeName>אבא הלל סילבר</NativeName>
    <ParentName>ירושלים, ישראל</ParentName>
    <Latitude>31.814789</Latitude>
    <Longitude>35.203664</Longitude>
  </Street>
  <Street>
    <NativeName>אבא חילקיה</NativeName>
    <ParentName>ירושלים, ישראל</ParentName>
    <Latitude>31.759947</Latitude>
    <Longitude>35.209599</Longitude>
  </Street>
  <Street>
    <NativeName>אבו בכר א סדיק</NativeName>
    <ParentName>ירושלים, ישראל</ParentName>
    <Latitude>31.791841</Latitude>
    <Longitude>35.233367</Longitude>
  </Street>
  <Street>
    <NativeName>אבו חניפה</NativeName>
    <ParentName>ירושלים, ישראל</ParentName>
    <Latitude>31.786860</Latitude>
    <Longitude>35.238081</Longitude>
  </Street>
  <Street>
    <NativeName>אבו מאדי</NativeName>
    <ParentName>ירושלים, ישראל</ParentName>
    <Latitude>31.838448</Latitude>
    <Longitude>35.226257</Longitude>
  </Street>
  <Street>
    <NativeName>אבו עובידה אבן אל ג'ארח</NativeName>
    <ParentName>ירושלים, ישראל</ParentName>
    <Latitude>31.789425</Latitude>
    <Longitude>35.230798</Longitude>
  </Street>
  <Street>
    <NativeName>אבו רביע</NativeName>
    <ParentName>ירושלים, ישראל</ParentName>
    <Latitude>31.747731</Latitude>
    <Longitude>35.239293</Longitude>
  </Street>
  <CityRegion>
    <NativeName>אבו תור</NativeName>
    <ParentName>ירושלים, ישראל</ParentName>
    <Latitude>31.764109</Latitude>
    <Longitude>35.232050</Longitude>
  </CityRegion>
  <Street>
    <NativeName>אבו תור</NativeName>
    <ParentName>ירושלים, ישראל</ParentName>
    <Latitude>31.764651</Latitude>
    <Longitude>35.229951</Longitude>
  </Street>
  <Street>
    <NativeName>אבו תמאם</NativeName>
    <ParentName>ירושלים, ישראל</ParentName>
    <Latitude>31.832414</Latitude>
    <Longitude>35.227629</Longitude>
  </Street>
  <Street>
    <NativeName>אבטליון</NativeName>
    <ParentName>ירושלים, ישראל</ParentName>
    <Latitude>31.759915</Latitude>
    <Longitude>35.222777</Longitude>
  </Street>
  <Street>
    <NativeName>אביגדורי</NativeName>
    <ParentName>ירושלים, ישראל</ParentName>
    <Latitude>31.785468</Latitude>
    <Longitude>35.219421</Longitude>
  </Street>
  <Street>
    <NativeName>אביגיל</NativeName>
    <ParentName>ירושלים, ישראל</ParentName>
    <Latitude>31.765068</Latitude>
    <Longitude>35.227471</Longitude>
  </Street>
  <Street>
    <NativeName>אביזוהר</NativeName>
    <ParentName>ירושלים, ישראל</ParentName>
    <Latitude>31.775032</Latitude>
    <Longitude>35.187741</Longitude>
  </Street>
  <Street>
    <NativeName>אביטל</NativeName>
    <ParentName>ירושלים, ישראל</ParentName>
    <Latitude>31.751356</Latitude>
    <Longitude>35.211242</Longitude>
  </Street>
  <Street>
    <NativeName>אבינדב</NativeName>
    <ParentName>ירושלים, ישראל</ParentName>
    <Latitude>31.794000</Latitude>
    <Longitude>35.219975</Longitude>
  </Street>
  <Street>
    <NativeName>אבינועם ילין</NativeName>
    <ParentName>ירושלים, ישראל</ParentName>
    <Latitude>31.789578</Latitude>
    <Longitude>35.220128</Longitude>
  </Street>
  <Street>
    <NativeName>אביעד</NativeName>
    <ParentName>ירושלים, ישראל</ParentName>
    <Latitude>31.762505</Latitude>
    <Longitude>35.197123</Longitude>
  </Street>
  <Street>
    <NativeName>אביר יעקב</NativeName>
    <ParentName>ירושלים, ישראל</ParentName>
    <Latitude>31.840232</Latitude>
    <Longitude>35.249997</Longitude>
  </Street>
  <Street>
    <NativeName>אבישי</NativeName>
    <ParentName>ירושלים, ישראל</ParentName>
    <Latitude>31.761929</Latitude>
    <Longitude>35.217402</Longitude>
  </Street>
  <Street>
    <NativeName>אבישר</NativeName>
    <ParentName>ירושלים, ישראל</ParentName>
    <Latitude>31.785711</Latitude>
    <Longitude>35.211116</Longitude>
  </Street>
  <Street>
    <NativeName>אביתר הכהן</NativeName>
    <ParentName>ירושלים, ישראל</ParentName>
    <Latitude>31.794310</Latitude>
    <Longitude>35.218079</Longitude>
  </Street>
  <Street>
    <NativeName>אבל פן</NativeName>
    <ParentName>ירושלים, ישראל</ParentName>
    <Latitude>31.759905</Latitude>
    <Longitude>35.182290</Longitude>
  </Street>
  <Street>
    <NativeName>אבן בטוטה</NativeName>
    <ParentName>ירושלים, ישראל</ParentName>
    <Latitude>31.786784</Latitude>
    <Longitude>35.233107</Longitude>
  </Street>
  <Street>
    <NativeName>אבן ג'ובייר</NativeName>
    <ParentName>ירושלים, ישראל</ParentName>
    <Latitude>31.790864</Latitude>
    <Longitude>35.230061</Longitude>
  </Street>
  <Street>
    <NativeName>אבן ג'ראח</NativeName>
    <ParentName>ירושלים, ישראל</ParentName>
    <Latitude>31.781737</Latitude>
    <Longitude>35.231659</Longitude>
  </Street>
  <Street>
    <NativeName>אבן גבירול</NativeName>
    <ParentName>ירושלים, ישראל</ParentName>
    <Latitude>31.775834</Latitude>
    <Longitude>35.215113</Longitude>
  </Street>
  <Street>
    <NativeName>אבן האזל</NativeName>
    <ParentName>ירושלים, ישראל</ParentName>
    <Latitude>31.796166</Latitude>
    <Longitude>35.213375</Longitude>
  </Street>
  <Street>
    <NativeName>אבן ח'לדון</NativeName>
    <ParentName>ירושלים, ישראל</ParentName>
    <Latitude>31.787301</Latitude>
    <Longitude>35.231616</Longitude>
  </Street>
  <Street>
    <NativeName>אבן טולון</NativeName>
    <ParentName>ירושלים, ישראל</ParentName>
    <Latitude>31.789585</Latitude>
    <Longitude>35.236837</Longitude>
  </Street>
  <Street>
    <NativeName>אבן יהושע</NativeName>
    <ParentName>ירושלים, ישראל</ParentName>
    <AlternateName>אבן יהושוע</AlternateName>
    <Latitude>31.787179</Latitude>
    <Longitude>35.220006</Longitude>
  </Street>
  <Street>
    <NativeName>אבן ישראל</NativeName>
    <ParentName>ירושלים, ישראל</ParentName>
    <Latitude>31.783289</Latitude>
    <Longitude>35.217214</Longitude>
  </Street>
  <Street>
    <NativeName>אבן סינא</NativeName>
    <ParentName>ירושלים, ישראל</ParentName>
    <Latitude>31.783954</Latitude>
    <Longitude>35.233248</Longitude>
  </Street>
  <Street>
    <NativeName>אבן ספיר</NativeName>
    <ParentName>ירושלים, ישראל</ParentName>
    <Latitude>31.780323</Latitude>
    <Longitude>35.211117</Longitude>
  </Street>
  <Street>
    <NativeName>אבן עזרא</NativeName>
    <ParentName>ירושלים, ישראל</ParentName>
    <Latitude>31.775199</Latitude>
    <Longitude>35.213865</Longitude>
  </Street>
  <Street>
    <NativeName>אבן רושד</NativeName>
    <ParentName>ירושלים, ישראל</ParentName>
    <Latitude>31.811364</Latitude>
    <Longitude>35.236890</Longitude>
  </Street>
  <Street>
    <NativeName>אבן שמואל</NativeName>
    <ParentName>ירושלים, ישראל</ParentName>
    <Latitude>31.809997</Latitude>
    <Longitude>35.195002</Longitude>
  </Street>
  <Street>
    <NativeName>אבן שפרוט</NativeName>
    <ParentName>ירושלים, ישראל</ParentName>
    <Latitude>31.775594</Latitude>
    <Longitude>35.211418</Longitude>
  </Street>
  <Street>
    <NativeName>אבנר בן נר</NativeName>
    <ParentName>ירושלים, ישראל</ParentName>
    <Latitude>31.762611</Latitude>
    <Longitude>35.216298</Longitude>
  </Street>
  <Street>
    <NativeName>אברבנאל</NativeName>
    <ParentName>ירושלים, ישראל</ParentName>
    <Latitude>31.775199</Latitude>
    <Longitude>35.213865</Longitude>
  </Street>
  <Street>
    <NativeName>אברהם אגמון</NativeName>
    <ParentName>ירושלים, ישראל</ParentName>
    <Latitude>31.770906</Latitude>
    <Longitude>35.182499</Longitude>
  </Street>
  <Street>
    <NativeName>אברהם אוליצור</NativeName>
    <ParentName>ירושלים, ישראל</ParentName>
    <Latitude>31.748017</Latitude>
    <Longitude>35.222755</Longitude>
  </Street>
  <Street>
    <NativeName>אברהם אידלזון</NativeName>
    <ParentName>ירושלים, ישראל</ParentName>
    <Latitude>31.819970</Latitude>
    <Longitude>35.189336</Longitude>
  </Street>
  <Street>
    <NativeName>אברהם אלמליח</NativeName>
    <ParentName>ירושלים, ישראל</ParentName>
    <Latitude>31.754404</Latitude>
    <Longitude>35.191712</Longitude>
  </Street>
  <Street>
    <NativeName>אברהם ארסט</NativeName>
    <ParentName>ירושלים, ישראל</ParentName>
    <Latitude>31.751533</Latitude>
    <Longitude>35.201017</Longitude>
  </Street>
  <Street>
    <NativeName>אברהם גרנות</NativeName>
    <ParentName>ירושלים, ישראל</ParentName>
    <Latitude>31.770119</Latitude>
    <Longitude>35.204213</Longitude>
  </Street>
  <Street>
    <NativeName>אברהם דוד ליכטמן</NativeName>
    <ParentName>ירושלים, ישראל</ParentName>
    <AlternateName>אברהם דויד ליכטמן</AlternateName>
    <Latitude>31.822825</Latitude>
    <Longitude>35.236442</Longitude>
  </Street>
  <Street>
    <NativeName>אברהם חסידוף</NativeName>
    <ParentName>ירושלים, ישראל</ParentName>
    <Latitude>31.748070</Latitude>
    <Longitude>35.172661</Longitude>
  </Street>
  <Street>
    <NativeName>אברהם יערי</NativeName>
    <ParentName>ירושלים, ישראל</ParentName>
    <Latitude>31.734226</Latitude>
    <Longitude>35.195376</Longitude>
  </Street>
  <Street>
    <NativeName>אברהם לינקולן</NativeName>
    <ParentName>ירושלים, ישראל</ParentName>
    <AlternateName>לינקולן</AlternateName>
    <Latitude>31.774951</Latitude>
    <Longitude>35.220069</Longitude>
  </Street>
  <Street>
    <NativeName>אברהם מאפו</NativeName>
    <ParentName>ירושלים, ישראל</ParentName>
    <Latitude>31.772842</Latitude>
    <Longitude>35.222020</Longitude>
  </Street>
  <Street>
    <NativeName>אברהם מסלונים</NativeName>
    <ParentName>ירושלים, ישראל</ParentName>
    <Latitude>31.786209</Latitude>
    <Longitude>35.222346</Longitude>
  </Street>
  <Street>
    <NativeName>אברהם ניסן</NativeName>
    <ParentName>ירושלים, ישראל</ParentName>
    <Latitude>31.759114</Latitude>
    <Longitude>35.175657</Longitude>
  </Street>
  <Street>
    <NativeName>אברהם פררה</NativeName>
    <ParentName>ירושלים, ישראל</ParentName>
    <Latitude>31.756972</Latitude>
    <Longitude>35.188120</Longitude>
  </Street>
  <Street>
    <NativeName>אברהם רפול הררי</NativeName>
    <ParentName>ירושלים, ישראל</ParentName>
    <Latitude>31.821193</Latitude>
    <Longitude>35.256427</Longitude>
  </Street>
  <Street>
    <NativeName>אברהם רקנאטי</NativeName>
    <ParentName>ירושלים, ישראל</ParentName>
    <Latitude>31.817658</Latitude>
    <Longitude>35.190750</Longitude>
  </Street>
  <Street>
    <NativeName>אברהם שטרן</NativeName>
    <ParentName>ירושלים, ישראל</ParentName>
    <AlternateName>שטרן</AlternateName>
    <Latitude>31.755033</Latitude>
    <Longitude>35.179753</Longitude>
  </Street>
  <Street>
    <NativeName>אברהם שלום יהודה</NativeName>
    <ParentName>ירושלים, ישראל</ParentName>
    <Latitude>31.751646</Latitude>
    <Longitude>35.220278</Longitude>
  </Street>
  <Street>
    <NativeName>אברהם שרון</NativeName>
    <ParentName>ירושלים, ישראל</ParentName>
    <Latitude>31.765496</Latitude>
    <Longitude>35.173234</Longitude>
  </Street>
  <Street>
    <NativeName>אברהם תלמודי</NativeName>
    <ParentName>ירושלים, ישראל</ParentName>
    <Latitude>31.792202</Latitude>
    <Longitude>35.219664</Longitude>
  </Street>
  <Street>
    <NativeName>אבשלום חביב</NativeName>
    <ParentName>ירושלים, ישראל</ParentName>
    <Latitude>31.751344</Latitude>
    <Longitude>35.238824</Longitude>
  </Street>
  <Street>
    <NativeName>אגמון</NativeName>
    <ParentName>ירושלים, ישראל</ParentName>
    <Latitude>31.732004</Latitude>
    <Longitude>35.184745</Longitude>
  </Street>
  <CityRegion>
    <NativeName>אגס ותפוח</NativeName>
    <ParentName>ירושלים, ישראל</ParentName>
    <Latitude>31.780686</Latitude>
    <Longitude>35.223896</Longitude>
  </CityRegion>
  <Street>
    <NativeName>אגריפס</NativeName>
    <ParentName>ירושלים, ישראל</ParentName>
    <Latitude>31.784132</Latitude>
    <Longitude>35.212032</Longitude>
  </Street>
  <Street>
    <NativeName>אדוניהו הכהן</NativeName>
    <ParentName>ירושלים, ישראל</ParentName>
    <Latitude>31.792619</Latitude>
    <Longitude>35.218887</Longitude>
  </Street>
  <Street>
    <NativeName>אדם</NativeName>
    <ParentName>ירושלים, ישראל</ParentName>
    <Latitude>31.749970</Latitude>
    <Longitude>35.230216</Longitude>
  </Street>
  <Street>
    <NativeName>אדמון</NativeName>
    <ParentName>ירושלים, ישראל</ParentName>
    <Latitude>31.785201</Latitude>
    <Longitude>35.224015</Longitude>
  </Street>
  <Street>
    <NativeName>אדמונד פלג</NativeName>
    <ParentName>ירושלים, ישראל</ParentName>
    <Latitude>31.841452</Latitude>
    <Longitude>35.244582</Longitude>
  </Street>
  <Street>
    <NativeName>אהוד</NativeName>
    <ParentName>ירושלים, ישראל</ParentName>
    <Latitude>31.761021</Latitude>
    <Longitude>35.220482</Longitude>
  </Street>
  <Street>
    <NativeName>אהליאב</NativeName>
    <ParentName>ירושלים, ישראל</ParentName>
    <Latitude>31.792671</Latitude>
    <Longitude>35.202786</Longitude>
  </Street>
  <Street>
    <NativeName>אהרון אשכולי</NativeName>
    <ParentName>ירושלים, ישראל</ParentName>
    <Latitude>31.811049</Latitude>
    <Longitude>35.194797</Longitude>
  </Street>
  <Street>
    <NativeName>אהרון ברנד</NativeName>
    <ParentName>ירושלים, ישראל</ParentName>
    <Latitude>31.783531</Latitude>
    <Longitude>35.172599</Longitude>
  </Street>
  <Street>
    <NativeName>אהרון צבי פרופס</NativeName>
    <ParentName>ירושלים, ישראל</ParentName>
    <Latitude>31.813868</Latitude>
    <Longitude>35.198221</Longitude>
  </Street>
  <Street>
    <NativeName>אהרון קציר</NativeName>
    <ParentName>ירושלים, ישראל</ParentName>
    <Latitude>31.796615</Latitude>
    <Longitude>35.235869</Longitude>
  </Street>
  <Street>
    <NativeName>אהרון רבינוביץ'</NativeName>
    <ParentName>ירושלים, ישראל</ParentName>
    <Latitude>31.762926</Latitude>
    <Longitude>35.175976</Longitude>
  </Street>
  <Street>
    <NativeName>אהרונוב</NativeName>
    <ParentName>ירושלים, ישראל</ParentName>
    <Latitude>31.777168</Latitude>
    <Longitude>35.186728</Longitude>
  </Street>
  <Street>
    <NativeName>אודם</NativeName>
    <ParentName>ירושלים, ישראל</ParentName>
    <Latitude>31.737287</Latitude>
    <Longitude>35.181090</Longitude>
  </Street>
  <Street>
    <NativeName>אוהל יהושע</NativeName>
    <ParentName>ירושלים, ישראל</ParentName>
    <AlternateName>אוהל יהושוע</AlternateName>
    <Latitude>31.795914</Latitude>
    <Longitude>35.209129</Longitude>
  </Street>
  <CityRegion>
    <NativeName>אוהל משה</NativeName>
    <ParentName>ירושלים, ישראל</ParentName>
    <Latitude>31.783264</Latitude>
    <Longitude>35.212845</Longitude>
  </CityRegion>
  <Street>
    <NativeName>אוהל משה</NativeName>
    <ParentName>ירושלים, ישראל</ParentName>
    <Latitude>31.782693</Latitude>
    <Longitude>35.213062</Longitude>
  </Street>
  <Street>
    <NativeName>אוהל שלמה</NativeName>
    <ParentName>ירושלים, ישראל</ParentName>
    <Latitude>31.786586</Latitude>
    <Longitude>35.210379</Longitude>
  </Street>
  <Street>
    <NativeName>אוליפנט</NativeName>
    <ParentName>ירושלים, ישראל</ParentName>
    <Latitude>31.769418</Latitude>
    <Longitude>35.217903</Longitude>
  </Street>
  <CityRegion>
    <NativeName>אולפן לתלמידי תיכון עולים</NativeName>
    <ParentName>ירושלים, ישראל</ParentName>
    <Latitude>31.758660</Latitude>
    <Longitude>35.221243</Longitude>
  </CityRegion>
  <CityRegion>
    <NativeName>אולפנת בני עקיבא</NativeName>
    <ParentName>ירושלים, ישראל</ParentName>
    <Latitude>31.822778</Latitude>
    <Longitude>35.238498</Longitude>
  </CityRegion>
  <Street>
    <NativeName>אום א דראג'</NativeName>
    <ParentName>ירושלים, ישראל</ParentName>
    <Latitude>31.814907</Latitude>
    <Longitude>35.234925</Longitude>
  </Street>
  <Street>
    <NativeName>אום א סאמד</NativeName>
    <ParentName>ירושלים, ישראל</ParentName>
    <Latitude>31.811064</Latitude>
    <Longitude>35.231016</Longitude>
  </Street>
  <CityRegion>
    <NativeName>אום טובא</NativeName>
    <ParentName>ירושלים, ישראל</ParentName>
    <Latitude>31.730808</Latitude>
    <Longitude>35.232350</Longitude>
  </CityRegion>
  <CityRegion>
    <NativeName>אום ליסון</NativeName>
    <ParentName>ירושלים, ישראל</ParentName>
    <Latitude>31.740007</Latitude>
    <Longitude>35.242262</Longitude>
  </CityRegion>
  <Street>
    <NativeName>אומרו אל קיס</NativeName>
    <ParentName>ירושלים, ישראל</ParentName>
    <Latitude>31.787339</Latitude>
    <Longitude>35.238890</Longitude>
  </Street>
  <Street>
    <NativeName>אונקלוס</NativeName>
    <ParentName>ירושלים, ישראל</ParentName>
    <Latitude>31.790687</Latitude>
    <Longitude>35.192247</Longitude>
  </Street>
  <Street>
    <NativeName>אופירה</NativeName>
    <ParentName>ירושלים, ישראל</ParentName>
    <Latitude>31.800174</Latitude>
    <Longitude>35.219787</Longitude>
  </Street>
  <Street>
    <NativeName>אוצר הגאונים</NativeName>
    <ParentName>ירושלים, ישראל</ParentName>
    <Latitude>31.840279</Latitude>
    <Longitude>35.249588</Longitude>
  </Street>
  <Street>
    <NativeName>אוצר הספרים</NativeName>
    <ParentName>ירושלים, ישראל</ParentName>
    <Latitude>31.786636</Latitude>
    <Longitude>35.225006</Longitude>
  </Street>
  <Street>
    <NativeName>אור אלחנן</NativeName>
    <ParentName>ירושלים, ישראל</ParentName>
    <Latitude>31.793058</Latitude>
    <Longitude>35.202344</Longitude>
  </Street>
  <Street>
    <NativeName>אור החיים</NativeName>
    <ParentName>ירושלים, ישראל</ParentName>
    <Latitude>31.775283</Latitude>
    <Longitude>35.230337</Longitude>
  </Street>
  <Street>
    <NativeName>אורוגואי</NativeName>
    <ParentName>ירושלים, ישראל</ParentName>
    <Latitude>31.757950</Latitude>
    <Longitude>35.176978</Longitude>
  </Street>
  <Street>
    <NativeName>אורי בר און</NativeName>
    <ParentName>ירושלים, ישראל</ParentName>
    <Latitude>31.827088</Latitude>
    <Longitude>35.247449</Longitude>
  </Street>
  <Street>
    <NativeName>אוריאל</NativeName>
    <ParentName>ירושלים, ישראל</ParentName>
    <Latitude>31.797001</Latitude>
    <Longitude>35.220369</Longitude>
  </Street>
  <Street>
    <NativeName>אחד העם</NativeName>
    <ParentName>ירושלים, ישראל</ParentName>
    <Latitude>31.772631</Latitude>
    <Longitude>35.218262</Longitude>
  </Street>
  <Street>
    <NativeName>אחינועם</NativeName>
    <ParentName>ירושלים, ישראל</ParentName>
    <Latitude>31.798242</Latitude>
    <Longitude>35.220731</Longitude>
  </Street>
  <Street>
    <NativeName>אחלמה</NativeName>
    <ParentName>ירושלים, ישראל</ParentName>
    <Latitude>31.727662</Latitude>
    <Longitude>35.190066</Longitude>
  </Street>
  <Street>
    <NativeName>אחמד שאוקי</NativeName>
    <ParentName>ירושלים, ישראל</ParentName>
    <Latitude>31.813604</Latitude>
    <Longitude>35.229104</Longitude>
  </Street>
  <Street>
    <NativeName>איחוד הכפר</NativeName>
    <ParentName>ירושלים, ישראל</ParentName>
    <Latitude>31.746913</Latitude>
    <Longitude>35.203194</Longitude>
  </Street>
  <Street>
    <NativeName>אייזיק רמבה</NativeName>
    <ParentName>ירושלים, ישראל</ParentName>
    <Latitude>31.751198</Latitude>
    <Longitude>35.229081</Longitude>
  </Street>
  <Street>
    <NativeName>איילה</NativeName>
    <ParentName>ירושלים, ישראל</ParentName>
    <Latitude>31.729157</Latitude>
    <Longitude>35.187242</Longitude>
  </Street>
  <Street>
    <NativeName>אילת</NativeName>
    <ParentName>ירושלים, ישראל</ParentName>
    <Latitude>31.783558</Latitude>
    <Longitude>35.210850</Longitude>
  </Street>
  <Street>
    <NativeName>אימאם אבו הוריירה</NativeName>
    <ParentName>ירושלים, ישראל</ParentName>
    <Latitude>31.819050</Latitude>
    <Longitude>35.225878</Longitude>
  </Street>
  <Street>
    <NativeName>אימאם אל בוח'ארי</NativeName>
    <ParentName>ירושלים, ישראל</ParentName>
    <Latitude>31.834744</Latitude>
    <Longitude>35.225694</Longitude>
  </Street>
  <Street>
    <NativeName>אימאם אל חנבלי</NativeName>
    <ParentName>ירושלים, ישראל</ParentName>
    <Latitude>31.792611</Latitude>
    <Longitude>35.239272</Longitude>
  </Street>
  <Street>
    <NativeName>אימאם אל מאלכי</NativeName>
    <ParentName>ירושלים, ישראל</ParentName>
    <Latitude>31.790816</Latitude>
    <Longitude>35.238614</Longitude>
  </Street>
  <Street>
    <NativeName>אימאם שאפעי</NativeName>
    <ParentName>ירושלים, ישראל</ParentName>
    <Latitude>31.825695</Latitude>
    <Longitude>35.223475</Longitude>
  </Street>
  <Street>
    <NativeName>אינו שאקי</NativeName>
    <ParentName>ירושלים, ישראל</ParentName>
    <Latitude>31.758036</Latitude>
    <Longitude>35.186481</Longitude>
  </Street>
  <Street>
    <NativeName>איסלנד</NativeName>
    <ParentName>ירושלים, ישראל</ParentName>
    <Latitude>31.759095</Latitude>
    <Longitude>35.166517</Longitude>
  </Street>
  <Street>
    <NativeName>איסר נתנזון</NativeName>
    <ParentName>ירושלים, ישראל</ParentName>
    <Latitude>31.816841</Latitude>
    <Longitude>35.254087</Longitude>
  </Street>
  <Street>
    <NativeName>איתמר בן אב"י</NativeName>
    <ParentName>ירושלים, ישראל</ParentName>
    <Latitude>31.768702</Latitude>
    <Longitude>35.211986</Longitude>
  </Street>
  <Street>
    <NativeName>איתן לבני</NativeName>
    <ParentName>ירושלים, ישראל</ParentName>
    <Latitude>31.818337</Latitude>
    <Longitude>35.252677</Longitude>
  </Street>
  <Street>
    <NativeName>איתן</NativeName>
    <ParentName>ירושלים, ישראל</ParentName>
    <Latitude>31.854322</Latitude>
    <Longitude>35.214125</Longitude>
  </Street>
  <CityRegion>
    <NativeName>אכסניית סנט ג'ורג'</NativeName>
    <ParentName>ירושלים, ישראל</ParentName>
    <Latitude>31.788321</Latitude>
    <Longitude>35.228773</Longitude>
  </CityRegion>
  <Street>
    <NativeName>אל אדיב אסעאף אל נשאשיבי</NativeName>
    <ParentName>ירושלים, ישראל</ParentName>
    <Latitude>31.793890</Latitude>
    <Longitude>35.231682</Longitude>
  </Street>
  <Street>
    <NativeName>אל אח'טל</NativeName>
    <ParentName>ירושלים, ישראל</ParentName>
    <Latitude>31.785850</Latitude>
    <Longitude>35.236100</Longitude>
  </Street>
  <Street>
    <NativeName>אל אימאם מוסלים</NativeName>
    <ParentName>ירושלים, ישראל</ParentName>
    <Latitude>31.826725</Latitude>
    <Longitude>35.224995</Longitude>
  </Street>
  <Street>
    <NativeName>אל אסמאעי</NativeName>
    <ParentName>ירושלים, ישראל</ParentName>
    <Latitude>31.811959</Latitude>
    <Longitude>35.236016</Longitude>
  </Street>
  <Street>
    <NativeName>אל אספהאני</NativeName>
    <ParentName>ירושלים, ישראל</ParentName>
    <Latitude>31.784788</Latitude>
    <Longitude>35.232732</Longitude>
  </Street>
  <Street>
    <NativeName>אל ארדשיר</NativeName>
    <ParentName>ירושלים, ישראל</ParentName>
    <Latitude>31.838027</Latitude>
    <Longitude>35.229442</Longitude>
  </Street>
  <Street>
    <NativeName>אל בארודי</NativeName>
    <ParentName>ירושלים, ישראל</ParentName>
    <Latitude>31.835913</Latitude>
    <Longitude>35.225501</Longitude>
  </Street>
  <Street>
    <NativeName>אל בוחתורי</NativeName>
    <ParentName>ירושלים, ישראל</ParentName>
    <Latitude>31.839259</Latitude>
    <Longitude>35.226462</Longitude>
  </Street>
  <Street>
    <NativeName>אל בוטמה</NativeName>
    <ParentName>ירושלים, ישראל</ParentName>
    <Latitude>31.744174</Latitude>
    <Longitude>35.198873</Longitude>
  </Street>
  <Street>
    <NativeName>אל בוסטאמי</NativeName>
    <ParentName>ירושלים, ישראל</ParentName>
    <Latitude>31.781761</Latitude>
    <Longitude>35.233509</Longitude>
  </Street>
  <Street>
    <NativeName>אל בניאס</NativeName>
    <ParentName>ירושלים, ישראל</ParentName>
    <Latitude>31.847059</Latitude>
    <Longitude>35.225236</Longitude>
  </Street>
  <Street>
    <NativeName>אל ג'בשה</NativeName>
    <ParentName>ירושלים, ישראל</ParentName>
    <Latitude>31.780573</Latitude>
    <Longitude>35.229337</Longitude>
  </Street>
  <Street>
    <NativeName>אל ג'וזה</NativeName>
    <ParentName>ירושלים, ישראל</ParentName>
    <Latitude>31.837047</Latitude>
    <Longitude>35.225900</Longitude>
  </Street>
  <Street>
    <NativeName>אל הילאל</NativeName>
    <ParentName>ירושלים, ישראל</ParentName>
    <Latitude>31.829037</Latitude>
    <Longitude>35.230740</Longitude>
  </Street>
  <Street>
    <NativeName>אל ואד הגיא</NativeName>
    <ParentName>ירושלים, ישראל</ParentName>
    <Latitude>31.779301</Latitude>
    <Longitude>35.232708</Longitude>
  </Street>
  <Street>
    <NativeName>אל ואלאג'ה</NativeName>
    <ParentName>ירושלים, ישראל</ParentName>
    <Latitude>31.750896</Latitude>
    <Longitude>35.205240</Longitude>
  </Street>
  <Street>
    <NativeName>אל וער</NativeName>
    <ParentName>ירושלים, ישראל</ParentName>
    <Latitude>31.810675</Latitude>
    <Longitude>35.227733</Longitude>
  </Street>
  <CityRegion>
    <NativeName>אל ח'נקה</NativeName>
    <ParentName>ירושלים, ישראל</ParentName>
    <Latitude>31.778932</Latitude>
    <Longitude>35.229293</Longitude>
  </CityRegion>
  <Street>
    <NativeName>אל חאלסה</NativeName>
    <ParentName>ירושלים, ישראל</ParentName>
    <Latitude>31.847970</Latitude>
    <Longitude>35.227407</Longitude>
  </Street>
  <Street>
    <NativeName>אל חג'אג בן יוסף</NativeName>
    <ParentName>ירושלים, ישראל</ParentName>
    <Latitude>31.818166</Latitude>
    <Longitude>35.227078</Longitude>
  </Street>
  <Street>
    <NativeName>אל חרדוב</NativeName>
    <ParentName>ירושלים, ישראל</ParentName>
    <Latitude>31.780466</Latitude>
    <Longitude>35.254204</Longitude>
  </Street>
  <Street>
    <NativeName>אל חרירי</NativeName>
    <ParentName>ירושלים, ישראל</ParentName>
    <Latitude>31.786297</Latitude>
    <Longitude>35.234369</Longitude>
  </Street>
  <Street>
    <NativeName>אל חרמי שוקרי</NativeName>
    <ParentName>ירושלים, ישראל</ParentName>
    <Latitude>31.846914</Latitude>
    <Longitude>35.231031</Longitude>
  </Street>
  <Street>
    <NativeName>אל יעקובי</NativeName>
    <ParentName>ירושלים, ישראל</ParentName>
    <Latitude>31.787729</Latitude>
    <Longitude>35.233161</Longitude>
  </Street>
  <Street>
    <NativeName>אל מאמון</NativeName>
    <ParentName>ירושלים, ישראל</ParentName>
    <Latitude>31.827145</Latitude>
    <Longitude>35.226725</Longitude>
  </Street>
  <Street>
    <NativeName>אל מדרסה אל ג'דידה</NativeName>
    <ParentName>ירושלים, ישראל</ParentName>
    <Latitude>31.743847</Latitude>
    <Longitude>35.205569</Longitude>
  </Street>
  <Street>
    <NativeName>אל מונזר</NativeName>
    <ParentName>ירושלים, ישראל</ParentName>
    <Latitude>31.827977</Latitude>
    <Longitude>35.225457</Longitude>
  </Street>
  <Street>
    <NativeName>אל מועזמיה</NativeName>
    <ParentName>ירושלים, ישראל</ParentName>
    <Latitude>31.782757</Latitude>
    <Longitude>35.235604</Longitude>
  </Street>
  <Street>
    <NativeName>אל מוקדסי</NativeName>
    <ParentName>ירושלים, ישראל</ParentName>
    <Latitude>31.789851</Latitude>
    <Longitude>35.238023</Longitude>
  </Street>
  <Street>
    <NativeName>אל מותנבי</NativeName>
    <ParentName>ירושלים, ישראל</ParentName>
    <Latitude>31.791447</Latitude>
    <Longitude>35.237109</Longitude>
  </Street>
  <Street>
    <NativeName>אל מנסוריה</NativeName>
    <ParentName>ירושלים, ישראל</ParentName>
    <Latitude>31.780363</Latitude>
    <Longitude>35.242539</Longitude>
  </Street>
  <Street>
    <NativeName>אל מסעודי</NativeName>
    <ParentName>ירושלים, ישראל</ParentName>
    <Latitude>31.785515</Latitude>
    <Longitude>35.232242</Longitude>
  </Street>
  <Street>
    <NativeName>אל מצאנע</NativeName>
    <ParentName>ירושלים, ישראל</ParentName>
    <Latitude>31.812895</Latitude>
    <Longitude>35.224550</Longitude>
  </Street>
  <Street>
    <NativeName>אל סלוודור</NativeName>
    <ParentName>ירושלים, ישראל</ParentName>
    <Latitude>31.748284</Latitude>
    <Longitude>35.171529</Longitude>
  </Street>
  <Street>
    <NativeName>אל ע'רבי</NativeName>
    <ParentName>ירושלים, ישראל</ParentName>
    <Latitude>31.825061</Latitude>
    <Longitude>35.228671</Longitude>
  </Street>
  <Street>
    <NativeName>אל עבאס</NativeName>
    <ParentName>ירושלים, ישראל</ParentName>
    <Latitude>31.833898</Latitude>
    <Longitude>35.228662</Longitude>
  </Street>
  <Street>
    <NativeName>אל עומרי</NativeName>
    <ParentName>ירושלים, ישראל</ParentName>
    <Latitude>31.782164</Latitude>
    <Longitude>35.236058</Longitude>
  </Street>
  <Street>
    <NativeName>אל פאראבי</NativeName>
    <ParentName>ירושלים, ישראל</ParentName>
    <Latitude>31.822115</Latitude>
    <Longitude>35.226967</Longitude>
  </Street>
  <Street>
    <NativeName>אל קאש</NativeName>
    <ParentName>ירושלים, ישראל</ParentName>
    <Latitude>31.740209</Latitude>
    <Longitude>35.198311</Longitude>
  </Street>
  <Street>
    <NativeName>אל קינדי</NativeName>
    <ParentName>ירושלים, ישראל</ParentName>
    <Latitude>31.833403</Latitude>
    <Longitude>35.229493</Longitude>
  </Street>
  <Street>
    <NativeName>אל קירמי</NativeName>
    <ParentName>ירושלים, ישראל</ParentName>
    <Latitude>31.777953</Latitude>
    <Longitude>35.231642</Longitude>
  </Street>
  <Street>
    <NativeName>אל קלעה</NativeName>
    <ParentName>ירושלים, ישראל</ParentName>
    <Latitude>31.744438</Latitude>
    <Longitude>35.207811</Longitude>
  </Street>
  <Street>
    <NativeName>אלוף שאלתיאל</NativeName>
    <ParentName>ירושלים, ישראל</ParentName>
    <AlternateName>שאלתיאל</AlternateName>
    <Latitude>31.785184</Latitude>
    <Longitude>35.206722</Longitude>
  </Street>
  <Street>
    <NativeName>אלוף שמחוני</NativeName>
    <ParentName>ירושלים, ישראל</ParentName>
    <AlternateName>שמחוני</AlternateName>
    <Latitude>31.767636</Latitude>
    <Longitude>35.208869</Longitude>
  </Street>
  <Street>
    <NativeName>אלזה</NativeName>
    <ParentName>ירושלים, ישראל</ParentName>
    <Latitude>31.768780</Latitude>
    <Longitude>35.203334</Longitude>
  </Street>
  <Street>
    <NativeName>אלחריזי</NativeName>
    <ParentName>ירושלים, ישראל</ParentName>
    <Latitude>31.776094</Latitude>
    <Longitude>35.214322</Longitude>
  </Street>
  <Street>
    <NativeName>אלי כהן</NativeName>
    <ParentName>ירושלים, ישראל</ParentName>
    <Latitude>31.766866</Latitude>
    <Longitude>35.213479</Longitude>
  </Street>
  <Street>
    <NativeName>אלי תבין</NativeName>
    <ParentName>ירושלים, ישראל</ParentName>
    <Latitude>31.817668</Latitude>
    <Longitude>35.241555</Longitude>
  </Street>
  <Street>
    <NativeName>אליאשברג</NativeName>
    <ParentName>ירושלים, ישראל</ParentName>
    <Latitude>31.767301</Latitude>
    <Longitude>35.221375</Longitude>
  </Street>
  <Street>
    <NativeName>אליהו בית צורי</NativeName>
    <ParentName>ירושלים, ישראל</ParentName>
    <AlternateName>בית צורי</AlternateName>
    <Latitude>31.745358</Latitude>
    <Longitude>35.232311</Longitude>
  </Street>
  <Street>
    <NativeName>אליהו בראון</NativeName>
    <ParentName>ירושלים, ישראל</ParentName>
    <Latitude>31.819388</Latitude>
    <Longitude>35.185592</Longitude>
  </Street>
  <Street>
    <NativeName>אליהו חכים</NativeName>
    <ParentName>ירושלים, ישראל</ParentName>
    <Latitude>31.744373</Latitude>
    <Longitude>35.231787</Longitude>
  </Street>
  <Street>
    <NativeName>אליהו יעקב בנאי</NativeName>
    <ParentName>ירושלים, ישראל</ParentName>
    <Latitude>31.784943</Latitude>
    <Longitude>35.212777</Longitude>
  </Street>
  <Street>
    <NativeName>אליהו לנקין</NativeName>
    <ParentName>ירושלים, ישראל</ParentName>
    <Latitude>31.750164</Latitude>
    <Longitude>35.225782</Longitude>
  </Street>
  <Street>
    <NativeName>אליהו מני</NativeName>
    <ParentName>ירושלים, ישראל</ParentName>
    <Latitude>31.785527</Latitude>
    <Longitude>35.210402</Longitude>
  </Street>
  <Street>
    <NativeName>אליהו מרידור</NativeName>
    <ParentName>ירושלים, ישראל</ParentName>
    <Latitude>31.814758</Latitude>
    <Longitude>35.249742</Longitude>
  </Street>
  <Street>
    <NativeName>אליהו סלמן</NativeName>
    <ParentName>ירושלים, ישראל</ParentName>
    <Latitude>31.783624</Latitude>
    <Longitude>35.209621</Longitude>
  </Street>
  <Street>
    <NativeName>אליהו קורן</NativeName>
    <ParentName>ירושלים, ישראל</ParentName>
    <Latitude>31.721830</Latitude>
    <Longitude>35.223469</Longitude>
  </Street>
  <Street>
    <NativeName>אליהו שמאע</NativeName>
    <ParentName>ירושלים, ישראל</ParentName>
    <Latitude>31.776191</Latitude>
    <Longitude>35.223897</Longitude>
  </Street>
  <Street>
    <NativeName>אלימלך אדמוני</NativeName>
    <ParentName>ירושלים, ישראל</ParentName>
    <Latitude>31.773528</Latitude>
    <Longitude>35.223415</Longitude>
  </Street>
  <Street>
    <NativeName>אלימלך מליז'נסק</NativeName>
    <ParentName>ירושלים, ישראל</ParentName>
    <Latitude>31.821757</Latitude>
    <Longitude>35.191810</Longitude>
  </Street>
  <Street>
    <NativeName>אליעזר ארגוב</NativeName>
    <ParentName>ירושלים, ישראל</ParentName>
    <Latitude>31.759919</Latitude>
    <Longitude>35.185623</Longitude>
  </Street>
  <Street>
    <NativeName>אליעזר הגדול</NativeName>
    <ParentName>ירושלים, ישראל</ParentName>
    <Latitude>31.754815</Latitude>
    <Longitude>35.205130</Longitude>
  </Street>
  <Street>
    <NativeName>אליעזר הופיין</NativeName>
    <ParentName>ירושלים, ישראל</ParentName>
    <Latitude>31.810090</Latitude>
    <Longitude>35.195580</Longitude>
  </Street>
  <Street>
    <NativeName>אליעזר הלוי</NativeName>
    <ParentName>ירושלים, ישראל</ParentName>
    <Latitude>31.785634</Latitude>
    <Longitude>35.193362</Longitude>
  </Street>
  <Street>
    <NativeName>אליעזר וחמדה בן יהודה</NativeName>
    <ParentName>ירושלים, ישראל</ParentName>
    <Latitude>31.781227</Latitude>
    <Longitude>35.216383</Longitude>
  </Street>
  <Street>
    <NativeName>אליעזר ליבנה</NativeName>
    <ParentName>ירושלים, ישראל</ParentName>
    <Latitude>31.840033</Latitude>
    <Longitude>35.243600</Longitude>
  </Street>
  <Street>
    <NativeName>אליעזר מרגולין</NativeName>
    <ParentName>ירושלים, ישראל</ParentName>
    <Latitude>31.754685</Latitude>
    <Longitude>35.195227</Longitude>
  </Street>
  <Street>
    <NativeName>אליעזר קשאני</NativeName>
    <ParentName>ירושלים, ישראל</ParentName>
    <Latitude>31.746936</Latitude>
    <Longitude>35.234027</Longitude>
  </Street>
  <Street>
    <NativeName>אליעזר ריבלין</NativeName>
    <ParentName>ירושלים, ישראל</ParentName>
    <Latitude>31.778704</Latitude>
    <Longitude>35.215072</Longitude>
  </Street>
  <Street>
    <NativeName>אליעזרוב</NativeName>
    <ParentName>ירושלים, ישראל</ParentName>
    <Latitude>31.796930</Latitude>
    <Longitude>35.217644</Longitude>
  </Street>
  <Street>
    <NativeName>אליעזרי</NativeName>
    <ParentName>ירושלים, ישראל</ParentName>
    <Latitude>31.766354</Latitude>
    <Longitude>35.188736</Longitude>
  </Street>
  <Street>
    <NativeName>אליפז</NativeName>
    <ParentName>ירושלים, ישראל</ParentName>
    <Latitude>31.796790</Latitude>
    <Longitude>35.218851</Longitude>
  </Street>
  <Street>
    <NativeName>אלישע</NativeName>
    <ParentName>ירושלים, ישראל</ParentName>
    <Latitude>31.780995</Latitude>
    <Longitude>35.225882</Longitude>
  </Street>
  <Street>
    <NativeName>אלכסנדר אייג</NativeName>
    <ParentName>ירושלים, ישראל</ParentName>
    <Latitude>31.810664</Latitude>
    <Longitude>35.196838</Longitude>
  </Street>
  <Street>
    <NativeName>אלכסנדר רובוביץ'</NativeName>
    <ParentName>ירושלים, ישראל</ParentName>
    <Latitude>31.743666</Latitude>
    <Longitude>35.238049</Longitude>
  </Street>
  <Street>
    <NativeName>אלכסנדריון</NativeName>
    <ParentName>ירושלים, ישראל</ParentName>
    <Latitude>31.753662</Latitude>
    <Longitude>35.202448</Longitude>
  </Street>
  <Street>
    <NativeName>אלמוג</NativeName>
    <ParentName>ירושלים, ישראל</ParentName>
    <Latitude>31.728415</Latitude>
    <Longitude>35.190167</Longitude>
  </Street>
  <Street>
    <NativeName>אלעזר בן יאיר</NativeName>
    <ParentName>ירושלים, ישראל</ParentName>
    <Latitude>31.753651</Latitude>
    <Longitude>35.201607</Longitude>
  </Street>
  <Street>
    <NativeName>אלעזר המודעי</NativeName>
    <ParentName>ירושלים, ישראל</ParentName>
    <Latitude>31.761144</Latitude>
    <Longitude>35.214420</Longitude>
  </Street>
  <Street>
    <NativeName>אלעזר המכבי</NativeName>
    <ParentName>ירושלים, ישראל</ParentName>
    <Latitude>31.790619</Latitude>
    <Longitude>35.208735</Longitude>
  </Street>
  <Street>
    <NativeName>אלעזר מנחם גלרנטר</NativeName>
    <ParentName>ירושלים, ישראל</ParentName>
    <Latitude>31.720803</Latitude>
    <Longitude>35.222098</Longitude>
  </Street>
  <Street>
    <NativeName>אלעשה</NativeName>
    <ParentName>ירושלים, ישראל</ParentName>
    <Latitude>31.798436</Latitude>
    <Longitude>35.221718</Longitude>
  </Street>
  <Street>
    <NativeName>אלפנדרי</NativeName>
    <ParentName>ירושלים, ישראל</ParentName>
    <Latitude>31.787336</Latitude>
    <Longitude>35.212274</Longitude>
  </Street>
  <Street>
    <NativeName>אלפסי</NativeName>
    <ParentName>ירושלים, ישראל</ParentName>
    <Latitude>31.772950</Latitude>
    <Longitude>35.212377</Longitude>
  </Street>
  <Street>
    <NativeName>אלפרד ויתקון</NativeName>
    <ParentName>ירושלים, ישראל</ParentName>
    <AlternateName>אלפרדו ויתקון</AlternateName>
    <Latitude>31.817157</Latitude>
    <Longitude>35.187942</Longitude>
  </Street>
  <Street>
    <NativeName>אלקנה</NativeName>
    <ParentName>ירושלים, ישראל</ParentName>
    <Latitude>31.793890</Latitude>
    <Longitude>35.213626</Longitude>
  </Street>
  <Street>
    <NativeName>אלשיך</NativeName>
    <ParentName>ירושלים, ישראל</ParentName>
    <AlternateName>אלשיח</AlternateName>
    <Latitude>31.788102</Latitude>
    <Longitude>35.216797</Longitude>
  </Street>
  <Street>
    <NativeName>אם הבנים</NativeName>
    <ParentName>ירושלים, ישראל</ParentName>
    <Latitude>31.814967</Latitude>
    <Longitude>35.192035</Longitude>
  </Street>
  <Street>
    <NativeName>אמא שלום</NativeName>
    <ParentName>ירושלים, ישראל</ParentName>
    <Latitude>31.768911</Latitude>
    <Longitude>35.165478</Longitude>
  </Street>
  <Street>
    <NativeName>אמיל זולא</NativeName>
    <ParentName>ירושלים, ישראל</ParentName>
    <AlternateName>אמיל זולה</AlternateName>
    <AlternateName>עמיל זולה</AlternateName>
    <AlternateName>עמיל זולא</AlternateName>
    <Latitude>31.764678</Latitude>
    <Longitude>35.220770</Longitude>
  </Street>
  <Street>
    <NativeName>אמיר</NativeName>
    <ParentName>ירושלים, ישראל</ParentName>
    <Latitude>31.776480</Latitude>
    <Longitude>35.183749</Longitude>
  </Street>
  <Street>
    <NativeName>אמנון יואל פרידלר</NativeName>
    <ParentName>ירושלים, ישראל</ParentName>
    <Latitude>31.813920</Latitude>
    <Longitude>35.254067</Longitude>
  </Street>
  <Street>
    <NativeName>אמציה</NativeName>
    <ParentName>ירושלים, ישראל</ParentName>
    <Latitude>31.762136</Latitude>
    <Longitude>35.214731</Longitude>
  </Street>
  <Street>
    <NativeName>אמרי בינה</NativeName>
    <ParentName>ירושלים, ישראל</ParentName>
    <Latitude>31.796987</Latitude>
    <Longitude>35.210854</Longitude>
  </Street>
  <Street>
    <NativeName>אמרי קלמן</NativeName>
    <ParentName>ירושלים, ישראל</ParentName>
    <Latitude>31.829181</Latitude>
    <Longitude>35.247635</Longitude>
  </Street>
  <Street>
    <NativeName>אמת ליעקב</NativeName>
    <ParentName>ירושלים, ישראל</ParentName>
    <Latitude>31.787169</Latitude>
    <Longitude>35.221597</Longitude>
  </Street>
  <Street>
    <NativeName>אנג'לו לוי ביאנקיני</NativeName>
    <ParentName>ירושלים, ישראל</ParentName>
    <Latitude>31.780595</Latitude>
    <Longitude>35.218395</Longitude>
  </Street>
  <CityRegion>
    <NativeName>אנדרטה לבי"ח של ההוספיטלרים</NativeName>
    <ParentName>ירושלים, ישראל</ParentName>
    <Latitude>31.777126</Latitude>
    <Longitude>35.230357</Longitude>
  </CityRegion>
  <CityRegion>
    <NativeName>אנדרטה עץ השלום</NativeName>
    <ParentName>ירושלים, ישראל</ParentName>
    <Latitude>31.807767</Latitude>
    <Longitude>35.192890</Longitude>
  </CityRegion>
  <Street>
    <NativeName>אנוסי משהד</NativeName>
    <ParentName>ירושלים, ישראל</ParentName>
    <Latitude>31.745313</Latitude>
    <Longitude>35.231720</Longitude>
  </Street>
  <Street>
    <NativeName>אנטוניה</NativeName>
    <ParentName>ירושלים, ישראל</ParentName>
    <Latitude>31.781696</Latitude>
    <Longitude>35.235334</Longitude>
  </Street>
  <Street>
    <NativeName>אנטוקולסקי</NativeName>
    <ParentName>ירושלים, ישראל</ParentName>
    <Latitude>31.778440</Latitude>
    <Longitude>35.210616</Longitude>
  </Street>
  <Street>
    <NativeName>אנטיגונוס</NativeName>
    <ParentName>ירושלים, ישראל</ParentName>
    <Latitude>31.756625</Latitude>
    <Longitude>35.207153</Longitude>
  </Street>
  <Street>
    <NativeName>אנילביץ'</NativeName>
    <ParentName>ירושלים, ישראל</ParentName>
    <Latitude>31.765507</Latitude>
    <Longitude>35.174566</Longitude>
  </Street>
  <Street>
    <NativeName>אנצ'ו בונהונטורה</NativeName>
    <ParentName>ירושלים, ישראל</ParentName>
    <Latitude>31.753049</Latitude>
    <Longitude>35.226693</Longitude>
  </Street>
  <Street>
    <NativeName>אסא</NativeName>
    <ParentName>ירושלים, ישראל</ParentName>
    <Latitude>31.761432</Latitude>
    <Longitude>35.215972</Longitude>
  </Street>
  <Street>
    <NativeName>אסטורה</NativeName>
    <ParentName>ירושלים, ישראל</ParentName>
    <Latitude>31.839623</Latitude>
    <Longitude>35.246281</Longitude>
  </Street>
  <Street>
    <NativeName>אסירי ציון</NativeName>
    <ParentName>ירושלים, ישראל</ParentName>
    <Latitude>31.813733</Latitude>
    <Longitude>35.195118</Longitude>
  </Street>
  <Street>
    <NativeName>אסתר המלכה</NativeName>
    <ParentName>ירושלים, ישראל</ParentName>
    <Latitude>31.758917</Latitude>
    <Longitude>35.222537</Longitude>
  </Street>
  <Street>
    <NativeName>אפודי</NativeName>
    <ParentName>ירושלים, ישראל</ParentName>
    <Latitude>31.772718</Latitude>
    <Longitude>35.212448</Longitude>
  </Street>
  <Street>
    <NativeName>אפרים אורבך</NativeName>
    <ParentName>ירושלים, ישראל</ParentName>
    <Latitude>31.788732</Latitude>
    <Longitude>35.222393</Longitude>
  </Street>
  <Street>
    <NativeName>אפרים ושיץ</NativeName>
    <ParentName>ירושלים, ישראל</ParentName>
    <Latitude>31.743951</Latitude>
    <Longitude>35.220021</Longitude>
  </Street>
  <Street>
    <NativeName>אפרים כהן</NativeName>
    <ParentName>ירושלים, ישראל</ParentName>
    <Latitude>31.786742</Latitude>
    <Longitude>35.217079</Longitude>
  </Street>
  <Street>
    <NativeName>אפרים</NativeName>
    <ParentName>ירושלים, ישראל</ParentName>
    <Latitude>31.760233</Latitude>
    <Longitude>35.219563</Longitude>
  </Street>
  <Street>
    <NativeName>אפרסמון</NativeName>
    <ParentName>ירושלים, ישראל</ParentName>
    <Latitude>31.732778</Latitude>
    <Longitude>35.201172</Longitude>
  </Street>
  <Street>
    <NativeName>אפרתה</NativeName>
    <ParentName>ירושלים, ישראל</ParentName>
    <Latitude>31.752390</Latitude>
    <Longitude>35.221945</Longitude>
  </Street>
  <Street>
    <NativeName>אצ"ל</NativeName>
    <ParentName>ירושלים, ישראל</ParentName>
    <AlternateName>האצ"ל</AlternateName>
    <Latitude>31.803320</Latitude>
    <Longitude>35.235868</Longitude>
  </Street>
  <Street>
    <NativeName>ארבל</NativeName>
    <ParentName>ירושלים, ישראל</ParentName>
    <Latitude>31.789279</Latitude>
    <Longitude>35.212692</Longitude>
  </Street>
  <Street>
    <NativeName>ארבעת המינים</NativeName>
    <ParentName>ירושלים, ישראל</ParentName>
    <Latitude>31.785116</Latitude>
    <Longitude>35.211971</Longitude>
  </Street>
  <Street>
    <NativeName>ארגמן</NativeName>
    <ParentName>ירושלים, ישראל</ParentName>
    <Latitude>31.792525</Latitude>
    <Longitude>35.205620</Longitude>
  </Street>
  <Street>
    <NativeName>ארוונה היבוסי</NativeName>
    <ParentName>ירושלים, ישראל</ParentName>
    <Latitude>31.771799</Latitude>
    <Longitude>35.227103</Longitude>
  </Street>
  <CityRegion>
    <NativeName>ארזי הבירה</NativeName>
    <ParentName>ירושלים, ישראל</ParentName>
    <Latitude>31.793471</Latitude>
    <Longitude>35.223866</Longitude>
  </CityRegion>
  <Street>
    <NativeName>ארזי הבירה</NativeName>
    <ParentName>ירושלים, ישראל</ParentName>
    <Latitude>31.792795</Latitude>
    <Longitude>35.224946</Longitude>
  </Street>
  <Street>
    <NativeName>ארי במסתרים</NativeName>
    <ParentName>ירושלים, ישראל</ParentName>
    <Latitude>31.820231</Latitude>
    <Longitude>35.195552</Longitude>
  </Street>
  <Street>
    <NativeName>אריה אלטמן</NativeName>
    <ParentName>ירושלים, ישראל</ParentName>
    <Latitude>31.828766</Latitude>
    <Longitude>35.246226</Longitude>
  </Street>
  <Street>
    <NativeName>אריה בן אליעזר</NativeName>
    <ParentName>ירושלים, ישראל</ParentName>
    <Latitude>31.735237</Latitude>
    <Longitude>35.196689</Longitude>
  </Street>
  <Street>
    <NativeName>אריה בעהם</NativeName>
    <ParentName>ירושלים, ישראל</ParentName>
    <Latitude>31.751737</Latitude>
    <Longitude>35.199849</Longitude>
  </Street>
  <Street>
    <NativeName>אריה ורשבסקי</NativeName>
    <ParentName>ירושלים, ישראל</ParentName>
    <Latitude>31.728406</Latitude>
    <Longitude>35.218899</Longitude>
  </Street>
  <Street>
    <NativeName>אריה ל. מוצקין</NativeName>
    <ParentName>ירושלים, ישראל</ParentName>
    <Latitude>31.763475</Latitude>
    <Longitude>35.175919</Longitude>
  </Street>
  <Street>
    <NativeName>אריה ל. קובובי</NativeName>
    <ParentName>ירושלים, ישראל</ParentName>
    <Latitude>31.761231</Latitude>
    <Longitude>35.180939</Longitude>
  </Street>
  <Street>
    <NativeName>אריה מקלף</NativeName>
    <ParentName>ירושלים, ישראל</ParentName>
    <Latitude>31.792335</Latitude>
    <Longitude>35.167766</Longitude>
  </Street>
  <Street>
    <NativeName>אריה קלנר</NativeName>
    <ParentName>ירושלים, ישראל</ParentName>
    <Latitude>31.768187</Latitude>
    <Longitude>35.171916</Longitude>
  </Street>
  <Street>
    <NativeName>אריה רוטנברג</NativeName>
    <ParentName>ירושלים, ישראל</ParentName>
    <AlternateName>אריה רוטננברג</AlternateName>
    <Latitude>31.770459</Latitude>
    <Longitude>35.213842</Longitude>
  </Street>
  <Street>
    <NativeName>אריך מנדלסון</NativeName>
    <ParentName>ירושלים, ישראל</ParentName>
    <Latitude>31.817542</Latitude>
    <Longitude>35.187156</Longitude>
  </Street>
  <Street>
    <NativeName>אריסטובולוס</NativeName>
    <ParentName>ירושלים, ישראל</ParentName>
    <Latitude>31.781899</Latitude>
    <Longitude>35.220850</Longitude>
  </Street>
  <Street>
    <NativeName>ארלוזורוב</NativeName>
    <ParentName>ירושלים, ישראל</ParentName>
    <AlternateName>ארלוזרוב</AlternateName>
    <Latitude>31.772914</Latitude>
    <Longitude>35.216200</Longitude>
  </Street>
  <CityRegion>
    <NativeName>ארמון הנציב</NativeName>
    <ParentName>ירושלים, ישראל</ParentName>
    <Latitude>31.752285</Latitude>
    <Longitude>35.235342</Longitude>
  </CityRegion>
  <Street>
    <NativeName>ארנון</NativeName>
    <ParentName>ירושלים, ישראל</ParentName>
    <Latitude>31.785001</Latitude>
    <Longitude>35.208980</Longitude>
  </Street>
  <CityRegion>
    <NativeName>ארנונה</NativeName>
    <ParentName>ירושלים, ישראל</ParentName>
    <AlternateName>שכונת ארנונה</AlternateName>
    <Latitude>31.747092</Latitude>
    <Longitude>35.220230</Longitude>
  </CityRegion>
  <Street>
    <NativeName>ארץ חפץ</NativeName>
    <ParentName>ירושלים, ישראל</ParentName>
    <Latitude>31.795925</Latitude>
    <Longitude>35.223271</Longitude>
  </Street>
  <Street>
    <NativeName>אררט</NativeName>
    <ParentName>ירושלים, ישראל</ParentName>
    <Latitude>31.775392</Latitude>
    <Longitude>35.229884</Longitude>
  </Street>
  <Street>
    <NativeName>אשר גולאק</NativeName>
    <ParentName>ירושלים, ישראל</ParentName>
    <Latitude>31.842686</Latitude>
    <Longitude>35.243219</Longitude>
  </Street>
  <Street>
    <NativeName>אשר וינר</NativeName>
    <ParentName>ירושלים, ישראל</ParentName>
    <Latitude>31.741487</Latitude>
    <Longitude>35.225819</Longitude>
  </Street>
  <Street>
    <NativeName>אשר</NativeName>
    <ParentName>ירושלים, ישראל</ParentName>
    <Latitude>31.758693</Latitude>
    <Longitude>35.216462</Longitude>
  </Street>
  <Street>
    <NativeName>אשריאל בוזגלו</NativeName>
    <ParentName>ירושלים, ישראל</ParentName>
    <Latitude>31.754697</Latitude>
    <Longitude>35.218016</Longitude>
  </Street>
  <Street>
    <NativeName>אשתורי הפרחי</NativeName>
    <ParentName>ירושלים, ישראל</ParentName>
    <Latitude>31.788102</Latitude>
    <Longitude>35.216797</Longitude>
  </Street>
  <Street>
    <NativeName>אתיופיה</NativeName>
    <ParentName>ירושלים, ישראל</ParentName>
    <Latitude>31.784844</Latitude>
    <Longitude>35.220707</Longitude>
  </Street>
  <CityRegion>
    <NativeName>באב א זהרה</NativeName>
    <ParentName>ירושלים, ישראל</ParentName>
    <Latitude>31.787522</Latitude>
    <Longitude>35.232705</Longitude>
  </CityRegion>
  <Street>
    <NativeName>באכר</NativeName>
    <ParentName>ירושלים, ישראל</ParentName>
    <Latitude>31.766135</Latitude>
    <Longitude>35.218124</Longitude>
  </Street>
  <Street>
    <NativeName>באר שבע</NativeName>
    <ParentName>ירושלים, ישראל</ParentName>
    <Latitude>31.782413</Latitude>
    <Longitude>35.210826</Longitude>
  </Street>
  <Street>
    <NativeName>בארות יצחק</NativeName>
    <ParentName>ירושלים, ישראל</ParentName>
    <Latitude>31.763704</Latitude>
    <Longitude>35.211631</Longitude>
  </Street>
  <Street>
    <NativeName>בארי</NativeName>
    <ParentName>ירושלים, ישראל</ParentName>
    <Latitude>31.780609</Latitude>
    <Longitude>35.215141</Longitude>
  </Street>
  <Street>
    <NativeName>בדר</NativeName>
    <ParentName>ירושלים, ישראל</ParentName>
    <Latitude>31.826939</Latitude>
    <Longitude>35.229017</Longitude>
  </Street>
  <Street>
    <NativeName>בהא א דין</NativeName>
    <ParentName>ירושלים, ישראל</ParentName>
    <Latitude>31.789371</Latitude>
    <Longitude>35.231612</Longitude>
  </Street>
  <Street>
    <NativeName>בוליביה</NativeName>
    <ParentName>ירושלים, ישראל</ParentName>
    <Latitude>31.756424</Latitude>
    <Longitude>35.179383</Longitude>
  </Street>
  <Street>
    <NativeName>בוני החומה</NativeName>
    <ParentName>ירושלים, ישראל</ParentName>
    <Latitude>31.775825</Latitude>
    <Longitude>35.231893</Longitude>
  </Street>
  <Street>
    <NativeName>בוסתנאי</NativeName>
    <ParentName>ירושלים, ישראל</ParentName>
    <AlternateName>בוסטנאי</AlternateName>
    <Latitude>31.764384</Latitude>
    <Longitude>35.212423</Longitude>
  </Street>
  <Street>
    <NativeName>בועז</NativeName>
    <ParentName>ירושלים, ישראל</ParentName>
    <Latitude>31.760118</Latitude>
    <Longitude>35.221331</Longitude>
  </Street>
  <Street>
    <NativeName>בורג' לקלק</NativeName>
    <ParentName>ירושלים, ישראל</ParentName>
    <Latitude>31.781509</Latitude>
    <Longitude>35.236757</Longitude>
  </Street>
  <Street>
    <NativeName>בורוכוב</NativeName>
    <ParentName>ירושלים, ישראל</ParentName>
    <Latitude>31.765491</Latitude>
    <Longitude>35.174967</Longitude>
  </Street>
  <Street>
    <NativeName>בושם</NativeName>
    <ParentName>ירושלים, ישראל</ParentName>
    <Latitude>31.733980</Latitude>
    <Longitude>35.188916</Longitude>
  </Street>
  <Street>
    <NativeName>בזל</NativeName>
    <ParentName>ירושלים, ישראל</ParentName>
    <AlternateName>באזל</AlternateName>
    <Latitude>31.784588</Latitude>
    <Longitude>35.192710</Longitude>
  </Street>
  <CityRegion>
    <NativeName>בטאנה</NativeName>
    <ParentName>ירושלים, ישראל</ParentName>
    <Latitude>31.796582</Latitude>
    <Longitude>35.251199</Longitude>
  </CityRegion>
  <CityRegion>
    <NativeName>בטיש מדיסייב</NativeName>
    <ParentName>ירושלים, ישראל</ParentName>
    <Latitude>31.784852</Latitude>
    <Longitude>35.218858</Longitude>
  </CityRegion>
  <CityRegion>
    <NativeName>בי"ס אגרון</NativeName>
    <ParentName>ירושלים, ישראל</ParentName>
    <Latitude>31.762600</Latitude>
    <Longitude>35.177381</Longitude>
  </CityRegion>
  <CityRegion>
    <NativeName>בי"ס אהבת ישראל</NativeName>
    <ParentName>ירושלים, ישראל</ParentName>
    <Latitude>31.748873</Latitude>
    <Longitude>35.217723</Longitude>
  </CityRegion>
  <CityRegion>
    <NativeName>בי"ס אור תורה סטון לבנות</NativeName>
    <ParentName>ירושלים, ישראל</ParentName>
    <Latitude>31.809775</Latitude>
    <Longitude>35.198660</Longitude>
  </CityRegion>
  <CityRegion>
    <NativeName>בי"ס בית יעקב אבן דנן</NativeName>
    <ParentName>ירושלים, ישראל</ParentName>
    <Latitude>31.780638</Latitude>
    <Longitude>35.173580</Longitude>
  </CityRegion>
  <CityRegion>
    <NativeName>בי"ס בנות ויז'ניץ</NativeName>
    <ParentName>ירושלים, ישראל</ParentName>
    <Latitude>31.797304</Latitude>
    <Longitude>35.199949</Longitude>
  </CityRegion>
  <CityRegion>
    <NativeName>בי"ס יד המורה</NativeName>
    <ParentName>ירושלים, ישראל</ParentName>
    <Latitude>31.801900</Latitude>
    <Longitude>35.227511</Longitude>
  </CityRegion>
  <CityRegion>
    <NativeName>בי"ס לבנות שירת דבורה</NativeName>
    <ParentName>ירושלים, ישראל</ParentName>
    <Latitude>31.803784</Latitude>
    <Longitude>35.215276</Longitude>
  </CityRegion>
  <CityRegion>
    <NativeName>בי"ס לוריא</NativeName>
    <ParentName>ירושלים, ישראל</ParentName>
    <Latitude>31.763221</Latitude>
    <Longitude>35.204586</Longitude>
  </CityRegion>
  <CityRegion>
    <NativeName>בי"ס למדעים ע"ש אילן רמון</NativeName>
    <ParentName>ירושלים, ישראל</ParentName>
    <Latitude>31.723637</Latitude>
    <Longitude>35.220213</Longitude>
  </CityRegion>
  <CityRegion>
    <NativeName>בי"ס מיימון</NativeName>
    <ParentName>ירושלים, ישראל</ParentName>
    <Latitude>31.788709</Latitude>
    <Longitude>35.196599</Longitude>
  </CityRegion>
  <CityRegion>
    <NativeName>בי"ס מקיף זיו ומרקוס</NativeName>
    <ParentName>ירושלים, ישראל</ParentName>
    <Latitude>31.776990</Latitude>
    <Longitude>35.186250</Longitude>
  </CityRegion>
  <CityRegion>
    <NativeName>בי"ס נועם פסגת זאב ממ"ד</NativeName>
    <ParentName>ירושלים, ישראל</ParentName>
    <Latitude>31.815307</Latitude>
    <Longitude>35.253004</Longitude>
  </CityRegion>
  <CityRegion>
    <NativeName>בי"ס פסגת זאב ב'</NativeName>
    <ParentName>ירושלים, ישראל</ParentName>
    <Latitude>31.828539</Latitude>
    <Longitude>35.245365</Longitude>
  </CityRegion>
  <CityRegion>
    <NativeName>בי"ס פסגת זאב מזרח א'</NativeName>
    <ParentName>ירושלים, ישראל</ParentName>
    <Latitude>31.819277</Latitude>
    <Longitude>35.243906</Longitude>
  </CityRegion>
  <CityRegion>
    <NativeName>בי"ס פסגת זאב צפון</NativeName>
    <ParentName>ירושלים, ישראל</ParentName>
    <Latitude>31.835919</Latitude>
    <Longitude>35.235322</Longitude>
  </CityRegion>
  <CityRegion>
    <NativeName>בי"ס תל"י</NativeName>
    <ParentName>ירושלים, ישראל</ParentName>
    <Latitude>31.820181</Latitude>
    <Longitude>35.253090</Longitude>
  </CityRegion>
  <Street>
    <NativeName>ביבאס</NativeName>
    <ParentName>ירושלים, ישראל</ParentName>
    <Latitude>31.785127</Latitude>
    <Longitude>35.208697</Longitude>
  </Street>
  <Street>
    <NativeName>ביבארס</NativeName>
    <ParentName>ירושלים, ישראל</ParentName>
    <Latitude>31.794359</Latitude>
    <Longitude>35.230912</Longitude>
  </Street>
  <Street>
    <NativeName>ביל"ו</NativeName>
    <ParentName>ירושלים, ישראל</ParentName>
    <Latitude>31.762734</Latitude>
    <Longitude>35.209945</Longitude>
  </Street>
  <Street>
    <NativeName>בינת יששכר</NativeName>
    <ParentName>ירושלים, ישראל</ParentName>
    <Latitude>31.796634</Latitude>
    <Longitude>35.207818</Longitude>
  </Street>
  <Street>
    <NativeName>ביסאן</NativeName>
    <ParentName>ירושלים, ישראל</ParentName>
    <Latitude>31.846288</Latitude>
    <Longitude>35.227643</Longitude>
  </Street>
  <Street>
    <NativeName>ביר אל סביל</NativeName>
    <ParentName>ירושלים, ישראל</ParentName>
    <Latitude>31.812228</Latitude>
    <Longitude>35.225249</Longitude>
  </Street>
  <Street>
    <NativeName>ביר סאלם</NativeName>
    <ParentName>ירושלים, ישראל</ParentName>
    <Latitude>31.797503</Latitude>
    <Longitude>35.247058</Longitude>
  </Street>
  <Street>
    <NativeName>בית אל</NativeName>
    <ParentName>ירושלים, ישראל</ParentName>
    <Latitude>31.774839</Latitude>
    <Longitude>35.231463</Longitude>
  </Street>
  <Street>
    <NativeName>בית אשל</NativeName>
    <ParentName>ירושלים, ישראל</ParentName>
    <Latitude>31.764084</Latitude>
    <Longitude>35.210374</Longitude>
  </Street>
  <Street>
    <NativeName>בית הדפוס</NativeName>
    <ParentName>ירושלים, ישראל</ParentName>
    <Latitude>31.786090</Latitude>
    <Longitude>35.186185</Longitude>
  </Street>
  <Street>
    <NativeName>בית היוצר</NativeName>
    <ParentName>ירושלים, ישראל</ParentName>
    <Latitude>31.747202</Latitude>
    <Longitude>35.211148</Longitude>
  </Street>
  <CityRegion>
    <NativeName>בית הכרם</NativeName>
    <ParentName>ירושלים, ישראל</ParentName>
    <Latitude>31.777548</Latitude>
    <Longitude>35.189440</Longitude>
  </CityRegion>
  <Street>
    <NativeName>בית הכרם</NativeName>
    <ParentName>ירושלים, ישראל</ParentName>
    <Latitude>31.780612</Latitude>
    <Longitude>35.190604</Longitude>
  </Street>
  <Street>
    <NativeName>בית הערבה</NativeName>
    <ParentName>ירושלים, ישראל</ParentName>
    <Latitude>31.748635</Latitude>
    <Longitude>35.220678</Longitude>
  </Street>
  <Street>
    <NativeName>בית השואבה</NativeName>
    <ParentName>ירושלים, ישראל</ParentName>
    <Latitude>31.774428</Latitude>
    <Longitude>35.232758</Longitude>
  </Street>
  <CityRegion>
    <NativeName>בית וגן</NativeName>
    <ParentName>ירושלים, ישראל</ParentName>
    <Latitude>31.768379</Latitude>
    <Longitude>35.184947</Longitude>
  </CityRegion>
  <CityRegion>
    <NativeName>בית חנינא</NativeName>
    <ParentName>ירושלים, ישראל</ParentName>
    <Latitude>31.830131</Latitude>
    <Longitude>35.225205</Longitude>
  </CityRegion>
  <CityRegion>
    <NativeName>בית ילין</NativeName>
    <ParentName>ירושלים, ישראל</ParentName>
    <Latitude>31.792649</Latitude>
    <Longitude>35.164059</Longitude>
  </CityRegion>
  <Street>
    <NativeName>בית יעקב</NativeName>
    <ParentName>ירושלים, ישראל</ParentName>
    <Latitude>31.785294</Latitude>
    <Longitude>35.211451</Longitude>
  </Street>
  <Street>
    <NativeName>בית יצחק</NativeName>
    <ParentName>ירושלים, ישראל</ParentName>
    <Latitude>31.788419</Latitude>
    <Longitude>35.175154</Longitude>
  </Street>
  <CityRegion>
    <NativeName>בית ישראל</NativeName>
    <ParentName>ירושלים, ישראל</ParentName>
    <Latitude>31.787772</Latitude>
    <Longitude>35.225222</Longitude>
  </CityRegion>
  <CityRegion>
    <NativeName>בית מדרש בעלזא</NativeName>
    <ParentName>ירושלים, ישראל</ParentName>
    <Latitude>31.797144</Latitude>
    <Longitude>35.207720</Longitude>
  </CityRegion>
  <CityRegion>
    <NativeName>בית משפט השלום</NativeName>
    <ParentName>ירושלים, ישראל</ParentName>
    <Latitude>31.780878</Latitude>
    <Longitude>35.222617</Longitude>
  </CityRegion>
  <CityRegion>
    <NativeName>בית משפט מחוזי</NativeName>
    <ParentName>ירושלים, ישראל</ParentName>
    <Latitude>31.787753</Latitude>
    <Longitude>35.230043</Longitude>
  </CityRegion>
  <Street>
    <NativeName>בית פאגי</NativeName>
    <ParentName>ירושלים, ישראל</ParentName>
    <Latitude>31.778416</Latitude>
    <Longitude>35.250491</Longitude>
  </Street>
  <Street>
    <NativeName>בית צור</NativeName>
    <ParentName>ירושלים, ישראל</ParentName>
    <Latitude>31.783558</Latitude>
    <Longitude>35.210850</Longitude>
  </Street>
  <CityRegion>
    <NativeName>בית קהילת ידידיה</NativeName>
    <ParentName>ירושלים, ישראל</ParentName>
    <Latitude>31.755901</Latitude>
    <Longitude>35.216178</Longitude>
  </CityRegion>
  <Street>
    <NativeName>בית שערים</NativeName>
    <ParentName>ירושלים, ישראל</ParentName>
    <Latitude>31.789997</Latitude>
    <Longitude>35.196189</Longitude>
  </Street>
  <Street>
    <NativeName>בית"ר</NativeName>
    <ParentName>ירושלים, ישראל</ParentName>
    <Latitude>31.752645</Latitude>
    <Longitude>35.224307</Longitude>
  </Street>
  <Street>
    <NativeName>בלכר</NativeName>
    <ParentName>ירושלים, ישראל</ParentName>
    <Latitude>31.786669</Latitude>
    <Longitude>35.222949</Longitude>
  </Street>
  <Street>
    <NativeName>בן בבא</NativeName>
    <ParentName>ירושלים, ישראל</ParentName>
    <Latitude>31.757329</Latitude>
    <Longitude>35.206774</Longitude>
  </Street>
  <Street>
    <NativeName>בן גבריאל</NativeName>
    <ParentName>ירושלים, ישראל</ParentName>
    <Latitude>31.750190</Latitude>
    <Longitude>35.220900</Longitude>
  </Street>
  <Street>
    <NativeName>בן דוסא</NativeName>
    <ParentName>ירושלים, ישראל</ParentName>
    <Latitude>31.750889</Latitude>
    <Longitude>35.205958</Longitude>
  </Street>
  <Street>
    <NativeName>בן הלל</NativeName>
    <ParentName>ירושלים, ישראל</ParentName>
    <Latitude>31.781506</Latitude>
    <Longitude>35.217643</Longitude>
  </Street>
  <Street>
    <NativeName>בן טבאי</NativeName>
    <ParentName>ירושלים, ישראל</ParentName>
    <Latitude>31.757448</Latitude>
    <Longitude>35.204912</Longitude>
  </Street>
  <Street>
    <NativeName>בן יפונה</NativeName>
    <ParentName>ירושלים, ישראל</ParentName>
    <Latitude>31.756600</Latitude>
    <Longitude>35.219458</Longitude>
  </Street>
  <Street>
    <NativeName>בן לברט</NativeName>
    <ParentName>ירושלים, ישראל</ParentName>
    <Latitude>31.770993</Latitude>
    <Longitude>35.210605</Longitude>
  </Street>
  <Street>
    <NativeName>בן נריה</NativeName>
    <ParentName>ירושלים, ישראל</ParentName>
    <Latitude>31.781858</Latitude>
    <Longitude>35.212099</Longitude>
  </Street>
  <Street>
    <NativeName>בן סירא</NativeName>
    <ParentName>ירושלים, ישראל</ParentName>
    <Latitude>31.779179</Latitude>
    <Longitude>35.221499</Longitude>
  </Street>
  <Street>
    <NativeName>בן סרוק</NativeName>
    <ParentName>ירושלים, ישראל</ParentName>
    <AlternateName>בן סורק</AlternateName>
    <Latitude>31.770608</Latitude>
    <Longitude>35.211139</Longitude>
  </Street>
  <Street>
    <NativeName>בן עזאי</NativeName>
    <ParentName>ירושלים, ישראל</ParentName>
    <Latitude>31.759071</Latitude>
    <Longitude>35.217005</Longitude>
  </Street>
  <Street>
    <NativeName>בן עטר</NativeName>
    <ParentName>ירושלים, ישראל</ParentName>
    <Latitude>31.818088</Latitude>
    <Longitude>35.192106</Longitude>
  </Street>
  <Street>
    <NativeName>בן ציון אטון</NativeName>
    <ParentName>ירושלים, ישראל</ParentName>
    <Latitude>31.800313</Latitude>
    <Longitude>35.215226</Longitude>
  </Street>
  <Street>
    <NativeName>בן ציון גול</NativeName>
    <ParentName>ירושלים, ישראל</ParentName>
    <Latitude>31.793231</Latitude>
    <Longitude>35.221045</Longitude>
  </Street>
  <Street>
    <NativeName>בן ציון דינור</NativeName>
    <ParentName>ירושלים, ישראל</ParentName>
    <Latitude>31.769435</Latitude>
    <Longitude>35.192325</Longitude>
  </Street>
  <Street>
    <NativeName>בן ציון ליאון</NativeName>
    <ParentName>ירושלים, ישראל</ParentName>
    <Latitude>31.820048</Latitude>
    <Longitude>35.257487</Longitude>
  </Street>
  <Street>
    <NativeName>בן ציון</NativeName>
    <ParentName>ירושלים, ישראל</ParentName>
    <Latitude>31.788897</Latitude>
    <Longitude>35.195360</Longitude>
  </Street>
  <Street>
    <NativeName>בן שמעון</NativeName>
    <ParentName>ירושלים, ישראל</ParentName>
    <Latitude>31.776959</Latitude>
    <Longitude>35.222133</Longitude>
  </Street>
  <Street>
    <NativeName>בנג'מין נונייז</NativeName>
    <ParentName>ירושלים, ישראל</ParentName>
    <Latitude>31.748899</Latitude>
    <Longitude>35.173369</Longitude>
  </Street>
  <Street>
    <NativeName>בני אומיה</NativeName>
    <ParentName>ירושלים, ישראל</ParentName>
    <Latitude>31.792953</Latitude>
    <Longitude>35.237808</Longitude>
  </Street>
  <Street>
    <NativeName>בני ברית</NativeName>
    <ParentName>ירושלים, ישראל</ParentName>
    <Latitude>31.785163</Latitude>
    <Longitude>35.219758</Longitude>
  </Street>
  <Street>
    <NativeName>בני בתירא</NativeName>
    <ParentName>ירושלים, ישראל</ParentName>
    <Latitude>31.757279</Latitude>
    <Longitude>35.204022</Longitude>
  </Street>
  <Street>
    <NativeName>בניהו</NativeName>
    <ParentName>ירושלים, ישראל</ParentName>
    <Latitude>31.763168</Latitude>
    <Longitude>35.215946</Longitude>
  </Street>
  <CityRegion>
    <NativeName>בניין ברגמן</NativeName>
    <ParentName>ירושלים, ישראל</ParentName>
    <Latitude>31.772812</Latitude>
    <Longitude>35.199670</Longitude>
  </CityRegion>
  <CityRegion>
    <NativeName>בניין ברמן</NativeName>
    <ParentName>ירושלים, ישראל</ParentName>
    <Latitude>31.777502</Latitude>
    <Longitude>35.196342</Longitude>
  </CityRegion>
  <CityRegion>
    <NativeName>בניין וייסמן</NativeName>
    <ParentName>ירושלים, ישראל</ParentName>
    <Latitude>31.772960</Latitude>
    <Longitude>35.199294</Longitude>
  </CityRegion>
  <CityRegion>
    <NativeName>בניין לוין</NativeName>
    <ParentName>ירושלים, ישראל</ParentName>
    <Latitude>31.775360</Latitude>
    <Longitude>35.197920</Longitude>
  </CityRegion>
  <Street>
    <NativeName>בנימין ד'ישראלי</NativeName>
    <ParentName>ירושלים, ישראל</ParentName>
    <Latitude>31.769860</Latitude>
    <Longitude>35.219277</Longitude>
  </Street>
  <Street>
    <NativeName>בנימין מזר</NativeName>
    <ParentName>ירושלים, ישראל</ParentName>
    <Latitude>31.791183</Latitude>
    <Longitude>35.243956</Longitude>
  </Street>
  <Street>
    <NativeName>בנימין מטודלה</NativeName>
    <ParentName>ירושלים, ישראל</ParentName>
    <AlternateName>מטודלה</AlternateName>
    <Latitude>31.771974</Latitude>
    <Longitude>35.211977</Longitude>
  </Street>
  <Street>
    <NativeName>בנימין מינץ</NativeName>
    <ParentName>ירושלים, ישראל</ParentName>
    <Latitude>31.823764</Latitude>
    <Longitude>35.192025</Longitude>
  </Street>
  <Street>
    <NativeName>בנק ישראל</NativeName>
    <ParentName>ירושלים, ישראל</ParentName>
    <Latitude>31.782227</Latitude>
    <Longitude>35.200495</Longitude>
  </Street>
  <Street>
    <NativeName>בעל השאילתות</NativeName>
    <ParentName>ירושלים, ישראל</ParentName>
    <Latitude>31.789665</Latitude>
    <Longitude>35.193681</Longitude>
  </Street>
  <Street>
    <NativeName>בעל התניא</NativeName>
    <ParentName>ירושלים, ישראל</ParentName>
    <Latitude>31.786434</Latitude>
    <Longitude>35.223565</Longitude>
  </Street>
  <Street>
    <NativeName>בעלי המלאכה</NativeName>
    <ParentName>ירושלים, ישראל</ParentName>
    <Latitude>31.748338</Latitude>
    <Longitude>35.209720</Longitude>
  </Street>
  <Street>
    <NativeName>בצלאל אשכנזי</NativeName>
    <ParentName>ירושלים, ישראל</ParentName>
    <Latitude>31.791125</Latitude>
    <Longitude>35.222650</Longitude>
  </Street>
  <Street>
    <NativeName>בצלאל בזק</NativeName>
    <ParentName>ירושלים, ישראל</ParentName>
    <Latitude>31.765732</Latitude>
    <Longitude>35.198642</Longitude>
  </Street>
  <Street>
    <NativeName>בצלאל</NativeName>
    <ParentName>ירושלים, ישראל</ParentName>
    <Latitude>31.781596</Latitude>
    <Longitude>35.211486</Longitude>
  </Street>
  <Street>
    <NativeName>בר אילן</NativeName>
    <ParentName>ירושלים, ישראל</ParentName>
    <Latitude>31.794673</Latitude>
    <Longitude>35.217737</Longitude>
  </Street>
  <Street>
    <NativeName>בר גיורא</NativeName>
    <ParentName>ירושלים, ישראל</ParentName>
    <Latitude>31.789232</Latitude>
    <Longitude>35.210900</Longitude>
  </Street>
  <Street>
    <NativeName>בר יוחאי</NativeName>
    <ParentName>ירושלים, ישראל</ParentName>
    <Latitude>31.753125</Latitude>
    <Longitude>35.196533</Longitude>
  </Street>
  <Street>
    <NativeName>בר כוכבא</NativeName>
    <ParentName>ירושלים, ישראל</ParentName>
    <Latitude>31.804375</Latitude>
    <Longitude>35.239047</Longitude>
  </Street>
  <Street>
    <NativeName>ברוך דובדבני</NativeName>
    <ParentName>ירושלים, ישראל</ParentName>
    <Latitude>31.761967</Latitude>
    <Longitude>35.191772</Longitude>
  </Street>
  <CityRegion>
    <NativeName>ברוך פארם</NativeName>
    <ParentName>ירושלים, ישראל</ParentName>
    <Latitude>31.788756</Latitude>
    <Longitude>35.195844</Longitude>
  </CityRegion>
  <Street>
    <NativeName>ברוך צוקרמן</NativeName>
    <ParentName>ירושלים, ישראל</ParentName>
    <Latitude>31.844207</Latitude>
    <Longitude>35.243735</Longitude>
  </Street>
  <Street>
    <NativeName>ברוך רפפורט</NativeName>
    <ParentName>ירושלים, ישראל</ParentName>
    <Latitude>31.789264</Latitude>
    <Longitude>35.223674</Longitude>
  </Street>
  <Street>
    <NativeName>ברוריה</NativeName>
    <ParentName>ירושלים, ישראל</ParentName>
    <Latitude>31.760926</Latitude>
    <Longitude>35.211278</Longitude>
  </Street>
  <Street>
    <NativeName>ברזיל</NativeName>
    <ParentName>ירושלים, ישראל</ParentName>
    <Latitude>31.765311</Latitude>
    <Longitude>35.172554</Longitude>
  </Street>
  <Street>
    <NativeName>ברזילי</NativeName>
    <ParentName>ירושלים, ישראל</ParentName>
    <Latitude>31.752285</Latitude>
    <Longitude>35.222205</Longitude>
  </Street>
  <Street>
    <NativeName>ברכה צפירה</NativeName>
    <ParentName>ירושלים, ישראל</ParentName>
    <Latitude>31.755382</Latitude>
    <Longitude>35.185874</Longitude>
  </Street>
  <Street>
    <NativeName>ברכת אברהם</NativeName>
    <ParentName>ירושלים, ישראל</ParentName>
    <Latitude>31.811858</Latitude>
    <Longitude>35.217451</Longitude>
  </Street>
  <Street>
    <NativeName>ברל לוקר</NativeName>
    <ParentName>ירושלים, ישראל</ParentName>
    <Latitude>31.750596</Latitude>
    <Longitude>35.201029</Longitude>
  </Street>
  <Street>
    <NativeName>ברניקי</NativeName>
    <ParentName>ירושלים, ישראל</ParentName>
    <Latitude>31.757536</Latitude>
    <Longitude>35.200502</Longitude>
  </Street>
  <Street>
    <NativeName>ברנר</NativeName>
    <ParentName>ירושלים, ישראל</ParentName>
    <Latitude>31.772631</Latitude>
    <Longitude>35.218262</Longitude>
  </Street>
  <Street>
    <NativeName>ברק</NativeName>
    <ParentName>ירושלים, ישראל</ParentName>
    <Latitude>31.761538</Latitude>
    <Longitude>35.220332</Longitude>
  </Street>
  <Street>
    <NativeName>ברקאי</NativeName>
    <ParentName>ירושלים, ישראל</ParentName>
    <Latitude>31.774458</Latitude>
    <Longitude>35.230977</Longitude>
  </Street>
  <Street>
    <NativeName>ברקוק</NativeName>
    <ParentName>ירושלים, ישראל</ParentName>
    <Latitude>31.779657</Latitude>
    <Longitude>35.233035</Longitude>
  </Street>
  <Street>
    <NativeName>ברקת</NativeName>
    <ParentName>ירושלים, ישראל</ParentName>
    <Latitude>31.729068</Latitude>
    <Longitude>35.191529</Longitude>
  </Street>
  <Street>
    <NativeName>בת שבע</NativeName>
    <ParentName>ירושלים, ישראל</ParentName>
    <Latitude>31.765005</Latitude>
    <Longitude>35.226566</Longitude>
  </Street>
  <Street>
    <NativeName>בתי ורשה</NativeName>
    <ParentName>ירושלים, ישראל</ParentName>
    <Latitude>31.787894</Latitude>
    <Longitude>35.220060</Longitude>
  </Street>
  <Street>
    <NativeName>בתי מחסה</NativeName>
    <ParentName>ירושלים, ישראל</ParentName>
    <Latitude>31.774446</Latitude>
    <Longitude>35.233308</Longitude>
  </Street>
  <Street>
    <NativeName>ג'בל אל ג'דיד</NativeName>
    <ParentName>ירושלים, ישראל</ParentName>
    <Latitude>31.744365</Latitude>
    <Longitude>35.206453</Longitude>
  </Street>
  <CityRegion>
    <NativeName>ג'בל בטן אל הווא הר המשחית</NativeName>
    <ParentName>ירושלים, ישראל</ParentName>
    <Latitude>31.765574</Latitude>
    <Longitude>35.240689</Longitude>
  </CityRegion>
  <CityRegion>
    <NativeName>ג'בל מוכבר</NativeName>
    <ParentName>ירושלים, ישראל</ParentName>
    <Latitude>31.754196</Latitude>
    <Longitude>35.239927</Longitude>
  </CityRegion>
  <Street>
    <NativeName>ג'ובראן ח'ליל ג'ובראן</NativeName>
    <ParentName>ירושלים, ישראל</ParentName>
    <Latitude>31.840600</Latitude>
    <Longitude>35.226749</Longitude>
  </Street>
  <Street>
    <NativeName>ג'ורג' אדם סמית</NativeName>
    <ParentName>ירושלים, ישראל</ParentName>
    <Latitude>31.800238</Latitude>
    <Longitude>35.233690</Longitude>
  </Street>
  <Street>
    <NativeName>ג'ורג' אליוט</NativeName>
    <ParentName>ירושלים, ישראל</ParentName>
    <Latitude>31.775338</Latitude>
    <Longitude>35.220524</Longitude>
  </Street>
  <Street>
    <NativeName>ג'ורג' וושינגטון</NativeName>
    <ParentName>ירושלים, ישראל</ParentName>
    <Latitude>31.773385</Latitude>
    <Longitude>35.221360</Longitude>
  </Street>
  <Street>
    <NativeName>ג'יבריל אל מוטראן</NativeName>
    <ParentName>ירושלים, ישראל</ParentName>
    <Latitude>31.843076</Latitude>
    <Longitude>35.232677</Longitude>
  </Street>
  <Street>
    <NativeName>ג'סר א נטף</NativeName>
    <ParentName>ירושלים, ישראל</ParentName>
    <Latitude>31.842394</Latitude>
    <Longitude>35.228650</Longitude>
  </Street>
  <Street>
    <NativeName>ג'עפר א סאדק</NativeName>
    <ParentName>ירושלים, ישראל</ParentName>
    <Latitude>31.841406</Latitude>
    <Longitude>35.231145</Longitude>
  </Street>
  <CityRegion>
    <NativeName>גאולה</NativeName>
    <ParentName>ירושלים, ישראל</ParentName>
    <Latitude>31.789155</Latitude>
    <Longitude>35.219499</Longitude>
  </CityRegion>
  <CityRegion>
    <NativeName>גאולים</NativeName>
    <ParentName>ירושלים, ישראל</ParentName>
    <Latitude>31.756309</Latitude>
    <Longitude>35.220967</Longitude>
  </CityRegion>
  <Street>
    <NativeName>גבע</NativeName>
    <ParentName>ירושלים, ישראל</ParentName>
    <Latitude>31.782108</Latitude>
    <Longitude>35.211413</Longitude>
  </Street>
  <Street>
    <NativeName>גבעון</NativeName>
    <ParentName>ירושלים, ישראל</ParentName>
    <Latitude>31.783040</Latitude>
    <Longitude>35.211477</Longitude>
  </Street>
  <CityRegion>
    <NativeName>גבעת בית הכרם</NativeName>
    <ParentName>ירושלים, ישראל</ParentName>
    <Latitude>31.773456</Latitude>
    <Longitude>35.190468</Longitude>
  </CityRegion>
  <CityRegion>
    <NativeName>גבעת הארבעה</NativeName>
    <ParentName>ירושלים, ישראל</ParentName>
    <Latitude>31.733364</Latitude>
    <Longitude>35.214371</Longitude>
  </CityRegion>
  <CityRegion>
    <NativeName>גבעת הורדים</NativeName>
    <ParentName>ירושלים, ישראל</ParentName>
    <Latitude>31.762064</Latitude>
    <Longitude>35.201478</Longitude>
  </CityRegion>
  <Street>
    <NativeName>גבעת היונים</NativeName>
    <ParentName>ירושלים, ישראל</ParentName>
    <Latitude>31.765958</Latitude>
    <Longitude>35.163846</Longitude>
  </Street>
  <CityRegion>
    <NativeName>גבעת המטוס</NativeName>
    <ParentName>ירושלים, ישראל</ParentName>
    <Latitude>31.738292</Latitude>
    <Longitude>35.208101</Longitude>
  </CityRegion>
  <CityRegion>
    <NativeName>גבעת המיבתר</NativeName>
    <ParentName>ירושלים, ישראל</ParentName>
    <Latitude>31.802724</Latitude>
    <Longitude>35.230758</Longitude>
  </CityRegion>
  <CityRegion>
    <NativeName>גבעת התחמושת</NativeName>
    <ParentName>ירושלים, ישראל</ParentName>
    <Latitude>31.799727</Latitude>
    <Longitude>35.229085</Longitude>
  </CityRegion>
  <Street>
    <NativeName>גבעת משה</NativeName>
    <ParentName>ירושלים, ישראל</ParentName>
    <Latitude>31.797920</Latitude>
    <Longitude>35.216221</Longitude>
  </Street>
  <CityRegion>
    <NativeName>גבעת משואה</NativeName>
    <ParentName>ירושלים, ישראל</ParentName>
    <Latitude>31.749877</Latitude>
    <Longitude>35.168229</Longitude>
  </CityRegion>
  <CityRegion>
    <NativeName>גבעת קומונה</NativeName>
    <ParentName>ירושלים, ישראל</ParentName>
    <Latitude>31.794454</Latitude>
    <Longitude>35.210760</Longitude>
  </CityRegion>
  <CityRegion>
    <NativeName>גבעת קנדה</NativeName>
    <ParentName>ירושלים, ישראל</ParentName>
    <Latitude>31.738003</Latitude>
    <Longitude>35.188291</Longitude>
  </CityRegion>
  <Street>
    <NativeName>גבעת קנדה</NativeName>
    <ParentName>ירושלים, ישראל</ParentName>
    <Latitude>31.737753</Latitude>
    <Longitude>35.187627</Longitude>
  </Street>
  <CityRegion>
    <NativeName>גבעת רם</NativeName>
    <ParentName>ירושלים, ישראל</ParentName>
    <Latitude>31.779123</Latitude>
    <Longitude>35.196724</Longitude>
  </CityRegion>
  <CityRegion>
    <NativeName>גבעת שאול</NativeName>
    <ParentName>ירושלים, ישראל</ParentName>
    <Latitude>31.790544</Latitude>
    <Longitude>35.194715</Longitude>
  </CityRegion>
  <Street>
    <NativeName>גד טדסקי</NativeName>
    <ParentName>ירושלים, ישראל</ParentName>
    <Latitude>31.752150</Latitude>
    <Longitude>35.226617</Longitude>
  </Street>
  <Street>
    <NativeName>גד</NativeName>
    <ParentName>ירושלים, ישראל</ParentName>
    <Latitude>31.756020</Latitude>
    <Longitude>35.217957</Longitude>
  </Street>
  <Street>
    <NativeName>גדוד חרמש</NativeName>
    <ParentName>ירושלים, ישראל</ParentName>
    <Latitude>31.830023</Latitude>
    <Longitude>35.241465</Longitude>
  </Street>
  <Street>
    <NativeName>גדוד מכמש</NativeName>
    <ParentName>ירושלים, ישראל</ParentName>
    <Latitude>31.827360</Latitude>
    <Longitude>35.243452</Longitude>
  </Street>
  <Street>
    <NativeName>גדליה בובליק</NativeName>
    <ParentName>ירושלים, ישראל</ParentName>
    <Latitude>31.815037</Latitude>
    <Longitude>35.201776</Longitude>
  </Street>
  <Street>
    <NativeName>גדליה</NativeName>
    <ParentName>ירושלים, ישראל</ParentName>
    <Latitude>31.760384</Latitude>
    <Longitude>35.223775</Longitude>
  </Street>
  <Street>
    <NativeName>גדליהו אלון</NativeName>
    <ParentName>ירושלים, ישראל</ParentName>
    <Latitude>31.766893</Latitude>
    <Longitude>35.217681</Longitude>
  </Street>
  <Street>
    <NativeName>גדעון האוזנר</NativeName>
    <ParentName>ירושלים, ישראל</ParentName>
    <Latitude>31.758594</Latitude>
    <Longitude>35.191285</Longitude>
  </Street>
  <Street>
    <NativeName>גדעון</NativeName>
    <ParentName>ירושלים, ישראל</ParentName>
    <Latitude>31.760202</Latitude>
    <Longitude>35.219670</Longitude>
  </Street>
  <Street>
    <NativeName>גדרה</NativeName>
    <ParentName>ירושלים, ישראל</ParentName>
    <Latitude>31.794049</Latitude>
    <Longitude>35.199348</Longitude>
  </Street>
  <Street>
    <NativeName>גואטמלה</NativeName>
    <ParentName>ירושלים, ישראל</ParentName>
    <Latitude>31.757182</Latitude>
    <Longitude>35.178928</Longitude>
  </Street>
  <Street>
    <NativeName>גוגה רג'ואן</NativeName>
    <ParentName>ירושלים, ישראל</ParentName>
    <Latitude>31.761122</Latitude>
    <Longitude>35.188544</Longitude>
  </Street>
  <Street>
    <NativeName>גולומב</NativeName>
    <ParentName>ירושלים, ישראל</ParentName>
    <Latitude>31.755692</Latitude>
    <Longitude>35.184083</Longitude>
  </Street>
  <CityRegion>
    <NativeName>גונן א'</NativeName>
    <ParentName>ירושלים, ישראל</ParentName>
    <Latitude>31.755359</Latitude>
    <Longitude>35.206348</Longitude>
  </CityRegion>
  <CityRegion>
    <NativeName>גונן ב'</NativeName>
    <ParentName>ירושלים, ישראל</ParentName>
    <Latitude>31.752042</Latitude>
    <Longitude>35.206708</Longitude>
  </CityRegion>
  <CityRegion>
    <NativeName>גונן ג'</NativeName>
    <ParentName>ירושלים, ישראל</ParentName>
    <Latitude>31.753994</Latitude>
    <Longitude>35.200846</Longitude>
  </CityRegion>
  <CityRegion>
    <NativeName>גונן ד'</NativeName>
    <ParentName>ירושלים, ישראל</ParentName>
    <Latitude>31.754654</Latitude>
    <Longitude>35.204562</Longitude>
  </CityRegion>
  <CityRegion>
    <NativeName>גונן ה'</NativeName>
    <ParentName>ירושלים, ישראל</ParentName>
    <Latitude>31.757682</Latitude>
    <Longitude>35.199248</Longitude>
  </CityRegion>
  <CityRegion>
    <NativeName>גונן ו'</NativeName>
    <ParentName>ירושלים, ישראל</ParentName>
    <Latitude>31.757043</Latitude>
    <Longitude>35.208485</Longitude>
  </CityRegion>
  <CityRegion>
    <NativeName>גונן ח'</NativeName>
    <ParentName>ירושלים, ישראל</ParentName>
    <Latitude>31.755142</Latitude>
    <Longitude>35.196130</Longitude>
  </CityRegion>
  <CityRegion>
    <NativeName>גונן ט'</NativeName>
    <ParentName>ירושלים, ישראל</ParentName>
    <Latitude>31.755104</Latitude>
    <Longitude>35.192712</Longitude>
  </CityRegion>
  <CityRegion>
    <NativeName>גונן קטמון</NativeName>
    <ParentName>ירושלים, ישראל</ParentName>
    <Latitude>31.763917</Latitude>
    <Longitude>35.208634</Longitude>
  </CityRegion>
  <Street>
    <NativeName>גזר</NativeName>
    <ParentName>ירושלים, ישראל</ParentName>
    <Latitude>31.784184</Latitude>
    <Longitude>35.210768</Longitude>
  </Street>
  <Street>
    <NativeName>גיזה</NativeName>
    <ParentName>ירושלים, ישראל</ParentName>
    <Latitude>31.809614</Latitude>
    <Longitude>35.196538</Longitude>
  </Street>
  <Street>
    <NativeName>גיחון</NativeName>
    <ParentName>ירושלים, ישראל</ParentName>
    <Latitude>31.763638</Latitude>
    <Longitude>35.226519</Longitude>
  </Street>
  <Street>
    <NativeName>גיטל דינוביץ</NativeName>
    <ParentName>ירושלים, ישראל</ParentName>
    <Latitude>31.786666</Latitude>
    <Longitude>35.211196</Longitude>
  </Street>
  <CityRegion>
    <NativeName>גילה</NativeName>
    <ParentName>ירושלים, ישראל</ParentName>
    <Latitude>31.731480</Latitude>
    <Longitude>35.186812</Longitude>
  </CityRegion>
  <Street>
    <NativeName>גל</NativeName>
    <ParentName>ירושלים, ישראל</ParentName>
    <Latitude>31.824910</Latitude>
    <Longitude>35.243560</Longitude>
  </Street>
  <Street>
    <NativeName>גלבר</NativeName>
    <ParentName>ירושלים, ישראל</ParentName>
    <Latitude>31.759646</Latitude>
    <Longitude>35.180325</Longitude>
  </Street>
  <Street>
    <NativeName>גלעד</NativeName>
    <ParentName>ירושלים, ישראל</ParentName>
    <Latitude>31.774319</Latitude>
    <Longitude>35.231976</Longitude>
  </Street>
  <Street>
    <NativeName>גלעדי</NativeName>
    <ParentName>ירושלים, ישראל</ParentName>
    <Latitude>31.753642</Latitude>
    <Longitude>35.223492</Longitude>
  </Street>
  <Street>
    <NativeName>גמול</NativeName>
    <ParentName>ירושלים, ישראל</ParentName>
    <Latitude>31.790549</Latitude>
    <Longitude>35.225334</Longitude>
  </Street>
  <CityRegion>
    <NativeName>גן אברהם</NativeName>
    <ParentName>ירושלים, ישראל</ParentName>
    <Latitude>31.766882</Latitude>
    <Longitude>35.185219</Longitude>
  </CityRegion>
  <CityRegion>
    <NativeName>גן איש שלום</NativeName>
    <ParentName>ירושלים, ישראל</ParentName>
    <Latitude>31.758965</Latitude>
    <Longitude>35.183287</Longitude>
  </CityRegion>
  <CityRegion>
    <NativeName>גן ארזי הבירה</NativeName>
    <ParentName>ירושלים, ישראל</ParentName>
    <Latitude>31.792860</Latitude>
    <Longitude>35.224720</Longitude>
  </CityRegion>
  <CityRegion>
    <NativeName>גן ארכיאולוגי</NativeName>
    <ParentName>ירושלים, ישראל</ParentName>
    <Latitude>31.772850</Latitude>
    <Longitude>35.230902</Longitude>
  </CityRegion>
  <CityRegion>
    <NativeName>גן בוני ירושלים</NativeName>
    <ParentName>ירושלים, ישראל</ParentName>
    <Latitude>31.773417</Latitude>
    <Longitude>35.227382</Longitude>
  </CityRegion>
  <CityRegion>
    <NativeName>גן בר יוחאי</NativeName>
    <ParentName>ירושלים, ישראל</ParentName>
    <Latitude>31.753706</Latitude>
    <Longitude>35.198038</Longitude>
  </CityRegion>
  <CityRegion>
    <NativeName>גן גבעת שפירא</NativeName>
    <ParentName>ירושלים, ישראל</ParentName>
    <Latitude>31.805509</Latitude>
    <Longitude>35.240086</Longitude>
  </CityRegion>
  <CityRegion>
    <NativeName>גן החיות התנ"כי טיש</NativeName>
    <ParentName>ירושלים, ישראל</ParentName>
    <Latitude>31.746707</Latitude>
    <Longitude>35.175850</Longitude>
  </CityRegion>
  <CityRegion>
    <NativeName>גן הידע חורבת ראס אבו מערוף</NativeName>
    <ParentName>ירושלים, ישראל</ParentName>
    <Latitude>31.820378</Latitude>
    <Longitude>35.240963</Longitude>
  </CityRegion>
  <CityRegion>
    <NativeName>גן ירושלים</NativeName>
    <ParentName>ירושלים, ישראל</ParentName>
    <Latitude>31.798829</Latitude>
    <Longitude>35.228240</Longitude>
  </CityRegion>
  <CityRegion>
    <NativeName>גן משה</NativeName>
    <ParentName>ירושלים, ישראל</ParentName>
    <Latitude>31.777736</Latitude>
    <Longitude>35.186723</Longitude>
  </CityRegion>
  <CityRegion>
    <NativeName>גן סאקר</NativeName>
    <ParentName>ירושלים, ישראל</ParentName>
    <Latitude>31.780600</Latitude>
    <Longitude>35.207700</Longitude>
  </CityRegion>
  <CityRegion>
    <NativeName>גן פרחי</NativeName>
    <ParentName>ירושלים, ישראל</ParentName>
    <Latitude>31.837052</Latitude>
    <Longitude>35.228670</Longitude>
  </CityRegion>
  <CityRegion>
    <NativeName>גן רבינוביץ' גן המפלצת</NativeName>
    <ParentName>ירושלים, ישראל</ParentName>
    <Latitude>31.762080</Latitude>
    <Longitude>35.172162</Longitude>
  </CityRegion>
  <CityRegion>
    <NativeName>גן רוזנפלד</NativeName>
    <ParentName>ירושלים, ישראל</ParentName>
    <Latitude>31.844136</Latitude>
    <Longitude>35.240816</Longitude>
  </CityRegion>
  <CityRegion>
    <NativeName>גן שיף</NativeName>
    <ParentName>ירושלים, ישראל</ParentName>
    <Latitude>31.759485</Latitude>
    <Longitude>35.206432</Longitude>
  </CityRegion>
  <CityRegion>
    <NativeName>גן שמורק</NativeName>
    <ParentName>ירושלים, ישראל</ParentName>
    <Latitude>31.765658</Latitude>
    <Longitude>35.175771</Longitude>
  </CityRegion>
  <CityRegion>
    <NativeName>גן שרה שנירר</NativeName>
    <ParentName>ירושלים, ישראל</ParentName>
    <Latitude>31.798299</Latitude>
    <Longitude>35.206776</Longitude>
  </CityRegion>
  <Street>
    <NativeName>גנרל פייר קניג</NativeName>
    <ParentName>ירושלים, ישראל</ParentName>
    <AlternateName>פייר קניג</AlternateName>
    <Latitude>31.754826</Latitude>
    <Longitude>35.214425</Longitude>
  </Street>
  <Street>
    <NativeName>גרוזנברג</NativeName>
    <ParentName>ירושלים, ישראל</ParentName>
    <Latitude>31.782424</Latitude>
    <Longitude>35.223586</Longitude>
  </Street>
  <CityRegion>
    <NativeName>גרוסמן</NativeName>
    <ParentName>ירושלים, ישראל</ParentName>
    <Latitude>31.786596</Latitude>
    <Longitude>35.180571</Longitude>
  </CityRegion>
  <Street>
    <NativeName>גרטרוד קראוס</NativeName>
    <ParentName>ירושלים, ישראל</ParentName>
    <Latitude>31.748499</Latitude>
    <Longitude>35.170106</Longitude>
  </Street>
  <Street>
    <NativeName>גרייבסקי</NativeName>
    <ParentName>ירושלים, ישראל</ParentName>
    <Latitude>31.790389</Latitude>
    <Longitude>35.190269</Longitude>
  </Street>
  <Street>
    <NativeName>גרשון אגרון</NativeName>
    <ParentName>ירושלים, ישראל</ParentName>
    <Latitude>31.776652</Latitude>
    <Longitude>35.219872</Longitude>
  </Street>
  <Street>
    <NativeName>גרשון המלמד</NativeName>
    <ParentName>ירושלים, ישראל</ParentName>
    <Latitude>31.788170</Latitude>
    <Longitude>35.181679</Longitude>
  </Street>
  <Street>
    <NativeName>גשר החיים</NativeName>
    <ParentName>ירושלים, ישראל</ParentName>
    <Latitude>31.787572</Latitude>
    <Longitude>35.208330</Longitude>
  </Street>
  <Street>
    <NativeName>גת</NativeName>
    <ParentName>ירושלים, ישראל</ParentName>
    <Latitude>31.786745</Latitude>
    <Longitude>35.196490</Longitude>
  </Street>
  <Street>
    <NativeName>ד"ר גבי אשכר</NativeName>
    <ParentName>ירושלים, ישראל</ParentName>
    <AlternateName>דוקטור גבי אשכר</AlternateName>
    <AlternateName>גבי אשכר</AlternateName>
    <Latitude>31.806145</Latitude>
    <Longitude>35.210413</Longitude>
  </Street>
  <Street>
    <NativeName>ד"ר רינגלבלום</NativeName>
    <ParentName>ירושלים, ישראל</ParentName>
    <AlternateName>ד"ר רינגבלום</AlternateName>
    <AlternateName>רינגנבלום</AlternateName>
    <AlternateName>ד"ר רינגנבלום</AlternateName>
    <AlternateName>דוקטור רינגבלום</AlternateName>
    <AlternateName>רינגבלום</AlternateName>
    <AlternateName>דוקטור רינגלבלום</AlternateName>
    <AlternateName>דוקטור רינגנבלום</AlternateName>
    <AlternateName>רינגלבלום</AlternateName>
    <Latitude>31.759234</Latitude>
    <Longitude>35.172702</Longitude>
  </Street>
  <Street>
    <NativeName>דאחיית אל בריד</NativeName>
    <ParentName>ירושלים, ישראל</ParentName>
    <Latitude>31.845149</Latitude>
    <Longitude>35.230309</Longitude>
  </Street>
  <Street>
    <NativeName>דאר א סלאם</NativeName>
    <ParentName>ירושלים, ישראל</ParentName>
    <Latitude>31.814357</Latitude>
    <Longitude>35.236069</Longitude>
  </Street>
  <Street>
    <NativeName>דב גרונר</NativeName>
    <ParentName>ירושלים, ישראל</ParentName>
    <Latitude>31.749619</Latitude>
    <Longitude>35.236221</Longitude>
  </Street>
  <Street>
    <NativeName>דב הוז</NativeName>
    <ParentName>ירושלים, ישראל</ParentName>
    <Latitude>31.756059</Latitude>
    <Longitude>35.195587</Longitude>
  </Street>
  <Street>
    <NativeName>דב יוסף</NativeName>
    <ParentName>ירושלים, ישראל</ParentName>
    <Latitude>31.742799</Latitude>
    <Longitude>35.197413</Longitude>
  </Street>
  <Street>
    <NativeName>דב סדן</NativeName>
    <ParentName>ירושלים, ישראל</ParentName>
    <Latitude>31.820893</Latitude>
    <Longitude>35.244899</Longitude>
  </Street>
  <Street>
    <NativeName>דב קלימקר</NativeName>
    <ParentName>ירושלים, ישראל</ParentName>
    <Latitude>31.793251</Latitude>
    <Longitude>35.168794</Longitude>
  </Street>
  <Street>
    <NativeName>דב קמחי</NativeName>
    <ParentName>ירושלים, ישראל</ParentName>
    <Latitude>31.766368</Latitude>
    <Longitude>35.206642</Longitude>
  </Street>
  <Street>
    <NativeName>דבורה הנביאה</NativeName>
    <ParentName>ירושלים, ישראל</ParentName>
    <Latitude>31.784767</Latitude>
    <Longitude>35.223520</Longitude>
  </Street>
  <Street>
    <NativeName>דביר</NativeName>
    <ParentName>ירושלים, ישראל</ParentName>
    <Latitude>31.783091</Latitude>
    <Longitude>35.210254</Longitude>
  </Street>
  <Street>
    <NativeName>דברי חיים</NativeName>
    <ParentName>ירושלים, ישראל</ParentName>
    <Latitude>31.797249</Latitude>
    <Longitude>35.209146</Longitude>
  </Street>
  <Street>
    <NativeName>דברי ירוחם</NativeName>
    <ParentName>ירושלים, ישראל</ParentName>
    <Latitude>31.762028</Latitude>
    <Longitude>35.189059</Longitude>
  </Street>
  <Street>
    <NativeName>דגל ראובן</NativeName>
    <ParentName>ירושלים, ישראל</ParentName>
    <Latitude>31.787836</Latitude>
    <Longitude>35.197769</Longitude>
  </Street>
  <Street>
    <NativeName>דגן</NativeName>
    <ParentName>ירושלים, ישראל</ParentName>
    <Latitude>31.736308</Latitude>
    <Longitude>35.182240</Longitude>
  </Street>
  <Street>
    <NativeName>דגניה</NativeName>
    <ParentName>ירושלים, ישראל</ParentName>
    <Latitude>31.783425</Latitude>
    <Longitude>35.190517</Longitude>
  </Street>
  <Street>
    <NativeName>דה לימה</NativeName>
    <ParentName>ירושלים, ישראל</ParentName>
    <Latitude>31.810303</Latitude>
    <Longitude>35.195575</Longitude>
  </Street>
  <Street>
    <NativeName>דה רוסי</NativeName>
    <ParentName>ירושלים, ישראל</ParentName>
    <Latitude>31.773345</Latitude>
    <Longitude>35.188168</Longitude>
  </Street>
  <Street>
    <NativeName>דהומיי</NativeName>
    <ParentName>ירושלים, ישראל</ParentName>
    <Latitude>31.756418</Latitude>
    <Longitude>35.164786</Longitude>
  </Street>
  <Street>
    <NativeName>דובב מישרים</NativeName>
    <ParentName>ירושלים, ישראל</ParentName>
    <Latitude>31.796566</Latitude>
    <Longitude>35.214120</Longitude>
  </Street>
  <Street>
    <NativeName>דובנוב</NativeName>
    <ParentName>ירושלים, ישראל</ParentName>
    <Latitude>31.768035</Latitude>
    <Longitude>35.218331</Longitude>
  </Street>
  <Street>
    <NativeName>דובר שלום</NativeName>
    <ParentName>ירושלים, ישראל</ParentName>
    <Latitude>31.796824</Latitude>
    <Longitude>35.206651</Longitude>
  </Street>
  <Street>
    <NativeName>דוד איילון</NativeName>
    <ParentName>ירושלים, ישראל</ParentName>
    <AlternateName>דויד איילון</AlternateName>
    <Latitude>31.751876</Latitude>
    <Longitude>35.192110</Longitude>
  </Street>
  <Street>
    <NativeName>דוד אלעזר</NativeName>
    <ParentName>ירושלים, ישראל</ParentName>
    <AlternateName>דויד אלעזר</AlternateName>
    <Latitude>31.840413</Latitude>
    <Longitude>35.232178</Longitude>
  </Street>
  <Street>
    <NativeName>דוד אלרואי</NativeName>
    <ParentName>ירושלים, ישראל</ParentName>
    <AlternateName>דויד אלרואי</AlternateName>
    <AlternateName>דוד אלרועי</AlternateName>
    <Latitude>31.764440</Latitude>
    <Longitude>35.214205</Longitude>
  </Street>
  <Street>
    <NativeName>דוד באזוב</NativeName>
    <ParentName>ירושלים, ישראל</ParentName>
    <AlternateName>דויד באזוב</AlternateName>
    <Latitude>31.819547</Latitude>
    <Longitude>35.186582</Longitude>
  </Street>
  <Street>
    <NativeName>דוד בן עמרם</NativeName>
    <ParentName>ירושלים, ישראל</ParentName>
    <AlternateName>דויד בן עמרם</AlternateName>
    <Latitude>31.788460</Latitude>
    <Longitude>35.221489</Longitude>
  </Street>
  <Street>
    <NativeName>דוד המלך</NativeName>
    <ParentName>ירושלים, ישראל</ParentName>
    <AlternateName>דויד המלך</AlternateName>
    <Latitude>31.773267</Latitude>
    <Longitude>35.222434</Longitude>
  </Street>
  <Street>
    <NativeName>דוד הראובני</NativeName>
    <ParentName>ירושלים, ישראל</ParentName>
    <AlternateName>דויד הראובני</AlternateName>
    <Latitude>31.789579</Latitude>
    <Longitude>35.190685</Longitude>
  </Street>
  <Street>
    <NativeName>דוד חזן</NativeName>
    <ParentName>ירושלים, ישראל</ParentName>
    <AlternateName>דויד חזן</AlternateName>
    <Latitude>31.792617</Latitude>
    <Longitude>35.217808</Longitude>
  </Street>
  <Street>
    <NativeName>דוד ילין</NativeName>
    <ParentName>ירושלים, ישראל</ParentName>
    <AlternateName>דויד ילין</AlternateName>
    <Latitude>31.786569</Latitude>
    <Longitude>35.214604</Longitude>
  </Street>
  <Street>
    <NativeName>דוד מרדכי מאיר</NativeName>
    <ParentName>ירושלים, ישראל</ParentName>
    <AlternateName>דויד מרדכי מאיר</AlternateName>
    <Latitude>31.775666</Latitude>
    <Longitude>35.173817</Longitude>
  </Street>
  <Street>
    <NativeName>דוד מרכוס</NativeName>
    <ParentName>ירושלים, ישראל</ParentName>
    <AlternateName>דויד מרכוס</AlternateName>
    <Latitude>31.769416</Latitude>
    <Longitude>35.216844</Longitude>
  </Street>
  <Street>
    <NativeName>דוד ניב</NativeName>
    <ParentName>ירושלים, ישראל</ParentName>
    <AlternateName>דויד ניב</AlternateName>
    <Latitude>31.821778</Latitude>
    <Longitude>35.237754</Longitude>
  </Street>
  <Street>
    <NativeName>דוד פ. מרץ</NativeName>
    <ParentName>ירושלים, ישראל</ParentName>
    <AlternateName>דויד פ. מרץ</AlternateName>
    <Latitude>31.760217</Latitude>
    <Longitude>35.187323</Longitude>
  </Street>
  <Street>
    <NativeName>דוד פדרמן</NativeName>
    <ParentName>ירושלים, ישראל</ParentName>
    <AlternateName>דויד פדרמן</AlternateName>
    <Latitude>31.820162</Latitude>
    <Longitude>35.254133</Longitude>
  </Street>
  <Street>
    <NativeName>דוד פלומבו</NativeName>
    <ParentName>ירושלים, ישראל</ParentName>
    <AlternateName>דויד פלומבו</AlternateName>
    <Latitude>31.770939</Latitude>
    <Longitude>35.189957</Longitude>
  </Street>
  <Street>
    <NativeName>דוד פרידמן</NativeName>
    <ParentName>ירושלים, ישראל</ParentName>
    <AlternateName>דויד פרידמן</AlternateName>
    <Latitude>31.790174</Latitude>
    <Longitude>35.221633</Longitude>
  </Street>
  <Street>
    <NativeName>דוד פרישמן</NativeName>
    <ParentName>ירושלים, ישראל</ParentName>
    <AlternateName>דויד פרישמן</AlternateName>
    <Latitude>31.762406</Latitude>
    <Longitude>35.203635</Longitude>
  </Street>
  <Street>
    <NativeName>דוד צבי פנקס</NativeName>
    <ParentName>ירושלים, ישראל</ParentName>
    <AlternateName>דויד צבי פנקס</AlternateName>
    <Latitude>31.762328</Latitude>
    <Longitude>35.198961</Longitude>
  </Street>
  <Street>
    <NativeName>דוד רזיאל</NativeName>
    <ParentName>ירושלים, ישראל</ParentName>
    <AlternateName>דויד רזיאל</AlternateName>
    <Latitude>31.749531</Latitude>
    <Longitude>35.232647</Longitude>
  </Street>
  <Street>
    <NativeName>דוד רמז</NativeName>
    <ParentName>ירושלים, ישראל</ParentName>
    <AlternateName>דויד רמז</AlternateName>
    <Latitude>31.768221</Latitude>
    <Longitude>35.224465</Longitude>
  </Street>
  <Street>
    <NativeName>דוד שמעוני</NativeName>
    <ParentName>ירושלים, ישראל</ParentName>
