<?xml version="1.0" encoding="UTF-8"?><LocationData>
  <Street>
    <NativeName>אביר יעקב</NativeName>
    <ParentName>נשר, ישראל</ParentName>
    <Latitude>32.767985</Latitude>
    <Longitude>35.049027</Longitude>
  </Street>
  <Street>
    <NativeName>אופקים</NativeName>
    <ParentName>נשר, ישראל</ParentName>
    <Latitude>32.772881</Latitude>
    <Longitude>35.033935</Longitude>
  </Street>
  <Street>
    <NativeName>אורח חיים</NativeName>
    <ParentName>נשר, ישראל</ParentName>
    <Latitude>32.763844</Latitude>
    <Longitude>35.048634</Longitude>
  </Street>
  <Street>
    <NativeName>אשכולות</NativeName>
    <ParentName>נשר, ישראל</ParentName>
    <Latitude>32.774033</Latitude>
    <Longitude>35.041848</Longitude>
  </Street>
  <Street>
    <NativeName>בית אל</NativeName>
    <ParentName>נשר, ישראל</ParentName>
    <Latitude>32.761832</Latitude>
    <Longitude>35.045821</Longitude>
  </Street>
  <CityRegion>
    <NativeName>בן דור</NativeName>
    <ParentName>נשר, ישראל</ParentName>
    <Latitude>32.776205</Latitude>
    <Longitude>35.035010</Longitude>
  </CityRegion>
  <Street>
    <NativeName>ברק</NativeName>
    <ParentName>נשר, ישראל</ParentName>
    <Latitude>32.769194</Latitude>
    <Longitude>35.047405</Longitude>
  </Street>
  <CityRegion>
    <NativeName>גבעת נשר</NativeName>
    <ParentName>נשר, ישראל</ParentName>
    <Latitude>32.760822</Latitude>
    <Longitude>35.045323</Longitude>
  </CityRegion>
  <CityRegion>
    <NativeName>גבעת עמוס</NativeName>
    <ParentName>נשר, ישראל</ParentName>
    <Latitude>32.773861</Latitude>
    <Longitude>35.033200</Longitude>
  </CityRegion>
  <Street>
    <NativeName>דבורה</NativeName>
    <ParentName>נשר, ישראל</ParentName>
    <Latitude>32.767688</Latitude>
    <Longitude>35.048052</Longitude>
  </Street>
  <Street>
    <NativeName>דרך בר יהודה</NativeName>
    <ParentName>נשר, ישראל</ParentName>
    <AlternateName>בר יהודה</AlternateName>
    <Latitude>32.775736</Latitude>
    <Longitude>35.041743</Longitude>
  </Street>
  <Street>
    <NativeName>דרך הטכניון</NativeName>
    <ParentName>נשר, ישראל</ParentName>
    <AlternateName>הטכניון</AlternateName>
    <Latitude>32.775952</Latitude>
    <Longitude>35.032701</Longitude>
  </Street>
  <Street>
    <NativeName>דרך השלום</NativeName>
    <ParentName>נשר, ישראל</ParentName>
    <AlternateName>השלום</AlternateName>
    <Latitude>32.769893</Latitude>
    <Longitude>35.047567</Longitude>
  </Street>
  <Street>
    <NativeName>דרך משה</NativeName>
    <ParentName>נשר, ישראל</ParentName>
    <AlternateName>משה</AlternateName>
    <Latitude>32.763905</Latitude>
    <Longitude>35.044289</Longitude>
  </Street>
  <Street>
    <NativeName>האורן</NativeName>
    <ParentName>נשר, ישראל</ParentName>
    <Latitude>32.772256</Latitude>
    <Longitude>35.040521</Longitude>
  </Street>
  <Street>
    <NativeName>האילנות</NativeName>
    <ParentName>נשר, ישראל</ParentName>
    <Latitude>32.761712</Latitude>
    <Longitude>35.047601</Longitude>
  </Street>
  <Street>
    <NativeName>האירוסים</NativeName>
    <ParentName>נשר, ישראל</ParentName>
    <Latitude>32.770344</Latitude>
    <Longitude>35.033405</Longitude>
  </Street>
  <Street>
    <NativeName>האלון</NativeName>
    <ParentName>נשר, ישראל</ParentName>
    <Latitude>32.769600</Latitude>
    <Longitude>35.032792</Longitude>
  </Street>
  <Street>
    <NativeName>האשל</NativeName>
    <ParentName>נשר, ישראל</ParentName>
    <Latitude>32.768917</Latitude>
    <Longitude>35.028438</Longitude>
  </Street>
  <Street>
    <NativeName>הבונים</NativeName>
    <ParentName>נשר, ישראל</ParentName>
    <Latitude>32.782004</Latitude>
    <Longitude>35.034792</Longitude>
  </Street>
  <Street>
    <NativeName>הביטחון</NativeName>
    <ParentName>נשר, ישראל</ParentName>
    <Latitude>32.776289</Latitude>
    <Longitude>35.038077</Longitude>
  </Street>
  <Street>
    <NativeName>הברוש</NativeName>
    <ParentName>נשר, ישראל</ParentName>
    <Latitude>32.773046</Latitude>
    <Longitude>35.040651</Longitude>
  </Street>
  <Street>
    <NativeName>הגבורה</NativeName>
    <ParentName>נשר, ישראל</ParentName>
    <Latitude>32.759658</Latitude>
    <Longitude>35.045078</Longitude>
  </Street>
  <Street>
    <NativeName>הדקל</NativeName>
    <ParentName>נשר, ישראל</ParentName>
    <Latitude>32.769548</Latitude>
    <Longitude>35.032191</Longitude>
  </Street>
  <Street>
    <NativeName>ההדס</NativeName>
    <ParentName>נשר, ישראל</ParentName>
    <Latitude>32.770103</Latitude>
    <Longitude>35.030332</Longitude>
  </Street>
  <Street>
    <NativeName>ההסתדרות</NativeName>
    <ParentName>נשר, ישראל</ParentName>
    <Latitude>32.776088</Latitude>
    <Longitude>35.034364</Longitude>
  </Street>
  <Street>
    <NativeName>ההשכלה</NativeName>
    <ParentName>נשר, ישראל</ParentName>
    <Latitude>32.760108</Latitude>
    <Longitude>35.045024</Longitude>
  </Street>
  <Street>
    <NativeName>הורדים</NativeName>
    <ParentName>נשר, ישראל</ParentName>
    <Latitude>32.770301</Latitude>
    <Longitude>35.038331</Longitude>
  </Street>
  <Street>
    <NativeName>הותיקים</NativeName>
    <ParentName>נשר, ישראל</ParentName>
    <Latitude>32.765033</Latitude>
    <Longitude>35.049601</Longitude>
  </Street>
  <Street>
    <NativeName>הזית</NativeName>
    <ParentName>נשר, ישראל</ParentName>
    <Latitude>32.769959</Latitude>
    <Longitude>35.040015</Longitude>
  </Street>
  <Street>
    <NativeName>החלוצים</NativeName>
    <ParentName>נשר, ישראל</ParentName>
    <Latitude>32.762142</Latitude>
    <Longitude>35.047105</Longitude>
  </Street>
  <Street>
    <NativeName>החצב</NativeName>
    <ParentName>נשר, ישראל</ParentName>
    <Latitude>32.768077</Latitude>
    <Longitude>35.043309</Longitude>
  </Street>
  <Street>
    <NativeName>החרוב</NativeName>
    <ParentName>נשר, ישראל</ParentName>
    <Latitude>32.766907</Latitude>
    <Longitude>35.035410</Longitude>
  </Street>
  <Street>
    <NativeName>החרושת</NativeName>
    <ParentName>נשר, ישראל</ParentName>
    <Latitude>32.777370</Latitude>
    <Longitude>35.037942</Longitude>
  </Street>
  <Street>
    <NativeName>היצירה</NativeName>
    <ParentName>נשר, ישראל</ParentName>
    <Latitude>32.773318</Latitude>
    <Longitude>35.045411</Longitude>
  </Street>
  <Street>
    <NativeName>הכלניות</NativeName>
    <ParentName>נשר, ישראל</ParentName>
    <Latitude>32.760893</Latitude>
    <Longitude>35.050138</Longitude>
  </Street>
  <Street>
    <NativeName>הלוטם</NativeName>
    <ParentName>נשר, ישראל</ParentName>
    <Latitude>32.764620</Latitude>
    <Longitude>35.043893</Longitude>
  </Street>
  <Street>
    <NativeName>הלילך</NativeName>
    <ParentName>נשר, ישראל</ParentName>
    <Latitude>32.764872</Latitude>
    <Longitude>35.042689</Longitude>
  </Street>
  <Street>
    <NativeName>המגינים</NativeName>
    <ParentName>נשר, ישראל</ParentName>
    <Latitude>32.765606</Latitude>
    <Longitude>35.049977</Longitude>
  </Street>
  <Street>
    <NativeName>המורד</NativeName>
    <ParentName>נשר, ישראל</ParentName>
    <Latitude>32.775653</Latitude>
    <Longitude>35.032276</Longitude>
  </Street>
  <Street>
    <NativeName>המורן</NativeName>
    <ParentName>נשר, ישראל</ParentName>
    <Latitude>32.770218</Latitude>
    <Longitude>35.036354</Longitude>
  </Street>
  <Street>
    <NativeName>המייסדים</NativeName>
    <ParentName>נשר, ישראל</ParentName>
    <Latitude>32.766509</Latitude>
    <Longitude>35.049701</Longitude>
  </Street>
  <Street>
    <NativeName>המלאכה</NativeName>
    <ParentName>נשר, ישראל</ParentName>
    <Latitude>32.771460</Latitude>
    <Longitude>35.047522</Longitude>
  </Street>
  <Street>
    <NativeName>המסגר</NativeName>
    <ParentName>נשר, ישראל</ParentName>
    <Latitude>32.777239</Latitude>
    <Longitude>35.040731</Longitude>
  </Street>
  <Street>
    <NativeName>המסילה</NativeName>
    <ParentName>נשר, ישראל</ParentName>
    <Latitude>32.782681</Latitude>
    <Longitude>35.035594</Longitude>
  </Street>
  <Street>
    <NativeName>המעפילים</NativeName>
    <ParentName>נשר, ישראל</ParentName>
    <Latitude>32.762320</Latitude>
    <Longitude>35.049331</Longitude>
  </Street>
  <Street>
    <NativeName>המצפה</NativeName>
    <ParentName>נשר, ישראל</ParentName>
    <Latitude>32.776075</Latitude>
    <Longitude>35.035618</Longitude>
  </Street>
  <Street>
    <NativeName>המרגנית</NativeName>
    <ParentName>נשר, ישראל</ParentName>
    <Latitude>32.771862</Latitude>
    <Longitude>35.032019</Longitude>
  </Street>
  <Street>
    <NativeName>המרכז</NativeName>
    <ParentName>נשר, ישראל</ParentName>
    <Latitude>32.766452</Latitude>
    <Longitude>35.050886</Longitude>
  </Street>
  <Street>
    <NativeName>המתמיד</NativeName>
    <ParentName>נשר, ישראל</ParentName>
    <Latitude>32.774401</Latitude>
    <Longitude>35.034068</Longitude>
  </Street>
  <Street>
    <NativeName>הנוריות</NativeName>
    <ParentName>נשר, ישראל</ParentName>
    <Latitude>32.768770</Latitude>
    <Longitude>35.039016</Longitude>
  </Street>
  <Street>
    <NativeName>הנרקיסים</NativeName>
    <ParentName>נשר, ישראל</ParentName>
    <Latitude>32.766406</Latitude>
    <Longitude>35.055208</Longitude>
  </Street>
  <Street>
    <NativeName>הסביון</NativeName>
    <ParentName>נשר, ישראל</ParentName>
    <Latitude>32.764602</Latitude>
    <Longitude>35.043383</Longitude>
  </Street>
  <Street>
    <NativeName>הסחלב</NativeName>
    <ParentName>נשר, ישראל</ParentName>
    <Latitude>32.771594</Latitude>
    <Longitude>35.030275</Longitude>
  </Street>
  <Street>
    <NativeName>העלייה</NativeName>
    <ParentName>נשר, ישראל</ParentName>
    <Latitude>32.759358</Latitude>
    <Longitude>35.047972</Longitude>
  </Street>
  <Street>
    <NativeName>העמק</NativeName>
    <ParentName>נשר, ישראל</ParentName>
    <Latitude>32.773316</Latitude>
    <Longitude>35.034556</Longitude>
  </Street>
  <Street>
    <NativeName>הערבה</NativeName>
    <ParentName>נשר, ישראל</ParentName>
    <Latitude>32.768977</Latitude>
    <Longitude>35.029210</Longitude>
  </Street>
  <Street>
    <NativeName>הערמונים</NativeName>
    <ParentName>נשר, ישראל</ParentName>
    <Latitude>32.767444</Latitude>
    <Longitude>35.034469</Longitude>
  </Street>
  <Street>
    <NativeName>הפלדה</NativeName>
    <ParentName>נשר, ישראל</ParentName>
    <Latitude>32.778837</Latitude>
    <Longitude>35.037496</Longitude>
  </Street>
  <Street>
    <NativeName>הצבעוני</NativeName>
    <ParentName>נשר, ישראל</ParentName>
    <Latitude>32.766313</Latitude>
    <Longitude>35.044506</Longitude>
  </Street>
  <Street>
    <NativeName>הקוממיות</NativeName>
    <ParentName>נשר, ישראל</ParentName>
    <Latitude>32.767102</Latitude>
    <Longitude>35.050009</Longitude>
  </Street>
  <Street>
    <NativeName>הקישון</NativeName>
    <ParentName>נשר, ישראל</ParentName>
    <Latitude>32.766390</Latitude>
    <Longitude>35.054520</Longitude>
  </Street>
  <Street>
    <NativeName>הקצר</NativeName>
    <ParentName>נשר, ישראל</ParentName>
    <Latitude>32.776539</Latitude>
    <Longitude>35.036660</Longitude>
  </Street>
  <Street>
    <NativeName>הרדוף</NativeName>
    <ParentName>נשר, ישראל</ParentName>
    <Latitude>32.768087</Latitude>
    <Longitude>35.038181</Longitude>
  </Street>
  <Street>
    <NativeName>הרקפות</NativeName>
    <ParentName>נשר, ישראל</ParentName>
    <Latitude>32.759843</Latitude>
    <Longitude>35.048542</Longitude>
  </Street>
  <Street>
    <NativeName>השושנים</NativeName>
    <ParentName>נשר, ישראל</ParentName>
    <Latitude>32.771059</Latitude>
    <Longitude>35.032244</Longitude>
  </Street>
  <Street>
    <NativeName>השזיף</NativeName>
    <ParentName>נשר, ישראל</ParentName>
    <Latitude>32.769042</Latitude>
    <Longitude>35.041986</Longitude>
  </Street>
  <Street>
    <NativeName>השיטה</NativeName>
    <ParentName>נשר, ישראל</ParentName>
    <Latitude>32.767890</Latitude>
    <Longitude>35.037605</Longitude>
  </Street>
  <Street>
    <NativeName>השיקמה</NativeName>
    <ParentName>נשר, ישראל</ParentName>
    <Latitude>32.767855</Latitude>
    <Longitude>35.036655</Longitude>
  </Street>
  <Street>
    <NativeName>השיש</NativeName>
    <ParentName>נשר, ישראל</ParentName>
    <Latitude>32.782004</Latitude>
    <Longitude>35.034792</Longitude>
  </Street>
  <Street>
    <NativeName>השקד</NativeName>
    <ParentName>נשר, ישראל</ParentName>
    <Latitude>32.769004</Latitude>
    <Longitude>35.045906</Longitude>
  </Street>
  <Street>
    <NativeName>התאנה</NativeName>
    <ParentName>נשר, ישראל</ParentName>
    <Latitude>32.769487</Latitude>
    <Longitude>35.020548</Longitude>
  </Street>
  <Street>
    <NativeName>התיכון</NativeName>
    <ParentName>נשר, ישראל</ParentName>
    <Latitude>32.775500</Latitude>
    <Longitude>35.033022</Longitude>
  </Street>
  <Street>
    <NativeName>התמר</NativeName>
    <ParentName>נשר, ישראל</ParentName>
    <Latitude>32.770263</Latitude>
    <Longitude>35.032155</Longitude>
  </Street>
  <Street>
    <NativeName>התעשייה</NativeName>
    <ParentName>נשר, ישראל</ParentName>
    <Latitude>32.773759</Latitude>
    <Longitude>35.045917</Longitude>
  </Street>
  <Street>
    <NativeName>התפוז</NativeName>
    <ParentName>נשר, ישראל</ParentName>
    <Latitude>32.768728</Latitude>
    <Longitude>35.032576</Longitude>
  </Street>
  <Street>
    <NativeName>התשבי</NativeName>
    <ParentName>נשר, ישראל</ParentName>
    <Latitude>32.764897</Latitude>
    <Longitude>35.051378</Longitude>
  </Street>
  <Street>
    <NativeName>חבצלת</NativeName>
    <ParentName>נשר, ישראל</ParentName>
    <Latitude>32.771833</Latitude>
    <Longitude>35.034489</Longitude>
  </Street>
  <Street>
    <NativeName>יסמין</NativeName>
    <ParentName>נשר, ישראל</ParentName>
    <Latitude>32.772327</Latitude>
    <Longitude>35.038387</Longitude>
  </Street>
  <Street>
    <NativeName>יעל</NativeName>
    <ParentName>נשר, ישראל</ParentName>
    <Latitude>32.772566</Latitude>
    <Longitude>35.043185</Longitude>
  </Street>
  <Street>
    <NativeName>יפה נוף</NativeName>
    <ParentName>נשר, ישראל</ParentName>
    <Latitude>32.763703</Latitude>
    <Longitude>35.047062</Longitude>
  </Street>
  <Street>
    <NativeName>ישורון</NativeName>
    <ParentName>נשר, ישראל</ParentName>
    <Latitude>32.774268</Latitude>
    <Longitude>35.042491</Longitude>
  </Street>
  <Street>
    <NativeName>כליל החורש</NativeName>
    <ParentName>נשר, ישראל</ParentName>
    <Latitude>32.768846</Latitude>
    <Longitude>35.043886</Longitude>
  </Street>
  <Street>
    <NativeName>מורדי הגטאות</NativeName>
    <ParentName>נשר, ישראל</ParentName>
    <Latitude>32.759504</Latitude>
    <Longitude>35.044372</Longitude>
  </Street>
  <Street>
    <NativeName>מעלה הגיבורים</NativeName>
    <ParentName>נשר, ישראל</ParentName>
    <Latitude>32.776531</Latitude>
    <Longitude>35.035513</Longitude>
  </Street>
  <Street>
    <NativeName>מעלות אליהו</NativeName>
    <ParentName>נשר, ישראל</ParentName>
    <Latitude>32.775243</Latitude>
    <Longitude>35.036095</Longitude>
  </Street>
  <Street>
    <NativeName>מרדכי בר מוחא</NativeName>
    <ParentName>נשר, ישראל</ParentName>
    <Latitude>32.770302</Latitude>
    <Longitude>35.045580</Longitude>
  </Street>
  <Street>
    <NativeName>נתיב הארזים</NativeName>
    <ParentName>נשר, ישראל</ParentName>
    <Latitude>32.771497</Latitude>
    <Longitude>35.038480</Longitude>
  </Street>
  <Street>
    <NativeName>נתיב הטרשים</NativeName>
    <ParentName>נשר, ישראל</ParentName>
    <Latitude>32.764128</Latitude>
    <Longitude>35.049810</Longitude>
  </Street>
  <Street>
    <NativeName>נתיב הים</NativeName>
    <ParentName>נשר, ישראל</ParentName>
    <Latitude>32.775838</Latitude>
    <Longitude>35.031653</Longitude>
  </Street>
  <Street>
    <NativeName>נתיב הכרמל</NativeName>
    <ParentName>נשר, ישראל</ParentName>
    <Latitude>32.775710</Latitude>
    <Longitude>35.031964</Longitude>
  </Street>
  <Street>
    <NativeName>נתיב הרימון</NativeName>
    <ParentName>נשר, ישראל</ParentName>
    <Latitude>32.770739</Latitude>
    <Longitude>35.037922</Longitude>
  </Street>
  <Street>
    <NativeName>סיני</NativeName>
    <ParentName>נשר, ישראל</ParentName>
    <Latitude>32.775368</Latitude>
    <Longitude>35.032293</Longitude>
  </Street>
  <Street>
    <NativeName>סמטת התמר</NativeName>
    <ParentName>נשר, ישראל</ParentName>
    <Latitude>32.769295</Latitude>
    <Longitude>35.036009</Longitude>
  </Street>
  <Street>
    <NativeName>סמטת כליל החורש</NativeName>
    <ParentName>נשר, ישראל</ParentName>
    <Latitude>32.769354</Latitude>
    <Longitude>35.043247</Longitude>
  </Street>
  <Street>
    <NativeName>עמוס</NativeName>
    <ParentName>נשר, ישראל</ParentName>
    <Latitude>32.775801</Latitude>
    <Longitude>35.030838</Longitude>
  </Street>
  <Street>
    <NativeName>פרץ</NativeName>
    <ParentName>נשר, ישראל</ParentName>
    <Latitude>32.770724</Latitude>
    <Longitude>35.044047</Longitude>
  </Street>
  <Street>
    <NativeName>צבר</NativeName>
    <ParentName>נשר, ישראל</ParentName>
    <Latitude>32.768730</Latitude>
    <Longitude>35.045509</Longitude>
  </Street>
  <Street>
    <NativeName>צה"ל</NativeName>
    <ParentName>נשר, ישראל</ParentName>
    <Latitude>32.773797</Latitude>
    <Longitude>35.032054</Longitude>
  </Street>
  <Street>
    <NativeName>ציון</NativeName>
    <ParentName>נשר, ישראל</ParentName>
    <Latitude>32.773957</Latitude>
    <Longitude>35.035650</Longitude>
  </Street>
  <Street>
    <NativeName>קיבוץ גלויות</NativeName>
    <ParentName>נשר, ישראל</ParentName>
    <Latitude>32.761898</Latitude>
    <Longitude>35.048493</Longitude>
  </Street>
  <Street>
    <NativeName>קרן היסוד</NativeName>
    <ParentName>נשר, ישראל</ParentName>
    <Latitude>32.767423</Latitude>
    <Longitude>35.046185</Longitude>
  </Street>
  <CityRegion>
    <NativeName>רמות יצחק</NativeName>
    <ParentName>נשר, ישראל</ParentName>
    <Latitude>32.769146</Latitude>
    <Longitude>35.034512</Longitude>
  </CityRegion>
  <Street>
    <NativeName>שביל הטף</NativeName>
    <ParentName>נשר, ישראל</ParentName>
    <Latitude>32.765914</Latitude>
    <Longitude>35.048766</Longitude>
  </Street>
  <Street>
    <NativeName>ששת הימים</NativeName>
    <ParentName>נשר, ישראל</ParentName>
    <Latitude>32.769531</Latitude>
    <Longitude>35.043906</Longitude>
  </Street>
  <CityRegion>
    <NativeName>תל חנן</NativeName>
    <ParentName>נשר, ישראל</ParentName>
    <Latitude>32.769649</Latitude>
    <Longitude>35.045044</Longitude>
  </CityRegion>
</LocationData>
