<?xml version="1.0" encoding="UTF-8"?><LocationData>
  <Street>
    <NativeName>אשל</NativeName>
    <ParentName>ניר גלים, ישראל</ParentName>
    <Latitude>31.828270</Latitude>
    <Longitude>34.683077</Longitude>
  </Street>
  <Street>
    <NativeName>ברוש</NativeName>
    <ParentName>ניר גלים, ישראל</ParentName>
    <Latitude>31.827974</Latitude>
    <Longitude>34.682266</Longitude>
  </Street>
  <Street>
    <NativeName>גומא</NativeName>
    <ParentName>ניר גלים, ישראל</ParentName>
    <Latitude>31.827651</Latitude>
    <Longitude>34.681605</Longitude>
  </Street>
  <Street>
    <NativeName>דולב</NativeName>
    <ParentName>ניר גלים, ישראל</ParentName>
    <Latitude>31.826604</Latitude>
    <Longitude>34.681976</Longitude>
  </Street>
  <Street>
    <NativeName>הדס</NativeName>
    <ParentName>ניר גלים, ישראל</ParentName>
    <Latitude>31.826513</Latitude>
    <Longitude>34.680641</Longitude>
  </Street>
  <Street>
    <NativeName>המייסדים</NativeName>
    <ParentName>ניר גלים, ישראל</ParentName>
    <Latitude>31.824549</Latitude>
    <Longitude>34.682115</Longitude>
  </Street>
  <Street>
    <NativeName>השדרה החקלאית</NativeName>
    <ParentName>ניר גלים, ישראל</ParentName>
    <Latitude>31.826679</Latitude>
    <Longitude>34.684448</Longitude>
  </Street>
  <Street>
    <NativeName>התש"ט</NativeName>
    <ParentName>ניר גלים, ישראל</ParentName>
    <Latitude>31.824972</Latitude>
    <Longitude>34.681364</Longitude>
  </Street>
  <Street>
    <NativeName>ורד</NativeName>
    <ParentName>ניר גלים, ישראל</ParentName>
    <Latitude>31.825794</Latitude>
    <Longitude>34.680499</Longitude>
  </Street>
  <Street>
    <NativeName>זוטה לבנה</NativeName>
    <ParentName>ניר גלים, ישראל</ParentName>
    <Latitude>31.825156</Latitude>
    <Longitude>34.680363</Longitude>
  </Street>
  <Street>
    <NativeName>חרוב</NativeName>
    <ParentName>ניר גלים, ישראל</ParentName>
    <Latitude>31.824502</Latitude>
    <Longitude>34.681354</Longitude>
  </Street>
  <Street>
    <NativeName>טופח</NativeName>
    <ParentName>ניר גלים, ישראל</ParentName>
    <Latitude>31.824436</Latitude>
    <Longitude>34.679657</Longitude>
  </Street>
  <Street>
    <NativeName>יקינטון</NativeName>
    <ParentName>ניר גלים, ישראל</ParentName>
    <Latitude>31.823910</Latitude>
    <Longitude>34.681460</Longitude>
  </Street>
  <Street>
    <NativeName>כליל החורש</NativeName>
    <ParentName>ניר גלים, ישראל</ParentName>
    <Latitude>31.823853</Latitude>
    <Longitude>34.679818</Longitude>
  </Street>
  <Street>
    <NativeName>ליבנה</NativeName>
    <ParentName>ניר גלים, ישראל</ParentName>
    <Latitude>31.823406</Latitude>
    <Longitude>34.679937</Longitude>
  </Street>
  <Street>
    <NativeName>מורן</NativeName>
    <ParentName>ניר גלים, ישראל</ParentName>
    <Latitude>31.823421</Latitude>
    <Longitude>34.681387</Longitude>
  </Street>
  <Street>
    <NativeName>נורית</NativeName>
    <ParentName>ניר גלים, ישראל</ParentName>
    <Latitude>31.822729</Latitude>
    <Longitude>34.679893</Longitude>
  </Street>
  <Street>
    <NativeName>ניר וגל</NativeName>
    <ParentName>ניר גלים, ישראל</ParentName>
    <Latitude>31.824135</Latitude>
    <Longitude>34.682890</Longitude>
  </Street>
  <Street>
    <NativeName>סחלב</NativeName>
    <ParentName>ניר גלים, ישראל</ParentName>
    <Latitude>31.822015</Latitude>
    <Longitude>34.679575</Longitude>
  </Street>
  <Street>
    <NativeName>ערבה</NativeName>
    <ParentName>ניר גלים, ישראל</ParentName>
    <Latitude>31.822250</Latitude>
    <Longitude>34.680429</Longitude>
  </Street>
  <Street>
    <NativeName>פיקוס</NativeName>
    <ParentName>ניר גלים, ישראל</ParentName>
    <Latitude>31.821169</Latitude>
    <Longitude>34.680725</Longitude>
  </Street>
  <Street>
    <NativeName>צאלון</NativeName>
    <ParentName>ניר גלים, ישראל</ParentName>
    <Latitude>31.822691</Latitude>
    <Longitude>34.681617</Longitude>
  </Street>
  <Street>
    <NativeName>קינמון</NativeName>
    <ParentName>ניר גלים, ישראל</ParentName>
    <Latitude>31.821033</Latitude>
    <Longitude>34.681140</Longitude>
  </Street>
  <Street>
    <NativeName>רותם</NativeName>
    <ParentName>ניר גלים, ישראל</ParentName>
    <Latitude>31.821943</Latitude>
    <Longitude>34.681848</Longitude>
  </Street>
  <Street>
    <NativeName>שיקמה</NativeName>
    <ParentName>ניר גלים, ישראל</ParentName>
    <Latitude>31.821070</Latitude>
    <Longitude>34.682880</Longitude>
  </Street>
</LocationData>
