<?xml version="1.0" encoding="UTF-8"?><LocationData>
  <Street>
    <NativeName>אלונים</NativeName>
    <ParentName>יסוד המעלה, ישראל</ParentName>
    <Latitude>33.059550</Latitude>
    <Longitude>35.607250</Longitude>
  </Street>
  <Street>
    <NativeName>האגם</NativeName>
    <ParentName>יסוד המעלה, ישראל</ParentName>
    <Latitude>33.060192</Latitude>
    <Longitude>35.613196</Longitude>
  </Street>
  <Street>
    <NativeName>האילנות</NativeName>
    <ParentName>יסוד המעלה, ישראל</ParentName>
    <Latitude>33.051139</Latitude>
    <Longitude>35.588043</Longitude>
  </Street>
  <Street>
    <NativeName>האשכולות</NativeName>
    <ParentName>יסוד המעלה, ישראל</ParentName>
    <Latitude>33.057235</Latitude>
    <Longitude>35.607127</Longitude>
  </Street>
  <Street>
    <NativeName>הבוסתן</NativeName>
    <ParentName>יסוד המעלה, ישראל</ParentName>
    <Latitude>33.058834</Latitude>
    <Longitude>35.605251</Longitude>
  </Street>
  <Street>
    <NativeName>הגפן</NativeName>
    <ParentName>יסוד המעלה, ישראל</ParentName>
    <Latitude>33.053517</Latitude>
    <Longitude>35.588965</Longitude>
  </Street>
  <Street>
    <NativeName>הורדים</NativeName>
    <ParentName>יסוד המעלה, ישראל</ParentName>
    <Latitude>33.055187</Latitude>
    <Longitude>35.607993</Longitude>
  </Street>
  <Street>
    <NativeName>הזית</NativeName>
    <ParentName>יסוד המעלה, ישראל</ParentName>
    <Latitude>33.052140</Latitude>
    <Longitude>35.589608</Longitude>
  </Street>
  <Street>
    <NativeName>החולה</NativeName>
    <ParentName>יסוד המעלה, ישראל</ParentName>
    <Latitude>33.057129</Latitude>
    <Longitude>35.612109</Longitude>
  </Street>
  <Street>
    <NativeName>הירדן</NativeName>
    <ParentName>יסוד המעלה, ישראל</ParentName>
    <Latitude>33.056182</Latitude>
    <Longitude>35.607500</Longitude>
  </Street>
  <Street>
    <NativeName>המגדל</NativeName>
    <ParentName>יסוד המעלה, ישראל</ParentName>
    <Latitude>33.059559</Latitude>
    <Longitude>35.612535</Longitude>
  </Street>
  <Street>
    <NativeName>המזח</NativeName>
    <ParentName>יסוד המעלה, ישראל</ParentName>
    <Latitude>33.057260</Latitude>
    <Longitude>35.616481</Longitude>
  </Street>
  <Street>
    <NativeName>המייסדים</NativeName>
    <ParentName>יסוד המעלה, ישראל</ParentName>
    <Latitude>33.051602</Latitude>
    <Longitude>35.593335</Longitude>
  </Street>
  <Street>
    <NativeName>הפרדסים</NativeName>
    <ParentName>יסוד המעלה, ישראל</ParentName>
    <Latitude>33.060884</Latitude>
    <Longitude>35.611484</Longitude>
  </Street>
  <Street>
    <NativeName>הרימונים</NativeName>
    <ParentName>יסוד המעלה, ישראל</ParentName>
    <Latitude>33.053812</Latitude>
    <Longitude>35.591686</Longitude>
  </Street>
  <Street>
    <NativeName>השזיף</NativeName>
    <ParentName>יסוד המעלה, ישראל</ParentName>
    <Latitude>33.059986</Latitude>
    <Longitude>35.612320</Longitude>
  </Street>
  <Street>
    <NativeName>השמורה</NativeName>
    <ParentName>יסוד המעלה, ישראל</ParentName>
    <Latitude>33.060214</Latitude>
    <Longitude>35.606550</Longitude>
  </Street>
  <Street>
    <NativeName>השקד</NativeName>
    <ParentName>יסוד המעלה, ישראל</ParentName>
    <Latitude>33.056420</Latitude>
    <Longitude>35.593288</Longitude>
  </Street>
  <Street>
    <NativeName>התאנה</NativeName>
    <ParentName>יסוד המעלה, ישראל</ParentName>
    <Latitude>33.058834</Latitude>
    <Longitude>35.600805</Longitude>
  </Street>
  <Street>
    <NativeName>התמר</NativeName>
    <ParentName>יסוד המעלה, ישראל</ParentName>
    <Latitude>33.056362</Latitude>
    <Longitude>35.599668</Longitude>
  </Street>
  <Street>
    <NativeName>התעשייה</NativeName>
    <ParentName>יסוד המעלה, ישראל</ParentName>
    <Latitude>33.061910</Latitude>
    <Longitude>35.608274</Longitude>
  </Street>
</LocationData>
