<?xml version="1.0" encoding="UTF-8"?><LocationData>
  <CityRegion>
    <NativeName>Park Sha`ashu`im Superland</NativeName>
    <ParentName>ראשון לציון, ישראל</ParentName>
    <Latitude>31.978889</Latitude>
    <Longitude>34.743889</Longitude>
  </CityRegion>
  <Street>
    <NativeName>א.ד. גורדון</NativeName>
    <ParentName>ראשון לציון, ישראל</ParentName>
    <AlternateName>גורדון</AlternateName>
    <Latitude>31.965962</Latitude>
    <Longitude>34.795377</Longitude>
  </Street>
  <Street>
    <NativeName>אבא אחימאיר</NativeName>
    <ParentName>ראשון לציון, ישראל</ParentName>
    <AlternateName>אחימאיר</AlternateName>
    <Latitude>31.970026</Latitude>
    <Longitude>34.792712</Longitude>
  </Street>
  <Street>
    <NativeName>אבא הלל סילבר</NativeName>
    <ParentName>ראשון לציון, ישראל</ParentName>
    <Latitude>31.984708</Latitude>
    <Longitude>34.784902</Longitude>
  </Street>
  <Street>
    <NativeName>אבא קובנר</NativeName>
    <ParentName>ראשון לציון, ישראל</ParentName>
    <AlternateName>קובנר</AlternateName>
    <Latitude>31.976566</Latitude>
    <Longitude>34.769256</Longitude>
  </Street>
  <Street>
    <NativeName>אבו חצירא</NativeName>
    <ParentName>ראשון לציון, ישראל</ParentName>
    <Latitude>31.984404</Latitude>
    <Longitude>34.787766</Longitude>
  </Street>
  <Street>
    <NativeName>אבי האסירים</NativeName>
    <ParentName>ראשון לציון, ישראל</ParentName>
    <Latitude>31.954200</Latitude>
    <Longitude>34.804478</Longitude>
  </Street>
  <Street>
    <NativeName>אבידן שמעון</NativeName>
    <ParentName>ראשון לציון, ישראל</ParentName>
    <Latitude>31.965404</Latitude>
    <Longitude>34.819862</Longitude>
  </Street>
  <Street>
    <NativeName>אביחיל</NativeName>
    <ParentName>ראשון לציון, ישראל</ParentName>
    <Latitude>31.994546</Latitude>
    <Longitude>34.746190</Longitude>
  </Street>
  <Street>
    <NativeName>אביעזר ילין</NativeName>
    <ParentName>ראשון לציון, ישראל</ParentName>
    <Latitude>31.964802</Latitude>
    <Longitude>34.822023</Longitude>
  </Street>
  <Street>
    <NativeName>אבן גבירול</NativeName>
    <ParentName>ראשון לציון, ישראל</ParentName>
    <Latitude>31.976311</Latitude>
    <Longitude>34.776004</Longitude>
  </Street>
  <Street>
    <NativeName>אבן חן</NativeName>
    <ParentName>ראשון לציון, ישראל</ParentName>
    <Latitude>31.980818</Latitude>
    <Longitude>34.784921</Longitude>
  </Street>
  <Street>
    <NativeName>אבן שושן</NativeName>
    <ParentName>ראשון לציון, ישראל</ParentName>
    <Latitude>31.969831</Latitude>
    <Longitude>34.797571</Longitude>
  </Street>
  <Street>
    <NativeName>אבני איתן</NativeName>
    <ParentName>ראשון לציון, ישראל</ParentName>
    <Latitude>31.983095</Latitude>
    <Longitude>34.767174</Longitude>
  </Street>
  <Street>
    <NativeName>אבני חושן</NativeName>
    <ParentName>ראשון לציון, ישראל</ParentName>
    <Latitude>31.986435</Latitude>
    <Longitude>34.776188</Longitude>
  </Street>
  <Street>
    <NativeName>אברבנאל</NativeName>
    <ParentName>ראשון לציון, ישראל</ParentName>
    <Latitude>31.965913</Latitude>
    <Longitude>34.813483</Longitude>
  </Street>
  <Street>
    <NativeName>אברהם בומה שביט</NativeName>
    <ParentName>ראשון לציון, ישראל</ParentName>
    <Latitude>31.950559</Latitude>
    <Longitude>34.765685</Longitude>
  </Street>
  <Street>
    <NativeName>אברהם בר</NativeName>
    <ParentName>ראשון לציון, ישראל</ParentName>
    <Latitude>31.986453</Latitude>
    <Longitude>34.774326</Longitude>
  </Street>
  <Street>
    <NativeName>אברהם וינברג</NativeName>
    <ParentName>ראשון לציון, ישראל</ParentName>
    <Latitude>31.977084</Latitude>
    <Longitude>34.800487</Longitude>
  </Street>
  <CityRegion>
    <NativeName>אברמוביץ'</NativeName>
    <ParentName>ראשון לציון, ישראל</ParentName>
    <Latitude>31.971463</Latitude>
    <Longitude>34.803108</Longitude>
  </CityRegion>
  <Street>
    <NativeName>אבשלום</NativeName>
    <ParentName>ראשון לציון, ישראל</ParentName>
    <Latitude>31.973311</Latitude>
    <Longitude>34.802614</Longitude>
  </Street>
  <Street>
    <NativeName>אגוזי</NativeName>
    <ParentName>ראשון לציון, ישראל</ParentName>
    <Latitude>31.958553</Latitude>
    <Longitude>34.802969</Longitude>
  </Street>
  <Street>
    <NativeName>אדמונד פישר</NativeName>
    <ParentName>ראשון לציון, ישראל</ParentName>
    <Latitude>31.970774</Latitude>
    <Longitude>34.760640</Longitude>
  </Street>
  <Street>
    <NativeName>אדר</NativeName>
    <ParentName>ראשון לציון, ישראל</ParentName>
    <Latitude>31.998547</Latitude>
    <Longitude>34.745416</Longitude>
  </Street>
  <Street>
    <NativeName>אהוד בן גרא</NativeName>
    <ParentName>ראשון לציון, ישראל</ParentName>
    <Latitude>31.948994</Latitude>
    <Longitude>34.811746</Longitude>
  </Street>
  <Street>
    <NativeName>אהרון וברוך</NativeName>
    <ParentName>ראשון לציון, ישראל</ParentName>
    <Latitude>31.973625</Latitude>
    <Longitude>34.798985</Longitude>
  </Street>
  <Street>
    <NativeName>אהרון קלוג</NativeName>
    <ParentName>ראשון לציון, ישראל</ParentName>
    <Latitude>31.965315</Latitude>
    <Longitude>34.767723</Longitude>
  </Street>
  <Street>
    <NativeName>אהרון קרון</NativeName>
    <ParentName>ראשון לציון, ישראל</ParentName>
    <Latitude>31.959475</Latitude>
    <Longitude>34.804317</Longitude>
  </Street>
  <Street>
    <NativeName>אהרונוביץ'</NativeName>
    <ParentName>ראשון לציון, ישראל</ParentName>
    <Latitude>31.967547</Latitude>
    <Longitude>34.794289</Longitude>
  </Street>
  <Street>
    <NativeName>אהרונסון</NativeName>
    <ParentName>ראשון לציון, ישראל</ParentName>
    <Latitude>31.980844</Latitude>
    <Longitude>34.791232</Longitude>
  </Street>
  <Street>
    <NativeName>אוגדה</NativeName>
    <ParentName>ראשון לציון, ישראל</ParentName>
    <Latitude>31.980346</Latitude>
    <Longitude>34.763990</Longitude>
  </Street>
  <Street>
    <NativeName>אודם</NativeName>
    <ParentName>ראשון לציון, ישראל</ParentName>
    <Latitude>31.984101</Latitude>
    <Longitude>34.762599</Longitude>
  </Street>
  <Street>
    <NativeName>אוטו ורבורג</NativeName>
    <ParentName>ראשון לציון, ישראל</ParentName>
    <Latitude>31.970400</Latitude>
    <Longitude>34.762038</Longitude>
  </Street>
  <Street>
    <NativeName>אולגה ויהושע</NativeName>
    <ParentName>ראשון לציון, ישראל</ParentName>
    <Latitude>31.965053</Latitude>
    <Longitude>34.824385</Longitude>
  </Street>
  <Street>
    <NativeName>אוסישקין</NativeName>
    <ParentName>ראשון לציון, ישראל</ParentName>
    <AlternateName>מנחם אוסשקין</AlternateName>
    <AlternateName>אוסשקין</AlternateName>
    <AlternateName>מנחם אוסישקין</AlternateName>
    <Latitude>31.970859</Latitude>
    <Longitude>34.803661</Longitude>
  </Street>
  <Street>
    <NativeName>אופירה</NativeName>
    <ParentName>ראשון לציון, ישראל</ParentName>
    <Latitude>31.981477</Latitude>
    <Longitude>34.763822</Longitude>
  </Street>
  <Street>
    <NativeName>אור החיים</NativeName>
    <ParentName>ראשון לציון, ישראל</ParentName>
    <Latitude>31.977749</Latitude>
    <Longitude>34.776853</Longitude>
  </Street>
  <Street>
    <NativeName>אור כשדים</NativeName>
    <ParentName>ראשון לציון, ישראל</ParentName>
    <Latitude>31.963985</Latitude>
    <Longitude>34.816690</Longitude>
  </Street>
  <Street>
    <NativeName>אורטל</NativeName>
    <ParentName>ראשון לציון, ישראל</ParentName>
    <Latitude>31.985222</Latitude>
    <Longitude>34.762684</Longitude>
  </Street>
  <Street>
    <NativeName>אורי פורת</NativeName>
    <ParentName>ראשון לציון, ישראל</ParentName>
    <Latitude>31.966591</Latitude>
    <Longitude>34.803414</Longitude>
  </Street>
  <Street>
    <NativeName>אורי צבי</NativeName>
    <ParentName>ראשון לציון, ישראל</ParentName>
    <Latitude>31.979274</Latitude>
    <Longitude>34.771888</Longitude>
  </Street>
  <Street>
    <NativeName>אושה</NativeName>
    <ParentName>ראשון לציון, ישראל</ParentName>
    <Latitude>31.965697</Latitude>
    <Longitude>34.777717</Longitude>
  </Street>
  <Street>
    <NativeName>אז"ר</NativeName>
    <ParentName>ראשון לציון, ישראל</ParentName>
    <Latitude>31.964798</Latitude>
    <Longitude>34.801066</Longitude>
  </Street>
  <Street>
    <NativeName>אזולאי</NativeName>
    <ParentName>ראשון לציון, ישראל</ParentName>
    <Latitude>31.983715</Latitude>
    <Longitude>34.788267</Longitude>
  </Street>
  <Street>
    <NativeName>אח"י בת גלים</NativeName>
    <ParentName>ראשון לציון, ישראל</ParentName>
    <Latitude>31.998347</Latitude>
    <Longitude>34.733930</Longitude>
  </Street>
  <Street>
    <NativeName>אח"י געש</NativeName>
    <ParentName>ראשון לציון, ישראל</ParentName>
    <Latitude>31.998010</Latitude>
    <Longitude>34.736951</Longitude>
  </Street>
  <Street>
    <NativeName>אח"י דקר</NativeName>
    <ParentName>ראשון לציון, ישראל</ParentName>
    <Latitude>31.998713</Latitude>
    <Longitude>34.734086</Longitude>
  </Street>
  <Street>
    <NativeName>אח"י חנית</NativeName>
    <ParentName>ראשון לציון, ישראל</ParentName>
    <Latitude>32.000623</Latitude>
    <Longitude>34.736217</Longitude>
  </Street>
  <Street>
    <NativeName>אח"י חץ</NativeName>
    <ParentName>ראשון לציון, ישראל</ParentName>
    <Latitude>31.999104</Latitude>
    <Longitude>34.737923</Longitude>
  </Street>
  <Street>
    <NativeName>אח"י להב</NativeName>
    <ParentName>ראשון לציון, ישראל</ParentName>
    <Latitude>31.997885</Latitude>
    <Longitude>34.735625</Longitude>
  </Street>
  <Street>
    <NativeName>אח"י מבטח</NativeName>
    <ParentName>ראשון לציון, ישראל</ParentName>
    <Latitude>32.000047</Latitude>
    <Longitude>34.739023</Longitude>
  </Street>
  <Street>
    <NativeName>אח"י מזנק</NativeName>
    <ParentName>ראשון לציון, ישראל</ParentName>
    <Latitude>31.998786</Latitude>
    <Longitude>34.737625</Longitude>
  </Street>
  <Street>
    <NativeName>אח"י מעוז</NativeName>
    <ParentName>ראשון לציון, ישראל</ParentName>
    <Latitude>32.001554</Latitude>
    <Longitude>34.734949</Longitude>
  </Street>
  <Street>
    <NativeName>אח"י משגב</NativeName>
    <ParentName>ראשון לציון, ישראל</ParentName>
    <Latitude>32.000368</Latitude>
    <Longitude>34.737576</Longitude>
  </Street>
  <Street>
    <NativeName>אח"י סופה</NativeName>
    <ParentName>ראשון לציון, ישראל</ParentName>
    <Latitude>32.000047</Latitude>
    <Longitude>34.739023</Longitude>
  </Street>
  <Street>
    <NativeName>אח"י רשף</NativeName>
    <ParentName>ראשון לציון, ישראל</ParentName>
    <Latitude>31.999535</Latitude>
    <Longitude>34.736366</Longitude>
  </Street>
  <Street>
    <NativeName>אחד העם</NativeName>
    <ParentName>ראשון לציון, ישראל</ParentName>
    <Latitude>31.963470</Latitude>
    <Longitude>34.807607</Longitude>
  </Street>
  <CityRegion>
    <NativeName>אחוזת ראשונים</NativeName>
    <ParentName>ראשון לציון, ישראל</ParentName>
    <Latitude>31.984167</Latitude>
    <Longitude>34.781799</Longitude>
  </CityRegion>
  <Street>
    <NativeName>אחיעזר</NativeName>
    <ParentName>ראשון לציון, ישראל</ParentName>
    <Latitude>31.967621</Latitude>
    <Longitude>34.808301</Longitude>
  </Street>
  <Street>
    <NativeName>איזידור יצחק רבי</NativeName>
    <ParentName>ראשון לציון, ישראל</ParentName>
    <Latitude>31.966435</Latitude>
    <Longitude>34.768871</Longitude>
  </Street>
  <Street>
    <NativeName>איזקסון</NativeName>
    <ParentName>ראשון לציון, ישראל</ParentName>
    <Latitude>31.978515</Latitude>
    <Longitude>34.808609</Longitude>
  </Street>
  <Street>
    <NativeName>אייזנבנד</NativeName>
    <ParentName>ראשון לציון, ישראל</ParentName>
    <Latitude>31.966838</Latitude>
    <Longitude>34.813818</Longitude>
  </Street>
  <Street>
    <NativeName>איינשטיין</NativeName>
    <ParentName>ראשון לציון, ישראל</ParentName>
    <Latitude>31.966102</Latitude>
    <Longitude>34.792104</Longitude>
  </Street>
  <Street>
    <NativeName>אילון</NativeName>
    <ParentName>ראשון לציון, ישראל</ParentName>
    <Latitude>31.965824</Latitude>
    <Longitude>34.779236</Longitude>
  </Street>
  <Street>
    <NativeName>אימבר</NativeName>
    <ParentName>ראשון לציון, ישראל</ParentName>
    <AlternateName>איבמר</AlternateName>
    <Latitude>31.965055</Latitude>
    <Longitude>34.798831</Longitude>
  </Street>
  <Street>
    <NativeName>איש מצליח</NativeName>
    <ParentName>ראשון לציון, ישראל</ParentName>
    <Latitude>31.949034</Latitude>
    <Longitude>34.818130</Longitude>
  </Street>
  <Street>
    <NativeName>איתם</NativeName>
    <ParentName>ראשון לציון, ישראל</ParentName>
    <Latitude>31.979966</Latitude>
    <Longitude>34.761513</Longitude>
  </Street>
  <Street>
    <NativeName>איתמר בן אב"י</NativeName>
    <ParentName>ראשון לציון, ישראל</ParentName>
    <Latitude>31.963427</Latitude>
    <Longitude>34.809120</Longitude>
  </Street>
  <Street>
    <NativeName>אל רום</NativeName>
    <ParentName>ראשון לציון, ישראל</ParentName>
    <Latitude>31.983017</Latitude>
    <Longitude>34.761756</Longitude>
  </Street>
  <Street>
    <NativeName>אלוני הבשן</NativeName>
    <ParentName>ראשון לציון, ישראל</ParentName>
    <Latitude>31.983722</Latitude>
    <Longitude>34.766111</Longitude>
  </Street>
  <Street>
    <NativeName>אלחנן</NativeName>
    <ParentName>ראשון לציון, ישראל</ParentName>
    <Latitude>31.993113</Latitude>
    <Longitude>34.768627</Longitude>
  </Street>
  <Street>
    <NativeName>אלחריזי</NativeName>
    <ParentName>ראשון לציון, ישראל</ParentName>
    <Latitude>31.978714</Latitude>
    <Longitude>34.775347</Longitude>
  </Street>
  <Street>
    <NativeName>אלטלנה</NativeName>
    <ParentName>ראשון לציון, ישראל</ParentName>
    <Latitude>31.990198</Latitude>
    <Longitude>34.762476</Longitude>
  </Street>
  <Street>
    <NativeName>אלי ויזל</NativeName>
    <ParentName>ראשון לציון, ישראל</ParentName>
    <Latitude>31.968880</Latitude>
    <Longitude>34.770857</Longitude>
  </Street>
  <Street>
    <NativeName>אלי כהן</NativeName>
    <ParentName>ראשון לציון, ישראל</ParentName>
    <Latitude>31.985157</Latitude>
    <Longitude>34.808303</Longitude>
  </Street>
  <Street>
    <NativeName>אלי על</NativeName>
    <ParentName>ראשון לציון, ישראל</ParentName>
    <Latitude>31.984791</Latitude>
    <Longitude>34.759625</Longitude>
  </Street>
  <Street>
    <NativeName>אליאס קאנטי</NativeName>
    <ParentName>ראשון לציון, ישראל</ParentName>
    <Latitude>31.969387</Latitude>
    <Longitude>34.761403</Longitude>
  </Street>
  <Street>
    <NativeName>אליהו גולומב</NativeName>
    <ParentName>ראשון לציון, ישראל</ParentName>
    <Latitude>31.969119</Latitude>
    <Longitude>34.794502</Longitude>
  </Street>
  <Street>
    <NativeName>אלימלך צמיר</NativeName>
    <ParentName>ראשון לציון, ישראל</ParentName>
    <Latitude>31.983478</Latitude>
    <Longitude>34.808134</Longitude>
  </Street>
  <Street>
    <NativeName>אליעזר בלבן</NativeName>
    <ParentName>ראשון לציון, ישראל</ParentName>
    <Latitude>31.971565</Latitude>
    <Longitude>34.810281</Longitude>
  </Street>
  <Street>
    <NativeName>אליעזר מזל</NativeName>
    <ParentName>ראשון לציון, ישראל</ParentName>
    <Latitude>31.990662</Latitude>
    <Longitude>34.771949</Longitude>
  </Street>
  <Street>
    <NativeName>אליקום</NativeName>
    <ParentName>ראשון לציון, ישראל</ParentName>
    <Latitude>31.952634</Latitude>
    <Longitude>34.805641</Longitude>
  </Street>
  <Street>
    <NativeName>אלישע כהן</NativeName>
    <ParentName>ראשון לציון, ישראל</ParentName>
    <Latitude>31.978441</Latitude>
    <Longitude>34.798893</Longitude>
  </Street>
  <Street>
    <NativeName>אלפסי</NativeName>
    <ParentName>ראשון לציון, ישראל</ParentName>
    <Latitude>31.950219</Latitude>
    <Longitude>34.820282</Longitude>
  </Street>
  <Street>
    <NativeName>אלקבץ</NativeName>
    <ParentName>ראשון לציון, ישראל</ParentName>
    <Latitude>31.978253</Latitude>
    <Longitude>34.772849</Longitude>
  </Street>
  <Street>
    <NativeName>אלקלעי</NativeName>
    <ParentName>ראשון לציון, ישראל</ParentName>
    <AlternateName>אלקלאי</AlternateName>
    <Latitude>31.964648</Latitude>
    <Longitude>34.813420</Longitude>
  </Street>
  <Street>
    <NativeName>אלתרמן</NativeName>
    <ParentName>ראשון לציון, ישראל</ParentName>
    <AlternateName>אלטרמן</AlternateName>
    <Latitude>31.974819</Latitude>
    <Longitude>34.769011</Longitude>
  </Street>
  <Street>
    <NativeName>אמזלג</NativeName>
    <ParentName>ראשון לציון, ישראל</ParentName>
    <Latitude>31.969456</Latitude>
    <Longitude>34.799586</Longitude>
  </Street>
  <Street>
    <NativeName>אמיל זולא</NativeName>
    <ParentName>ראשון לציון, ישראל</ParentName>
    <AlternateName>אמיל זולה</AlternateName>
    <AlternateName>עמיל זולה</AlternateName>
    <AlternateName>עמיל זולא</AlternateName>
    <Latitude>31.973108</Latitude>
    <Longitude>34.799416</Longitude>
  </Street>
  <CityRegion>
    <NativeName>אנדרטת ההכשרות</NativeName>
    <ParentName>ראשון לציון, ישראל</ParentName>
    <Latitude>31.963057</Latitude>
    <Longitude>34.817594</Longitude>
  </CityRegion>
  <Street>
    <NativeName>אנה פרנק</NativeName>
    <ParentName>ראשון לציון, ישראל</ParentName>
    <Latitude>31.973146</Latitude>
    <Longitude>34.796160</Longitude>
  </Street>
  <Street>
    <NativeName>אנילביץ'</NativeName>
    <ParentName>ראשון לציון, ישראל</ParentName>
    <Latitude>31.983443</Latitude>
    <Longitude>34.789816</Longitude>
  </Street>
  <Street>
    <NativeName>אניעם</NativeName>
    <ParentName>ראשון לציון, ישראל</ParentName>
    <Latitude>31.983443</Latitude>
    <Longitude>34.758590</Longitude>
  </Street>
  <Street>
    <NativeName>אסא</NativeName>
    <ParentName>ראשון לציון, ישראל</ParentName>
    <Latitude>31.962785</Latitude>
    <Longitude>34.802263</Longitude>
  </Street>
  <Street>
    <NativeName>אסירי ציון</NativeName>
    <ParentName>ראשון לציון, ישראל</ParentName>
    <Latitude>31.950898</Latitude>
    <Longitude>34.828916</Longitude>
  </Street>
  <Street>
    <NativeName>אסתר המלכה</NativeName>
    <ParentName>ראשון לציון, ישראל</ParentName>
    <Latitude>31.994802</Latitude>
    <Longitude>34.743151</Longitude>
  </Street>
  <Street>
    <NativeName>אעלה בתמר</NativeName>
    <ParentName>ראשון לציון, ישראל</ParentName>
    <Latitude>31.955249</Latitude>
    <Longitude>34.812421</Longitude>
  </Street>
  <Street>
    <NativeName>אפיק</NativeName>
    <ParentName>ראשון לציון, ישראל</ParentName>
    <Latitude>31.983895</Latitude>
    <Longitude>34.758908</Longitude>
  </Street>
  <Street>
    <NativeName>אצ"ל</NativeName>
    <ParentName>ראשון לציון, ישראל</ParentName>
    <AlternateName>האצ"ל</AlternateName>
    <Latitude>31.990118</Latitude>
    <Longitude>34.762688</Longitude>
  </Street>
  <Street>
    <NativeName>ארבל</NativeName>
    <ParentName>ראשון לציון, ישראל</ParentName>
    <Latitude>31.959555</Latitude>
    <Longitude>34.788434</Longitude>
  </Street>
  <Street>
    <NativeName>ארגמן</NativeName>
    <ParentName>ראשון לציון, ישראל</ParentName>
    <Latitude>31.996514</Latitude>
    <Longitude>34.745325</Longitude>
  </Street>
  <Street>
    <NativeName>אריאב</NativeName>
    <ParentName>ראשון לציון, ישראל</ParentName>
    <Latitude>31.988170</Latitude>
    <Longitude>34.786075</Longitude>
  </Street>
  <Street>
    <NativeName>אריה בן אליעזר</NativeName>
    <ParentName>ראשון לציון, ישראל</ParentName>
    <Latitude>31.959529</Latitude>
    <Longitude>34.794998</Longitude>
  </Street>
  <Street>
    <NativeName>אריה רפאל</NativeName>
    <ParentName>ראשון לציון, ישראל</ParentName>
    <Latitude>31.967585</Latitude>
    <Longitude>34.810242</Longitude>
  </Street>
  <Street>
    <NativeName>אריה שנקר</NativeName>
    <ParentName>ראשון לציון, ישראל</ParentName>
    <Latitude>31.952522</Latitude>
    <Longitude>34.768651</Longitude>
  </Street>
  <Street>
    <NativeName>ארלוזורוב</NativeName>
    <ParentName>ראשון לציון, ישראל</ParentName>
    <AlternateName>ארלוזרוב</AlternateName>
    <Latitude>31.967507</Latitude>
    <Longitude>34.792737</Longitude>
  </Street>
  <Street>
    <NativeName>ארנו פנזיאס</NativeName>
    <ParentName>ראשון לציון, ישראל</ParentName>
    <Latitude>31.968598</Latitude>
    <Longitude>34.768817</Longitude>
  </Street>
  <Street>
    <NativeName>ארנון</NativeName>
    <ParentName>ראשון לציון, ישראל</ParentName>
    <Latitude>31.979676</Latitude>
    <Longitude>34.786425</Longitude>
  </Street>
  <Street>
    <NativeName>ארתור רובינשטיין</NativeName>
    <ParentName>ראשון לציון, ישראל</ParentName>
    <Latitude>31.970545</Latitude>
    <Longitude>34.794356</Longitude>
  </Street>
  <Street>
    <NativeName>אשר ברש</NativeName>
    <ParentName>ראשון לציון, ישראל</ParentName>
    <Latitude>31.967954</Latitude>
    <Longitude>34.814502</Longitude>
  </Street>
  <Street>
    <NativeName>אשר לוין</NativeName>
    <ParentName>ראשון לציון, ישראל</ParentName>
    <Latitude>31.965054</Latitude>
    <Longitude>34.804180</Longitude>
  </Street>
  <Street>
    <NativeName>בארי</NativeName>
    <ParentName>ראשון לציון, ישראל</ParentName>
    <Latitude>31.987782</Latitude>
    <Longitude>34.807490</Longitude>
  </Street>
  <Street>
    <NativeName>בבה אידלסון</NativeName>
    <ParentName>ראשון לציון, ישראל</ParentName>
    <Latitude>31.974694</Latitude>
    <Longitude>34.793328</Longitude>
  </Street>
  <Street>
    <NativeName>בורוכוב</NativeName>
    <ParentName>ראשון לציון, ישראל</ParentName>
    <Latitude>31.968586</Latitude>
    <Longitude>34.794507</Longitude>
  </Street>
  <Street>
    <NativeName>בוריס פסטרנק</NativeName>
    <ParentName>ראשון לציון, ישראל</ParentName>
    <Latitude>31.969513</Latitude>
    <Longitude>34.762070</Longitude>
  </Street>
  <Street>
    <NativeName>בורלא</NativeName>
    <ParentName>ראשון לציון, ישראל</ParentName>
    <Latitude>31.976566</Latitude>
    <Longitude>34.769256</Longitude>
  </Street>
  <CityRegion>
    <NativeName>בי"ס אבני החושן חט"ב</NativeName>
    <ParentName>ראשון לציון, ישראל</ParentName>
    <Latitude>31.982111</Latitude>
    <Longitude>34.774813</Longitude>
  </CityRegion>
  <CityRegion>
    <NativeName>בי"ס בן גוריון חט"ב</NativeName>
    <ParentName>ראשון לציון, ישראל</ParentName>
    <Latitude>31.956002</Latitude>
    <Longitude>34.799753</Longitude>
  </CityRegion>
  <CityRegion>
    <NativeName>בי"ס זבולון המר ממ"ד</NativeName>
    <ParentName>ראשון לציון, ישראל</ParentName>
    <Latitude>31.974912</Latitude>
    <Longitude>34.781890</Longitude>
  </CityRegion>
  <CityRegion>
    <NativeName>בי"ס לכבאות</NativeName>
    <ParentName>ראשון לציון, ישראל</ParentName>
    <Latitude>31.991858</Latitude>
    <Longitude>34.745678</Longitude>
  </CityRegion>
  <CityRegion>
    <NativeName>בי"ס מקיף י' אבני חושן</NativeName>
    <ParentName>ראשון לציון, ישראל</ParentName>
    <Latitude>31.984324</Latitude>
    <Longitude>34.774468</Longitude>
  </CityRegion>
  <CityRegion>
    <NativeName>בי"ס מרחבים</NativeName>
    <ParentName>ראשון לציון, ישראל</ParentName>
    <Latitude>31.978591</Latitude>
    <Longitude>34.773346</Longitude>
  </CityRegion>
  <Street>
    <NativeName>ביאליק</NativeName>
    <ParentName>ראשון לציון, ישראל</ParentName>
    <AlternateName>חיים נחמן ביאליק</AlternateName>
    <Latitude>31.965603</Latitude>
    <Longitude>34.801821</Longitude>
  </Street>
  <Street>
    <NativeName>ביילינסון</NativeName>
    <ParentName>ראשון לציון, ישראל</ParentName>
    <Latitude>31.965820</Latitude>
    <Longitude>34.790897</Longitude>
  </Street>
  <Street>
    <NativeName>ביל"ו</NativeName>
    <ParentName>ראשון לציון, ישראל</ParentName>
    <Latitude>31.958481</Latitude>
    <Longitude>34.809937</Longitude>
  </Street>
  <Street>
    <NativeName>בית הלוי</NativeName>
    <ParentName>ראשון לציון, ישראל</ParentName>
    <Latitude>31.977247</Latitude>
    <Longitude>34.771280</Longitude>
  </Street>
  <Street>
    <NativeName>בית הערבה</NativeName>
    <ParentName>ראשון לציון, ישראל</ParentName>
    <Latitude>31.965243</Latitude>
    <Longitude>34.779344</Longitude>
  </Street>
  <Street>
    <NativeName>בית יהושע</NativeName>
    <ParentName>ראשון לציון, ישראל</ParentName>
    <AlternateName>בית יהושוע</AlternateName>
    <Latitude>31.964920</Latitude>
    <Longitude>34.778045</Longitude>
  </Street>
  <Street>
    <NativeName>בית יוסף</NativeName>
    <ParentName>ראשון לציון, ישראל</ParentName>
    <Latitude>31.964341</Latitude>
    <Longitude>34.814275</Longitude>
  </Street>
  <Street>
    <NativeName>בית לחם</NativeName>
    <ParentName>ראשון לציון, ישראל</ParentName>
    <Latitude>31.961571</Latitude>
    <Longitude>34.813065</Longitude>
  </Street>
  <CityRegion>
    <NativeName>בית פלטין</NativeName>
    <ParentName>ראשון לציון, ישראל</ParentName>
    <Latitude>31.988811</Latitude>
    <Longitude>34.771428</Longitude>
  </CityRegion>
  <Street>
    <NativeName>בית"ר</NativeName>
    <ParentName>ראשון לציון, ישראל</ParentName>
    <Latitude>31.967512</Latitude>
    <Longitude>34.800642</Longitude>
  </Street>
  <Street>
    <NativeName>בלפור</NativeName>
    <ParentName>ראשון לציון, ישראל</ParentName>
    <Latitude>31.964120</Latitude>
    <Longitude>34.811365</Longitude>
  </Street>
  <Street>
    <NativeName>בלקינד</NativeName>
    <ParentName>ראשון לציון, ישראל</ParentName>
    <Latitude>31.958983</Latitude>
    <Longitude>34.811382</Longitude>
  </Street>
  <Street>
    <NativeName>בן אהרון</NativeName>
    <ParentName>ראשון לציון, ישראל</ParentName>
    <Latitude>31.965212</Latitude>
    <Longitude>34.811387</Longitude>
  </Street>
  <Street>
    <NativeName>בן איש חי</NativeName>
    <ParentName>ראשון לציון, ישראל</ParentName>
    <Latitude>31.977539</Latitude>
    <Longitude>34.775668</Longitude>
  </Street>
  <Street>
    <NativeName>בן זאב</NativeName>
    <ParentName>ראשון לציון, ישראל</ParentName>
    <Latitude>31.969552</Latitude>
    <Longitude>34.805537</Longitude>
  </Street>
  <Street>
    <NativeName>בן זכאי</NativeName>
    <ParentName>ראשון לציון, ישראל</ParentName>
    <AlternateName>רבן יוחנן בן זכאי</AlternateName>
    <Latitude>31.945060</Latitude>
    <Longitude>34.826111</Longitude>
  </Street>
  <Street>
    <NativeName>בן יהודה</NativeName>
    <ParentName>ראשון לציון, ישראל</ParentName>
    <Latitude>31.960216</Latitude>
    <Longitude>34.806029</Longitude>
  </Street>
  <Street>
    <NativeName>בן סרוק</NativeName>
    <ParentName>ראשון לציון, ישראל</ParentName>
    <AlternateName>בן סורק</AlternateName>
    <Latitude>31.975620</Latitude>
    <Longitude>34.773610</Longitude>
  </Street>
  <Street>
    <NativeName>בנבנישתי</NativeName>
    <ParentName>ראשון לציון, ישראל</ParentName>
    <AlternateName>בן בנישתי</AlternateName>
    <Latitude>31.980185</Latitude>
    <Longitude>34.771633</Longitude>
  </Street>
  <CityRegion>
    <NativeName>בנות חיל</NativeName>
    <ParentName>ראשון לציון, ישראל</ParentName>
    <Latitude>31.974824</Latitude>
    <Longitude>34.795093</Longitude>
  </CityRegion>
  <Street>
    <NativeName>בני חיל</NativeName>
    <ParentName>ראשון לציון, ישראל</ParentName>
    <Latitude>31.985601</Latitude>
    <Longitude>34.761652</Longitude>
  </Street>
  <Street>
    <NativeName>בני יהודה</NativeName>
    <ParentName>ראשון לציון, ישראל</ParentName>
    <Latitude>31.984347</Latitude>
    <Longitude>34.759267</Longitude>
  </Street>
  <Street>
    <NativeName>בני עקיבא</NativeName>
    <ParentName>ראשון לציון, ישראל</ParentName>
    <Latitude>31.973318</Latitude>
    <Longitude>34.815021</Longitude>
  </Street>
  <Street>
    <NativeName>בנימין שמוטקין</NativeName>
    <ParentName>ראשון לציון, ישראל</ParentName>
    <Latitude>31.978605</Latitude>
    <Longitude>34.812507</Longitude>
  </Street>
  <Street>
    <NativeName>בעל הטורים</NativeName>
    <ParentName>ראשון לציון, ישראל</ParentName>
    <Latitude>31.976316</Latitude>
    <Longitude>34.773149</Longitude>
  </Street>
  <Street>
    <NativeName>בקרמן</NativeName>
    <ParentName>ראשון לציון, ישראל</ParentName>
    <Latitude>31.958927</Latitude>
    <Longitude>34.813594</Longitude>
  </Street>
  <Street>
    <NativeName>בר אילן</NativeName>
    <ParentName>ראשון לציון, ישראל</ParentName>
    <Latitude>31.953017</Latitude>
    <Longitude>34.807610</Longitude>
  </Street>
  <Street>
    <NativeName>בר יוחאי</NativeName>
    <ParentName>ראשון לציון, ישראל</ParentName>
    <Latitude>31.973625</Latitude>
    <Longitude>34.798985</Longitude>
  </Street>
  <Street>
    <NativeName>בר כוכבא</NativeName>
    <ParentName>ראשון לציון, ישראל</ParentName>
    <Latitude>31.963245</Latitude>
    <Longitude>34.824440</Longitude>
  </Street>
  <Street>
    <NativeName>ברגמן</NativeName>
    <ParentName>ראשון לציון, ישראל</ParentName>
    <Latitude>31.980049</Latitude>
    <Longitude>34.770867</Longitude>
  </Street>
  <Street>
    <NativeName>ברגר</NativeName>
    <ParentName>ראשון לציון, ישראל</ParentName>
    <Latitude>31.950236</Latitude>
    <Longitude>34.809903</Longitude>
  </Street>
  <Street>
    <NativeName>ברוך בנאסרף</NativeName>
    <ParentName>ראשון לציון, ישראל</ParentName>
    <Latitude>31.972497</Latitude>
    <Longitude>34.760689</Longitude>
  </Street>
  <Street>
    <NativeName>ברוך גרינברג</NativeName>
    <ParentName>ראשון לציון, ישראל</ParentName>
    <Latitude>31.953571</Latitude>
    <Longitude>34.808541</Longitude>
  </Street>
  <Street>
    <NativeName>ברוך שרוני</NativeName>
    <ParentName>ראשון לציון, ישראל</ParentName>
    <Latitude>31.951217</Latitude>
    <Longitude>34.808525</Longitude>
  </Street>
  <Street>
    <NativeName>ברזילי</NativeName>
    <ParentName>ראשון לציון, ישראל</ParentName>
    <Latitude>31.965336</Latitude>
    <Longitude>34.790930</Longitude>
  </Street>
  <Street>
    <NativeName>ברטון ריכטר</NativeName>
    <ParentName>ראשון לציון, ישראל</ParentName>
    <Latitude>31.969081</Latitude>
    <Longitude>34.769022</Longitude>
  </Street>
  <Street>
    <NativeName>ברית יוסף בית"ר</NativeName>
    <ParentName>ראשון לציון, ישראל</ParentName>
    <Latitude>31.973381</Latitude>
    <Longitude>34.817863</Longitude>
  </Street>
  <Street>
    <NativeName>ברנדייס</NativeName>
    <ParentName>ראשון לציון, ישראל</ParentName>
    <Latitude>31.969872</Latitude>
    <Longitude>34.807945</Longitude>
  </Street>
  <Street>
    <NativeName>ברנר</NativeName>
    <ParentName>ראשון לציון, ישראל</ParentName>
    <Latitude>31.965808</Latitude>
    <Longitude>34.794232</Longitude>
  </Street>
  <Street>
    <NativeName>ברנשטיין</NativeName>
    <ParentName>ראשון לציון, ישראל</ParentName>
    <AlternateName>אדוארד ברנשטיין</AlternateName>
    <AlternateName>אדוארד</AlternateName>
    <Latitude>31.959261</Latitude>
    <Longitude>34.815673</Longitude>
  </Street>
  <Street>
    <NativeName>ברק</NativeName>
    <ParentName>ראשון לציון, ישראל</ParentName>
    <Latitude>31.948386</Latitude>
    <Longitude>34.819606</Longitude>
  </Street>
  <Street>
    <NativeName>ברקוביץ'</NativeName>
    <ParentName>ראשון לציון, ישראל</ParentName>
    <Latitude>31.965032</Latitude>
    <Longitude>34.803970</Longitude>
  </Street>
  <Street>
    <NativeName>ברקת</NativeName>
    <ParentName>ראשון לציון, ישראל</ParentName>
    <Latitude>31.985871</Latitude>
    <Longitude>34.776455</Longitude>
  </Street>
  <Street>
    <NativeName>ברשבסקי</NativeName>
    <ParentName>ראשון לציון, ישראל</ParentName>
    <Latitude>31.973687</Latitude>
    <Longitude>34.810750</Longitude>
  </Street>
  <Street>
    <NativeName>ג'ורג' דה הבשי</NativeName>
    <ParentName>ראשון לציון, ישראל</ParentName>
    <Latitude>31.965719</Latitude>
    <Longitude>34.768871</Longitude>
  </Street>
  <Street>
    <NativeName>גאולים</NativeName>
    <ParentName>ראשון לציון, ישראל</ParentName>
    <Latitude>31.966765</Latitude>
    <Longitude>34.779563</Longitude>
  </Street>
  <Street>
    <NativeName>גארי בקר</NativeName>
    <ParentName>ראשון לציון, ישראל</ParentName>
    <Latitude>31.967523</Latitude>
    <Longitude>34.765053</Longitude>
  </Street>
  <Street>
    <NativeName>גבעת יואב</NativeName>
    <ParentName>ראשון לציון, ישראל</ParentName>
    <Latitude>31.985219</Latitude>
    <Longitude>34.760089</Longitude>
  </Street>
  <Street>
    <NativeName>גבעתי</NativeName>
    <ParentName>ראשון לציון, ישראל</ParentName>
    <Latitude>31.965931</Latitude>
    <Longitude>34.817023</Longitude>
  </Street>
  <Street>
    <NativeName>גבריהו</NativeName>
    <ParentName>ראשון לציון, ישראל</ParentName>
    <Latitude>31.958166</Latitude>
    <Longitude>34.813703</Longitude>
  </Street>
  <Street>
    <NativeName>גדולי ישראל</NativeName>
    <ParentName>ראשון לציון, ישראל</ParentName>
    <Latitude>31.978555</Latitude>
    <Longitude>34.770602</Longitude>
  </Street>
  <Street>
    <NativeName>גדעון</NativeName>
    <ParentName>ראשון לציון, ישראל</ParentName>
    <Latitude>31.949194</Latitude>
    <Longitude>34.815071</Longitude>
  </Street>
  <Street>
    <NativeName>גולדברג הנדבן</NativeName>
    <ParentName>ראשון לציון, ישראל</ParentName>
    <Latitude>31.964512</Latitude>
    <Longitude>34.823975</Longitude>
  </Street>
  <Street>
    <NativeName>גולדה מאיר</NativeName>
    <ParentName>ראשון לציון, ישראל</ParentName>
    <Latitude>31.971393</Latitude>
    <Longitude>34.786285</Longitude>
  </Street>
  <Street>
    <NativeName>גולינקין</NativeName>
    <ParentName>ראשון לציון, ישראל</ParentName>
    <Latitude>31.985682</Latitude>
    <Longitude>34.790711</Longitude>
  </Street>
  <Street>
    <NativeName>גוסטב הרץ</NativeName>
    <ParentName>ראשון לציון, ישראל</ParentName>
    <Latitude>31.968052</Latitude>
    <Longitude>34.768881</Longitude>
  </Street>
  <Street>
    <NativeName>גור</NativeName>
    <ParentName>ראשון לציון, ישראל</ParentName>
    <Latitude>31.958698</Latitude>
    <Longitude>34.792075</Longitude>
  </Street>
  <CityRegion>
    <NativeName>גורדון</NativeName>
    <ParentName>ראשון לציון, ישראל</ParentName>
    <AlternateName>א.ד. גורדון</AlternateName>
    <Latitude>31.951965</Latitude>
    <Longitude>34.817252</Longitude>
  </CityRegion>
  <Street>
    <NativeName>גוש חלב</NativeName>
    <ParentName>ראשון לציון, ישראל</ParentName>
    <Latitude>31.963041</Latitude>
    <Longitude>34.822886</Longitude>
  </Street>
  <Street>
    <NativeName>גוש עציון</NativeName>
    <ParentName>ראשון לציון, ישראל</ParentName>
    <Latitude>31.967401</Latitude>
    <Longitude>34.818835</Longitude>
  </Street>
  <Street>
    <NativeName>גיבורי ישראל</NativeName>
    <ParentName>ראשון לציון, ישראל</ParentName>
    <Latitude>31.986699</Latitude>
    <Longitude>34.809266</Longitude>
  </Street>
  <Street>
    <NativeName>גינוסר</NativeName>
    <ParentName>ראשון לציון, ישראל</ParentName>
    <Latitude>31.967453</Latitude>
    <Longitude>34.779928</Longitude>
  </Street>
  <Street>
    <NativeName>גיסין</NativeName>
    <ParentName>ראשון לציון, ישראל</ParentName>
    <Latitude>31.971264</Latitude>
    <Longitude>34.799083</Longitude>
  </Street>
  <Street>
    <NativeName>גלוסקא</NativeName>
    <ParentName>ראשון לציון, ישראל</ParentName>
    <AlternateName>גלוסקה</AlternateName>
    <Latitude>31.993902</Latitude>
    <Longitude>34.753710</Longitude>
  </Street>
  <Street>
    <NativeName>גלוסקין</NativeName>
    <ParentName>ראשון לציון, ישראל</ParentName>
    <Latitude>31.959079</Latitude>
    <Longitude>34.806227</Longitude>
  </Street>
  <CityRegion>
    <NativeName>גן אבני החושן</NativeName>
    <ParentName>ראשון לציון, ישראל</ParentName>
    <Latitude>31.983416</Latitude>
    <Longitude>34.776755</Longitude>
  </CityRegion>
  <CityRegion>
    <NativeName>גן הנצחה נחלת יהודה א'</NativeName>
    <ParentName>ראשון לציון, ישראל</ParentName>
    <Latitude>31.977453</Latitude>
    <Longitude>34.803852</Longitude>
  </CityRegion>
  <CityRegion>
    <NativeName>גן הפועל המזרחי</NativeName>
    <ParentName>ראשון לציון, ישראל</ParentName>
    <Latitude>31.954113</Latitude>
    <Longitude>34.808554</Longitude>
  </CityRegion>
  <CityRegion>
    <NativeName>גן השופט יעקב סגל</NativeName>
    <ParentName>ראשון לציון, ישראל</ParentName>
    <Latitude>31.980104</Latitude>
    <Longitude>34.784868</Longitude>
  </CityRegion>
  <Street>
    <NativeName>גן יבנה</NativeName>
    <ParentName>ראשון לציון, ישראל</ParentName>
    <Latitude>31.965215</Latitude>
    <Longitude>34.794695</Longitude>
  </Street>
  <CityRegion>
    <NativeName>גן מנחם בגין</NativeName>
    <ParentName>ראשון לציון, ישראל</ParentName>
    <Latitude>31.971431</Latitude>
    <Longitude>34.793670</Longitude>
  </CityRegion>
  <CityRegion>
    <NativeName>גן מנחם כהן</NativeName>
    <ParentName>ראשון לציון, ישראל</ParentName>
    <Latitude>31.974100</Latitude>
    <Longitude>34.813277</Longitude>
  </CityRegion>
  <CityRegion>
    <NativeName>גן פופל</NativeName>
    <ParentName>ראשון לציון, ישראל</ParentName>
    <Latitude>31.969517</Latitude>
    <Longitude>34.816469</Longitude>
  </CityRegion>
  <CityRegion>
    <NativeName>גן פריימן</NativeName>
    <ParentName>ראשון לציון, ישראל</ParentName>
    <Latitude>31.974310</Latitude>
    <Longitude>34.815413</Longitude>
  </CityRegion>
  <CityRegion>
    <NativeName>גן פרס נובל</NativeName>
    <ParentName>ראשון לציון, ישראל</ParentName>
    <Latitude>31.969292</Latitude>
    <Longitude>34.765275</Longitude>
  </CityRegion>
  <Street>
    <NativeName>גרוזנברג</NativeName>
    <ParentName>ראשון לציון, ישראל</ParentName>
    <Latitude>31.972679</Latitude>
    <Longitude>34.800245</Longitude>
  </Street>
  <Street>
    <NativeName>גרינבוים</NativeName>
    <ParentName>ראשון לציון, ישראל</ParentName>
    <Latitude>31.963130</Latitude>
    <Longitude>34.801281</Longitude>
  </Street>
  <Street>
    <NativeName>גרינשפן</NativeName>
    <ParentName>ראשון לציון, ישראל</ParentName>
    <Latitude>31.956867</Latitude>
    <Longitude>34.815050</Longitude>
  </Street>
  <Street>
    <NativeName>גרניט</NativeName>
    <ParentName>ראשון לציון, ישראל</ParentName>
    <Latitude>31.981533</Latitude>
    <Longitude>34.784178</Longitude>
  </Street>
  <Street>
    <NativeName>גרץ</NativeName>
    <ParentName>ראשון לציון, ישראל</ParentName>
    <Latitude>31.970030</Latitude>
    <Longitude>34.795694</Longitude>
  </Street>
  <Street>
    <NativeName>גרשברג</NativeName>
    <ParentName>ראשון לציון, ישראל</ParentName>
    <Latitude>31.959424</Latitude>
    <Longitude>34.814071</Longitude>
  </Street>
  <Street>
    <NativeName>גרשון מן</NativeName>
    <ParentName>ראשון לציון, ישראל</ParentName>
    <Latitude>31.974683</Latitude>
    <Longitude>34.798005</Longitude>
  </Street>
  <Street>
    <NativeName>גרשוני</NativeName>
    <ParentName>ראשון לציון, ישראל</ParentName>
    <Latitude>31.965848</Latitude>
    <Longitude>34.820905</Longitude>
  </Street>
  <Street>
    <NativeName>גשור</NativeName>
    <ParentName>ראשון לציון, ישראל</ParentName>
    <Latitude>31.983895</Latitude>
    <Longitude>34.758908</Longitude>
  </Street>
  <Street>
    <NativeName>גשר</NativeName>
    <ParentName>ראשון לציון, ישראל</ParentName>
    <Latitude>31.965909</Latitude>
    <Longitude>34.781308</Longitude>
  </Street>
  <Street>
    <NativeName>ד"ר ז'יוואגו</NativeName>
    <ParentName>ראשון לציון, ישראל</ParentName>
    <AlternateName>ז'יוואגו</AlternateName>
    <AlternateName>דוקטור ז'יוואגו</AlternateName>
    <Latitude>31.970086</Latitude>
    <Longitude>34.761992</Longitude>
  </Street>
  <Street>
    <NativeName>ד"ר יוסף בורג</NativeName>
    <ParentName>ראשון לציון, ישראל</ParentName>
    <AlternateName>יוסף בורג</AlternateName>
    <AlternateName>דוקטור יוסף בורג</AlternateName>
    <Latitude>31.969161</Latitude>
    <Longitude>34.820174</Longitude>
  </Street>
  <Street>
    <NativeName>דב הוז</NativeName>
    <ParentName>ראשון לציון, ישראל</ParentName>
    <Latitude>31.965203</Latitude>
    <Longitude>34.793631</Longitude>
  </Street>
  <Street>
    <NativeName>דבורה בארון</NativeName>
    <ParentName>ראשון לציון, ישראל</ParentName>
    <Latitude>31.965070</Latitude>
    <Longitude>34.796540</Longitude>
  </Street>
  <Street>
    <NativeName>דבורה הנביאה</NativeName>
    <ParentName>ראשון לציון, ישראל</ParentName>
    <Latitude>31.950746</Latitude>
    <Longitude>34.818157</Longitude>
  </Street>
  <Street>
    <NativeName>דג הזהב</NativeName>
    <ParentName>ראשון לציון, ישראל</ParentName>
    <Latitude>31.986314</Latitude>
    <Longitude>34.782067</Longitude>
  </Street>
  <Street>
    <NativeName>דגניה</NativeName>
    <ParentName>ראשון לציון, ישראל</ParentName>
    <Latitude>31.969788</Latitude>
    <Longitude>34.810791</Longitude>
  </Street>
  <Street>
    <NativeName>דובנוב</NativeName>
    <ParentName>ראשון לציון, ישראל</ParentName>
    <Latitude>31.969365</Latitude>
    <Longitude>34.796430</Longitude>
  </Street>
  <Street>
    <NativeName>דוד אלעזר</NativeName>
    <ParentName>ראשון לציון, ישראל</ParentName>
    <AlternateName>דויד אלעזר</AlternateName>
    <Latitude>31.965172</Latitude>
    <Longitude>34.819227</Longitude>
  </Street>
  <Street>
    <NativeName>דוד בולטימור</NativeName>
    <ParentName>ראשון לציון, ישראל</ParentName>
    <AlternateName>דויד בולטימור</AlternateName>
    <Latitude>31.971547</Latitude>
    <Longitude>34.761625</Longitude>
  </Street>
  <Street>
    <NativeName>דוד המלך</NativeName>
    <ParentName>ראשון לציון, ישראל</ParentName>
    <AlternateName>דויד המלך</AlternateName>
    <Latitude>31.978410</Latitude>
    <Longitude>34.787986</Longitude>
  </Street>
  <Street>
    <NativeName>דוד הראובני</NativeName>
    <ParentName>ראשון לציון, ישראל</ParentName>
    <AlternateName>דויד הראובני</AlternateName>
    <Latitude>31.963178</Latitude>
    <Longitude>34.813029</Longitude>
  </Street>
  <Street>
    <NativeName>דוד ילין</NativeName>
    <ParentName>ראשון לציון, ישראל</ParentName>
    <AlternateName>דויד ילין</AlternateName>
    <Latitude>31.956466</Latitude>
    <Longitude>34.806719</Longitude>
  </Street>
  <Street>
    <NativeName>דוד סחרוב</NativeName>
    <ParentName>ראשון לציון, ישראל</ParentName>
    <AlternateName>דויד סחרוב</AlternateName>
    <Latitude>31.990956</Latitude>
    <Longitude>34.771291</Longitude>
  </Street>
  <Street>
    <NativeName>דוד סניור</NativeName>
    <ParentName>ראשון לציון, ישראל</ParentName>
    <AlternateName>דויד סניור</AlternateName>
    <Latitude>31.965872</Latitude>
    <Longitude>34.803296</Longitude>
  </Street>
  <Street>
    <NativeName>דוד רזיאל</NativeName>
    <ParentName>ראשון לציון, ישראל</ParentName>
    <AlternateName>דויד רזיאל</AlternateName>
    <Latitude>31.988991</Latitude>
    <Longitude>34.770795</Longitude>
  </Street>
  <Street>
    <NativeName>דוד תדהר</NativeName>
    <ParentName>ראשון לציון, ישראל</ParentName>
    <AlternateName>דויד תדהר</AlternateName>
    <Latitude>31.986194</Latitude>
    <Longitude>34.786167</Longitude>
  </Street>
  <Street>
    <NativeName>דוידזון</NativeName>
    <ParentName>ראשון לציון, ישראל</ParentName>
    <Latitude>31.970954</Latitude>
    <Longitude>34.814479</Longitude>
  </Street>
  <Street>
    <NativeName>דונלד גלזר</NativeName>
    <ParentName>ראשון לציון, ישראל</ParentName>
    <Latitude>31.967885</Latitude>
    <Longitude>34.767510</Longitude>
  </Street>
  <Street>
    <NativeName>דורי</NativeName>
    <ParentName>ראשון לציון, ישראל</ParentName>
    <Latitude>31.963291</Latitude>
    <Longitude>34.818501</Longitude>
  </Street>
  <Street>
    <NativeName>די זהב</NativeName>
    <ParentName>ראשון לציון, ישראל</ParentName>
    <Latitude>31.982024</Latitude>
    <Longitude>34.765802</Longitude>
  </Street>
  <Street>
    <NativeName>דליה</NativeName>
    <ParentName>ראשון לציון, ישראל</ParentName>
    <Latitude>31.966216</Latitude>
    <Longitude>34.781936</Longitude>
  </Street>
  <Street>
    <NativeName>דמארי</NativeName>
    <ParentName>ראשון לציון, ישראל</ParentName>
    <Latitude>31.959550</Latitude>
    <Longitude>34.811281</Longitude>
  </Street>
  <Street>
    <NativeName>דן</NativeName>
    <ParentName>ראשון לציון, ישראל</ParentName>
    <Latitude>31.965213</Latitude>
    <Longitude>34.782229</Longitude>
  </Street>
  <Street>
    <NativeName>דניאל הנביא</NativeName>
    <ParentName>ראשון לציון, ישראל</ParentName>
    <Latitude>31.948041</Latitude>
    <Longitude>34.818737</Longitude>
  </Street>
  <Street>
    <NativeName>דניאל נתנס</NativeName>
    <ParentName>ראשון לציון, ישראל</ParentName>
    <Latitude>31.972300</Latitude>
    <Longitude>34.763051</Longitude>
  </Street>
  <Street>
    <NativeName>דרור</NativeName>
    <ParentName>ראשון לציון, ישראל</ParentName>
    <Latitude>31.967597</Latitude>
    <Longitude>34.806314</Longitude>
  </Street>
  <Street>
    <NativeName>דרך המכבים</NativeName>
    <ParentName>ראשון לציון, ישראל</ParentName>
    <AlternateName>המכבים</AlternateName>
    <Latitude>31.981218</Latitude>
    <Longitude>34.809256</Longitude>
  </Street>
  <Street>
    <NativeName>דרך חיים הרצוג</NativeName>
    <ParentName>ראשון לציון, ישראל</ParentName>
    <AlternateName>חיים הרצוג</AlternateName>
    <Latitude>31.971174</Latitude>
    <Longitude>34.834052</Longitude>
  </Street>
  <Street>
    <NativeName>דרך ישראל ישעיהו</NativeName>
    <ParentName>ראשון לציון, ישראל</ParentName>
    <AlternateName>ישראל ישעיהו</AlternateName>
    <Latitude>31.980600</Latitude>
    <Longitude>34.793379</Longitude>
  </Street>
  <Street>
    <NativeName>דרך צה"ל</NativeName>
    <ParentName>ראשון לציון, ישראל</ParentName>
    <AlternateName>צה"ל</AlternateName>
    <Latitude>31.974859</Latitude>
    <Longitude>34.791257</Longitude>
  </Street>
  <Street>
    <NativeName>ה' באייר</NativeName>
    <ParentName>ראשון לציון, ישראל</ParentName>
    <Latitude>31.982197</Latitude>
    <Longitude>34.778691</Longitude>
  </Street>
  <Street>
    <NativeName>האבות</NativeName>
    <ParentName>ראשון לציון, ישראל</ParentName>
    <Latitude>31.960824</Latitude>
    <Longitude>34.813211</Longitude>
  </Street>
  <Street>
    <NativeName>האגוז</NativeName>
    <ParentName>ראשון לציון, ישראל</ParentName>
    <Latitude>31.957136</Latitude>
    <Longitude>34.824079</Longitude>
  </Street>
  <Street>
    <NativeName>האגס</NativeName>
    <ParentName>ראשון לציון, ישראל</ParentName>
    <Latitude>31.985250</Latitude>
    <Longitude>34.805859</Longitude>
  </Street>
  <Street>
    <NativeName>האו"ן</NativeName>
    <ParentName>ראשון לציון, ישראל</ParentName>
    <Latitude>31.959855</Latitude>
    <Longitude>34.812050</Longitude>
  </Street>
  <Street>
    <NativeName>האוכמנית</NativeName>
    <ParentName>ראשון לציון, ישראל</ParentName>
    <Latitude>31.957246</Latitude>
    <Longitude>34.827331</Longitude>
  </Street>
  <Street>
    <NativeName>האוניברסיטה</NativeName>
    <ParentName>ראשון לציון, ישראל</ParentName>
    <Latitude>31.972795</Latitude>
    <Longitude>34.769267</Longitude>
  </Street>
  <Street>
    <NativeName>האוניה</NativeName>
    <ParentName>ראשון לציון, ישראל</ParentName>
    <Latitude>31.984654</Latitude>
    <Longitude>34.780904</Longitude>
  </Street>
  <Street>
    <NativeName>האורגן</NativeName>
    <ParentName>ראשון לציון, ישראל</ParentName>
    <Latitude>31.967202</Latitude>
    <Longitude>34.776487</Longitude>
  </Street>
  <Street>
    <NativeName>האורן</NativeName>
    <ParentName>ראשון לציון, ישראל</ParentName>
    <Latitude>31.953505</Latitude>
    <Longitude>34.824255</Longitude>
  </Street>
  <Street>
    <NativeName>האורנים</NativeName>
    <ParentName>ראשון לציון, ישראל</ParentName>
    <Latitude>31.975424</Latitude>
    <Longitude>34.798610</Longitude>
  </Street>
  <Street>
    <NativeName>האחד עשר</NativeName>
    <ParentName>ראשון לציון, ישראל</ParentName>
    <Latitude>31.965073</Latitude>
    <Longitude>34.821104</Longitude>
  </Street>
  <Street>
    <NativeName>האחות שרה</NativeName>
    <ParentName>ראשון לציון, ישראל</ParentName>
    <Latitude>31.964495</Latitude>
    <Longitude>34.796521</Longitude>
  </Street>
  <Street>
    <NativeName>האחים אביוב</NativeName>
    <ParentName>ראשון לציון, ישראל</ParentName>
    <Latitude>31.964160</Latitude>
    <Longitude>34.811635</Longitude>
  </Street>
  <Street>
    <NativeName>האחים אוסטשינסקי</NativeName>
    <ParentName>ראשון לציון, ישראל</ParentName>
    <Latitude>31.957474</Latitude>
    <Longitude>34.805185</Longitude>
  </Street>
  <Street>
    <NativeName>האחים גלזר</NativeName>
    <ParentName>ראשון לציון, ישראל</ParentName>
    <Latitude>31.985019</Latitude>
    <Longitude>34.807703</Longitude>
  </Street>
  <Street>
    <NativeName>האחים ויינברג</NativeName>
    <ParentName>ראשון לציון, ישראל</ParentName>
    <Latitude>31.955103</Latitude>
    <Longitude>34.804909</Longitude>
  </Street>
  <Street>
    <NativeName>האחים זייגר</NativeName>
    <ParentName>ראשון לציון, ישראל</ParentName>
    <Latitude>31.971856</Latitude>
    <Longitude>34.799022</Longitude>
  </Street>
  <Street>
    <NativeName>האחים יעקובי</NativeName>
    <ParentName>ראשון לציון, ישראל</ParentName>
    <Latitude>31.970759</Latitude>
    <Longitude>34.797329</Longitude>
  </Street>
  <Street>
    <NativeName>האחים סולימן</NativeName>
    <ParentName>ראשון לציון, ישראל</ParentName>
    <Latitude>31.963600</Latitude>
    <Longitude>34.815360</Longitude>
  </Street>
  <Street>
    <NativeName>האחים סמילצ'נסקי</NativeName>
    <ParentName>ראשון לציון, ישראל</ParentName>
    <Latitude>31.960417</Latitude>
    <Longitude>34.798918</Longitude>
  </Street>
  <Street>
    <NativeName>האחים רפי ואבי ימיני</NativeName>
    <ParentName>ראשון לציון, ישראל</ParentName>
    <Latitude>31.958725</Latitude>
    <Longitude>34.813623</Longitude>
  </Street>
  <Street>
    <NativeName>האיגרת</NativeName>
    <ParentName>ראשון לציון, ישראל</ParentName>
    <Latitude>31.998591</Latitude>
    <Longitude>34.745490</Longitude>
  </Street>
  <Street>
    <NativeName>האילתית</NativeName>
    <ParentName>ראשון לציון, ישראל</ParentName>
    <Latitude>31.987411</Latitude>
    <Longitude>34.779755</Longitude>
  </Street>
  <Street>
    <NativeName>האיריס</NativeName>
    <ParentName>ראשון לציון, ישראל</ParentName>
    <Latitude>31.971172</Latitude>
    <Longitude>34.780416</Longitude>
  </Street>
  <Street>
    <NativeName>האלה</NativeName>
    <ParentName>ראשון לציון, ישראל</ParentName>
    <Latitude>31.954234</Latitude>
    <Longitude>34.823524</Longitude>
  </Street>
  <Street>
    <NativeName>האלון</NativeName>
    <ParentName>ראשון לציון, ישראל</ParentName>
    <Latitude>31.954449</Latitude>
    <Longitude>34.822721</Longitude>
  </Street>
  <Street>
    <NativeName>האלמוגים</NativeName>
    <ParentName>ראשון לציון, ישראל</ParentName>
    <Latitude>31.988809</Latitude>
    <Longitude>34.779889</Longitude>
  </Street>
  <Street>
    <NativeName>האם</NativeName>
    <ParentName>ראשון לציון, ישראל</ParentName>
    <Latitude>31.958698</Latitude>
    <Longitude>34.792075</Longitude>
  </Street>
  <Street>
    <NativeName>האמוראים</NativeName>
    <ParentName>ראשון לציון, ישראל</ParentName>
    <Latitude>31.950854</Latitude>
    <Longitude>34.829673</Longitude>
  </Street>
  <Street>
    <NativeName>האפרסמון</NativeName>
    <ParentName>ראשון לציון, ישראל</ParentName>
    <Latitude>31.976332</Latitude>
    <Longitude>34.804339</Longitude>
  </Street>
  <Street>
    <NativeName>האפרסק</NativeName>
    <ParentName>ראשון לציון, ישראל</ParentName>
    <Latitude>31.957709</Latitude>
    <Longitude>34.825712</Longitude>
  </Street>
  <Street>
    <NativeName>האקליפטוס</NativeName>
    <ParentName>ראשון לציון, ישראל</ParentName>
    <Latitude>31.957246</Latitude>
    <Longitude>34.827331</Longitude>
  </Street>
  <Street>
    <NativeName>האר"י</NativeName>
    <ParentName>ראשון לציון, ישראל</ParentName>
    <Latitude>31.954794</Latitude>
    <Longitude>34.808051</Longitude>
  </Street>
  <Street>
    <NativeName>הארז</NativeName>
    <ParentName>ראשון לציון, ישראל</ParentName>
    <Latitude>31.956682</Latitude>
    <Longitude>34.825742</Longitude>
  </Street>
  <Street>
    <NativeName>האשכולית</NativeName>
    <ParentName>ראשון לציון, ישראל</ParentName>
    <Latitude>31.975249</Latitude>
    <Longitude>34.803678</Longitude>
  </Street>
  <Street>
    <NativeName>האשל</NativeName>
    <ParentName>ראשון לציון, ישראל</ParentName>
    <Latitude>31.959678</Latitude>
    <Longitude>34.825282</Longitude>
  </Street>
  <Street>
    <NativeName>האתרוג</NativeName>
    <ParentName>ראשון לציון, ישראל</ParentName>
    <Latitude>31.953464</Latitude>
    <Longitude>34.827565</Longitude>
  </Street>
  <Street>
    <NativeName>הבוצרים</NativeName>
    <ParentName>ראשון לציון, ישראל</ParentName>
    <Latitude>31.971731</Latitude>
    <Longitude>34.778882</Longitude>
  </Street>
  <Street>
    <NativeName>הבן הראשון</NativeName>
    <ParentName>ראשון לציון, ישראל</ParentName>
    <Latitude>31.958484</Latitude>
    <Longitude>34.793807</Longitude>
  </Street>
  <Street>
    <NativeName>הבנים</NativeName>
    <ParentName>ראשון לציון, ישראל</ParentName>
    <Latitude>31.976332</Latitude>
    <Longitude>34.804339</Longitude>
  </Street>
  <Street>
    <NativeName>הבעל שם טוב</NativeName>
    <ParentName>ראשון לציון, ישראל</ParentName>
    <Latitude>31.954102</Latitude>
    <Longitude>34.807433</Longitude>
  </Street>
  <Street>
    <NativeName>הברון הירש</NativeName>
    <ParentName>ראשון לציון, ישראל</ParentName>
    <AlternateName>הירש</AlternateName>
    <Latitude>31.968113</Latitude>
    <Longitude>34.801747</Longitude>
  </Street>
  <Street>
    <NativeName>הברוש</NativeName>
    <ParentName>ראשון לציון, ישראל</ParentName>
    <Latitude>31.955460</Latitude>
    <Longitude>34.828276</Longitude>
  </Street>
  <Street>
    <NativeName>הברושים</NativeName>
    <ParentName>ראשון לציון, ישראל</ParentName>
    <Latitude>31.975977</Latitude>
    <Longitude>34.805864</Longitude>
  </Street>
  <Street>
    <NativeName>הבריגדה</NativeName>
    <ParentName>ראשון לציון, ישראל</ParentName>
    <Latitude>31.969745</Latitude>
    <Longitude>34.792129</Longitude>
  </Street>
  <Street>
    <NativeName>הברקן</NativeName>
    <ParentName>ראשון לציון, ישראל</ParentName>
    <Latitude>31.988098</Latitude>
    <Longitude>34.783979</Longitude>
  </Street>
  <Street>
    <NativeName>הבשן</NativeName>
    <ParentName>ראשון לציון, ישראל</ParentName>
    <Latitude>31.959112</Latitude>
    <Longitude>34.793905</Longitude>
  </Street>
  <Street>
    <NativeName>הגאון מוילנה</NativeName>
    <ParentName>ראשון לציון, ישראל</ParentName>
    <AlternateName>הגאון מולינה</AlternateName>
    <Latitude>31.967185</Latitude>
    <Longitude>34.806359</Longitude>
  </Street>
  <Street>
    <NativeName>הגבורה היהודית</NativeName>
    <ParentName>ראשון לציון, ישראל</ParentName>
    <Latitude>31.974086</Latitude>
    <Longitude>34.798589</Longitude>
  </Street>
  <Street>
    <NativeName>הגבעול</NativeName>
    <ParentName>ראשון לציון, ישראל</ParentName>
    <Latitude>31.975867</Latitude>
    <Longitude>34.781395</Longitude>
  </Street>
  <Street>
    <NativeName>הגדוד העברי</NativeName>
    <ParentName>ראשון לציון, ישראל</ParentName>
    <Latitude>31.966863</Latitude>
    <Longitude>34.810197</Longitude>
  </Street>
  <Street>
    <NativeName>הגומא</NativeName>
    <ParentName>ראשון לציון, ישראל</ParentName>
    <Latitude>31.975190</Latitude>
    <Longitude>34.784902</Longitude>
  </Street>
  <Street>
    <NativeName>הגיתית</NativeName>
    <ParentName>ראשון לציון, ישראל</ParentName>
    <Latitude>31.964815</Latitude>
    <Longitude>34.771184</Longitude>
  </Street>
  <Street>
    <NativeName>הגלבוע</NativeName>
    <ParentName>ראשון לציון, ישראל</ParentName>
    <Latitude>31.958695</Latitude>
    <Longitude>34.788296</Longitude>
  </Street>
  <Street>
    <NativeName>הגליל</NativeName>
    <ParentName>ראשון לציון, ישראל</ParentName>
    <Latitude>31.962013</Latitude>
    <Longitude>34.790254</Longitude>
  </Street>
  <Street>
    <NativeName>הגלים</NativeName>
    <ParentName>ראשון לציון, ישראל</ParentName>
    <Latitude>31.986752</Latitude>
    <Longitude>34.784997</Longitude>
  </Street>
  <Street>
    <NativeName>הגלעד</NativeName>
    <ParentName>ראשון לציון, ישראל</ParentName>
    <Latitude>31.959648</Latitude>
    <Longitude>34.791936</Longitude>
  </Street>
  <Street>
    <NativeName>הגננת הראשונה</NativeName>
    <ParentName>ראשון לציון, ישראל</ParentName>
    <Latitude>31.973090</Latitude>
    <Longitude>34.794562</Longitude>
  </Street>
  <Street>
    <NativeName>הגפן</NativeName>
    <ParentName>ראשון לציון, ישראל</ParentName>
    <Latitude>31.963107</Latitude>
    <Longitude>34.795707</Longitude>
  </Street>
  <Street>
    <NativeName>הגת</NativeName>
    <ParentName>ראשון לציון, ישראל</ParentName>
    <Latitude>31.972614</Latitude>
    <Longitude>34.779659</Longitude>
  </Street>
  <Street>
    <NativeName>הדגל העברי</NativeName>
    <ParentName>ראשון לציון, ישראל</ParentName>
    <Latitude>31.964913</Latitude>
    <Longitude>34.797608</Longitude>
  </Street>
  <Street>
    <NativeName>הדגן</NativeName>
    <ParentName>ראשון לציון, ישראל</ParentName>
    <Latitude>31.975031</Latitude>
    <Longitude>34.777991</Longitude>
  </Street>
  <Street>
    <NativeName>הדובדבן</NativeName>
    <ParentName>ראשון לציון, ישראל</ParentName>
    <Latitude>31.958094</Latitude>
    <Longitude>34.825842</Longitude>
  </Street>
  <Street>
    <NativeName>הדוגית</NativeName>
    <ParentName>ראשון לציון, ישראל</ParentName>
    <Latitude>31.987792</Latitude>
    <Longitude>34.784695</Longitude>
  </Street>
  <Street>
    <NativeName>הדודאים</NativeName>
    <ParentName>ראשון לציון, ישראל</ParentName>
    <Latitude>31.956249</Latitude>
    <Longitude>34.819141</Longitude>
  </Street>
  <Street>
    <NativeName>הדוכיפת</NativeName>
    <ParentName>ראשון לציון, ישראל</ParentName>
    <Latitude>31.961296</Latitude>
    <Longitude>34.817716</Longitude>
  </Street>
  <Street>
    <NativeName>הדולב</NativeName>
    <ParentName>ראשון לציון, ישראל</ParentName>
    <Latitude>31.957709</Latitude>
    <Longitude>34.825712</Longitude>
  </Street>
  <Street>
    <NativeName>הדולפין</NativeName>
    <ParentName>ראשון לציון, ישראל</ParentName>
    <Latitude>31.987012</Latitude>
    <Longitude>34.782465</Longitude>
  </Street>
  <Street>
    <NativeName>הדיונון</NativeName>
    <ParentName>ראשון לציון, ישראל</ParentName>
    <Latitude>31.987342</Latitude>
    <Longitude>34.781949</Longitude>
  </Street>
  <Street>
    <NativeName>הדייגים</NativeName>
    <ParentName>ראשון לציון, ישראל</ParentName>
    <Latitude>31.986272</Latitude>
    <Longitude>34.779795</Longitude>
  </Street>
  <Street>
    <NativeName>הדסה</NativeName>
    <ParentName>ראשון לציון, ישראל</ParentName>
    <Latitude>31.994017</Latitude>
    <Longitude>34.745972</Longitude>
  </Street>
  <Street>
    <NativeName>הדקל</NativeName>
    <ParentName>ראשון לציון, ישראל</ParentName>
    <Latitude>31.958733</Latitude>
    <Longitude>34.825384</Longitude>
  </Street>
  <Street>
    <NativeName>ההגנה</NativeName>
    <ParentName>ראשון לציון, ישראל</ParentName>
    <Latitude>31.988630</Latitude>
    <Longitude>34.764035</Longitude>
  </Street>
  <Street>
    <NativeName>ההדס</NativeName>
    <ParentName>ראשון לציון, ישראל</ParentName>
    <Latitude>31.958902</Latitude>
    <Longitude>34.821000</Longitude>
  </Street>
  <Street>
    <NativeName>ההדר</NativeName>
    <ParentName>ראשון לציון, ישראל</ParentName>
    <Latitude>31.974750</Latitude>
    <Longitude>34.801689</Longitude>
  </Street>
  <Street>
    <NativeName>ההדרים</NativeName>
    <ParentName>ראשון לציון, ישראל</ParentName>
    <Latitude>31.964429</Latitude>
    <Longitude>34.794110</Longitude>
  </Street>
  <Street>
    <NativeName>ההסתדרות</NativeName>
    <ParentName>ראשון לציון, ישראל</ParentName>
    <Latitude>31.966224</Latitude>
    <Longitude>34.784837</Longitude>
  </Street>
  <Street>
    <NativeName>ההרדוף</NativeName>
    <ParentName>ראשון לציון, ישראל</ParentName>
    <Latitude>31.971626</Latitude>
    <Longitude>34.785506</Longitude>
  </Street>
  <Street>
    <NativeName>ההתיישבות</NativeName>
    <ParentName>ראשון לציון, ישראל</ParentName>
    <Latitude>31.970201</Latitude>
    <Longitude>34.822889</Longitude>
  </Street>
  <Street>
    <NativeName>הורד</NativeName>
    <ParentName>ראשון לציון, ישראל</ParentName>
    <Latitude>31.959230</Latitude>
    <Longitude>34.823587</Longitude>
  </Street>
  <Street>
    <NativeName>הורוביץ</NativeName>
    <ParentName>ראשון לציון, ישראל</ParentName>
    <Latitude>31.959916</Latitude>
    <Longitude>34.797875</Longitude>
  </Street>
  <Street>
    <NativeName>הזהבית</NativeName>
    <ParentName>ראשון לציון, ישראל</ParentName>
    <Latitude>31.972751</Latitude>
    <Longitude>34.782156</Longitude>
  </Street>
  <Street>
    <NativeName>הזהרון</NativeName>
    <ParentName>ראשון לציון, ישראל</ParentName>
    <Latitude>31.989448</Latitude>
    <Longitude>34.784128</Longitude>
  </Street>
  <Street>
    <NativeName>הזורעים</NativeName>
    <ParentName>ראשון לציון, ישראל</ParentName>
    <Latitude>31.964759</Latitude>
    <Longitude>34.780759</Longitude>
  </Street>
  <Street>
    <NativeName>הזז</NativeName>
    <ParentName>ראשון לציון, ישראל</ParentName>
    <Latitude>31.975898</Latitude>
    <Longitude>34.769473</Longitude>
  </Street>
  <Street>
    <NativeName>הזית</NativeName>
    <ParentName>ראשון לציון, ישראל</ParentName>
    <Latitude>31.963907</Latitude>
    <Longitude>34.797312</Longitude>
  </Street>
  <Street>
    <NativeName>הזמורה</NativeName>
    <ParentName>ראשון לציון, ישראל</ParentName>
    <Latitude>31.972619</Latitude>
    <Longitude>34.776878</Longitude>
  </Street>
  <Street>
    <NativeName>הזמיר</NativeName>
    <ParentName>ראשון לציון, ישראל</ParentName>
    <Latitude>31.952993</Latitude>
    <Longitude>34.826265</Longitude>
  </Street>
  <Street>
    <NativeName>הזרזיר</NativeName>
    <ParentName>ראשון לציון, ישראל</ParentName>
    <Latitude>31.960329</Latitude>
    <Longitude>34.817868</Longitude>
  </Street>
  <Street>
    <NativeName>החבצלת</NativeName>
    <ParentName>ראשון לציון, ישראל</ParentName>
    <Latitude>31.958902</Latitude>
    <Longitude>34.821000</Longitude>
  </Street>
  <Street>
    <NativeName>החוגלה</NativeName>
    <ParentName>ראשון לציון, ישראל</ParentName>
    <Latitude>31.960284</Latitude>
    <Longitude>34.817358</Longitude>
  </Street>
  <Street>
    <NativeName>החוחית</NativeName>
    <ParentName>ראשון לציון, ישראל</ParentName>
    <Latitude>31.959703</Latitude>
    <Longitude>34.816885</Longitude>
  </Street>
  <Street>
    <NativeName>החומה</NativeName>
    <ParentName>ראשון לציון, ישראל</ParentName>
    <Latitude>31.991304</Latitude>
    <Longitude>34.770685</Longitude>
  </Street>
  <Street>
    <NativeName>החורש</NativeName>
    <ParentName>ראשון לציון, ישראל</ParentName>
    <Latitude>31.958251</Latitude>
    <Longitude>34.819911</Longitude>
  </Street>
  <Street>
    <NativeName>החייל האלמוני</NativeName>
    <ParentName>ראשון לציון, ישראל</ParentName>
    <Latitude>31.960283</Latitude>
    <Longitude>34.801809</Longitude>
  </Street>
  <Street>
    <NativeName>החלוץ</NativeName>
    <ParentName>ראשון לציון, ישראל</ParentName>
    <Latitude>31.986667</Latitude>
    <Longitude>34.788874</Longitude>
  </Street>
  <Street>
    <NativeName>החלוצים</NativeName>
    <ParentName>ראשון לציון, ישראל</ParentName>
    <Latitude>31.984028</Latitude>
    <Longitude>34.764088</Longitude>
  </Street>
  <Street>
    <NativeName>החליל</NativeName>
    <ParentName>ראשון לציון, ישראל</ParentName>
    <Latitude>31.962360</Latitude>
    <Longitude>34.773586</Longitude>
  </Street>
  <Street>
    <NativeName>החלמונית</NativeName>
    <ParentName>ראשון לציון, ישראל</ParentName>
    <Latitude>31.972789</Latitude>
    <Longitude>34.784079</Longitude>
  </Street>
  <Street>
    <NativeName>החמנית</NativeName>
    <ParentName>ראשון לציון, ישראל</ParentName>
    <Latitude>31.955571</Latitude>
    <Longitude>34.829995</Longitude>
  </Street>
  <Street>
    <NativeName>החפץ חיים</NativeName>
    <ParentName>ראשון לציון, ישראל</ParentName>
    <Latitude>31.966666</Latitude>
    <Longitude>34.805705</Longitude>
  </Street>
  <Street>
    <NativeName>החצב</NativeName>
    <ParentName>ראשון לציון, ישראל</ParentName>
    <Latitude>31.956778</Latitude>
    <Longitude>34.825367</Longitude>
  </Street>
  <Street>
    <NativeName>החצוצרה</NativeName>
    <ParentName>ראשון לציון, ישראל</ParentName>
    <Latitude>31.965786</Latitude>
    <Longitude>34.771837</Longitude>
  </Street>
  <Street>
    <NativeName>החרוב</NativeName>
    <ParentName>ראשון לציון, ישראל</ParentName>
    <Latitude>31.954885</Latitude>
    <Longitude>34.825882</Longitude>
  </Street>
  <Street>
    <NativeName>החרמון</NativeName>
    <ParentName>ראשון לציון, ישראל</ParentName>
    <Latitude>31.961465</Latitude>
    <Longitude>34.790074</Longitude>
  </Street>
  <Street>
    <NativeName>החרצית</NativeName>
    <ParentName>ראשון לציון, ישראל</ParentName>
    <Latitude>31.973370</Latitude>
    <Longitude>34.786351</Longitude>
  </Street>
  <Street>
    <NativeName>החשמונאים</NativeName>
    <ParentName>ראשון לציון, ישראל</ParentName>
    <Latitude>31.962633</Latitude>
    <Longitude>34.824418</Longitude>
  </Street>
  <Street>
    <NativeName>הטיילת</NativeName>
    <ParentName>ראשון לציון, ישראל</ParentName>
    <Latitude>31.999006</Latitude>
    <Longitude>34.732572</Longitude>
  </Street>
  <Street>
    <NativeName>היוגבים</NativeName>
    <ParentName>ראשון לציון, ישראל</ParentName>
    <Latitude>31.972963</Latitude>
    <Longitude>34.778667</Longitude>
  </Street>
  <Street>
    <NativeName>היוזמה</NativeName>
    <ParentName>ראשון לציון, ישראל</ParentName>
    <Latitude>31.952157</Latitude>
    <Longitude>34.771884</Longitude>
  </Street>
  <CityRegion>
    <NativeName>היחידה לקידום הנוער</NativeName>
    <ParentName>ראשון לציון, ישראל</ParentName>
    <Latitude>31.971019</Latitude>
    <Longitude>34.814000</Longitude>
  </CityRegion>
  <Street>
    <NativeName>היין</NativeName>
    <ParentName>ראשון לציון, ישראל</ParentName>
    <Latitude>31.974139</Latitude>
    <Longitude>34.777543</Longitude>
  </Street>
  <Street>
    <NativeName>הייסמן</NativeName>
    <ParentName>ראשון לציון, ישראל</ParentName>
    <Latitude>31.966694</Latitude>
    <Longitude>34.816114</Longitude>
  </Street>
  <Street>
    <NativeName>היסמין</NativeName>
    <ParentName>ראשון לציון, ישראל</ParentName>
    <Latitude>31.974193</Latitude>
    <Longitude>34.783202</Longitude>
  </Street>
  <Street>
    <NativeName>היער</NativeName>
    <ParentName>ראשון לציון, ישראל</ParentName>
    <Latitude>31.975496</Latitude>
    <Longitude>34.801321</Longitude>
  </Street>
  <Street>
    <NativeName>היצהר</NativeName>
    <ParentName>ראשון לציון, ישראל</ParentName>
    <Latitude>31.976607</Latitude>
    <Longitude>34.779150</Longitude>
  </Street>
  <Street>
    <NativeName>היקב</NativeName>
    <ParentName>ראשון לציון, ישראל</ParentName>
    <Latitude>31.972963</Latitude>
    <Longitude>34.778667</Longitude>
  </Street>
  <Street>
    <NativeName>היקינטון</NativeName>
    <ParentName>ראשון לציון, ישראל</ParentName>
    <Latitude>31.971718</Latitude>
    <Longitude>34.781651</Longitude>
  </Street>
  <Street>
    <NativeName>הירדן</NativeName>
    <ParentName>ראשון לציון, ישראל</ParentName>
    <Latitude>31.962013</Latitude>
    <Longitude>34.790254</Longitude>
  </Street>
  <Street>
    <NativeName>הירמוך</NativeName>
    <ParentName>ראשון לציון, ישראל</ParentName>
    <Latitude>31.963347</Latitude>
    <Longitude>34.791794</Longitude>
  </Street>
  <Street>
    <NativeName>הירקון</NativeName>
    <ParentName>ראשון לציון, ישראל</ParentName>
    <Latitude>31.963484</Latitude>
    <Longitude>34.790738</Longitude>
  </Street>
  <Street>
    <NativeName>הכובש</NativeName>
    <ParentName>ראשון לציון, ישראל</ParentName>
    <Latitude>31.969270</Latitude>
    <Longitude>34.811556</Longitude>
  </Street>
  <Street>
    <NativeName>הכוזרי</NativeName>
    <ParentName>ראשון לציון, ישראל</ParentName>
    <Latitude>31.964851</Latitude>
    <Longitude>34.816184</Longitude>
  </Street>
  <Street>
    <NativeName>הכורמים</NativeName>
    <ParentName>ראשון לציון, ישראל</ParentName>
    <Latitude>31.973192</Latitude>
    <Longitude>34.780175</Longitude>
  </Street>
  <Street>
    <NativeName>הכינור</NativeName>
    <ParentName>ראשון לציון, ישראל</ParentName>
    <Latitude>31.963212</Latitude>
    <Longitude>34.771321</Longitude>
  </Street>
  <Street>
    <NativeName>הכלנית</NativeName>
    <ParentName>ראשון לציון, ישראל</ParentName>
    <Latitude>31.957198</Latitude>
    <Longitude>34.820403</Longitude>
  </Street>
  <Street>
    <NativeName>הכנסת</NativeName>
    <ParentName>ראשון לציון, ישראל</ParentName>
    <Latitude>31.985316</Latitude>
    <Longitude>34.788747</Longitude>
  </Street>
  <Street>
    <NativeName>הכסיף</NativeName>
    <ParentName>ראשון לציון, ישראל</ParentName>
    <Latitude>31.989837</Latitude>
    <Longitude>34.782851</Longitude>
  </Street>
  <Street>
    <NativeName>הכרמל</NativeName>
    <ParentName>ראשון לציון, ישראל</ParentName>
    <Latitude>31.961805</Latitude>
    <Longitude>34.805135</Longitude>
  </Street>
  <Street>
    <NativeName>הכרפס</NativeName>
    <ParentName>ראשון לציון, ישראל</ParentName>
    <Latitude>31.970649</Latitude>
    <Longitude>34.782623</Longitude>
  </Street>
  <Street>
    <NativeName>הכשרת היישוב</NativeName>
    <ParentName>ראשון לציון, ישראל</ParentName>
    <Latitude>31.991208</Latitude>
    <Longitude>34.764943</Longitude>
  </Street>
  <Street>
    <NativeName>הכתר</NativeName>
    <ParentName>ראשון לציון, ישראל</ParentName>
    <Latitude>31.999231</Latitude>
    <Longitude>34.745888</Longitude>
  </Street>
  <Street>
    <NativeName>הלווייתן</NativeName>
    <ParentName>ראשון לציון, ישראל</ParentName>
    <Latitude>31.987915</Latitude>
    <Longitude>34.780870</Longitude>
  </Street>
  <Street>
    <NativeName>הלוחמים</NativeName>
    <ParentName>ראשון לציון, ישראל</ParentName>
    <Latitude>31.964951</Latitude>
    <Longitude>34.794330</Longitude>
  </Street>
  <Street>
    <NativeName>הלוטם</NativeName>
    <ParentName>ראשון לציון, ישראל</ParentName>
    <Latitude>31.970098</Latitude>
    <Longitude>34.784278</Longitude>
  </Street>
  <Street>
    <NativeName>הלולב</NativeName>
    <ParentName>ראשון לציון, ישראל</ParentName>
    <Latitude>31.955477</Latitude>
    <Longitude>34.830379</Longitude>
  </Street>
  <Street>
    <NativeName>הליבנה</NativeName>
    <ParentName>ראשון לציון, ישראל</ParentName>
    <Latitude>31.954930</Latitude>
    <Longitude>34.828092</Longitude>
  </Street>
  <Street>
    <NativeName>הלפרין</NativeName>
    <ParentName>ראשון לציון, ישראל</ParentName>
    <Latitude>31.969933</Latitude>
    <Longitude>34.803505</Longitude>
  </Street>
  <Street>
    <NativeName>המגילה</NativeName>
    <ParentName>ראשון לציון, ישראל</ParentName>
    <Latitude>31.997579</Latitude>
    <Longitude>34.745759</Longitude>
  </Street>
  <Street>
    <NativeName>המדע</NativeName>
    <ParentName>ראשון לציון, ישראל</ParentName>
    <Latitude>31.952418</Latitude>
    <Longitude>34.774345</Longitude>
  </Street>
  <Street>
    <NativeName>המהר"ל מפראג</NativeName>
    <ParentName>ראשון לציון, ישראל</ParentName>
    <Latitude>31.947472</Latitude>
    <Longitude>34.819938</Longitude>
  </Street>
  <Street>
    <NativeName>המוכתר</NativeName>
    <ParentName>ראשון לציון, ישראל</ParentName>
    <Latitude>31.984736</Latitude>
    <Longitude>34.807056</Longitude>
  </Street>
  <Street>
    <NativeName>המורה אברהם</NativeName>
    <ParentName>ראשון לציון, ישראל</ParentName>
    <Latitude>31.977297</Latitude>
    <Longitude>34.797370</Longitude>
  </Street>
  <Street>
    <NativeName>המורן</NativeName>
    <ParentName>ראשון לציון, ישראל</ParentName>
    <Latitude>31.973452</Latitude>
    <Longitude>34.782751</Longitude>
  </Street>
  <Street>
    <NativeName>המחנות העולים</NativeName>
    <ParentName>ראשון לציון, ישראל</ParentName>
    <Latitude>31.972187</Latitude>
    <Longitude>34.817907</Longitude>
  </Street>
  <Street>
    <NativeName>המייסדים</NativeName>
    <ParentName>ראשון לציון, ישראל</ParentName>
    <Latitude>31.974265</Latitude>
    <Longitude>34.803619</Longitude>
  </Street>
  <Street>
    <NativeName>המלחים</NativeName>
    <ParentName>ראשון לציון, ישראל</ParentName>
    <Latitude>31.985185</Latitude>
    <Longitude>34.782035</Longitude>
  </Street>
  <Street>
    <NativeName>המלך</NativeName>
    <ParentName>ראשון לציון, ישראל</ParentName>
    <Latitude>31.999660</Latitude>
    <Longitude>34.747510</Longitude>
  </Street>
  <Street>
    <NativeName>המעיין</NativeName>
    <ParentName>ראשון לציון, ישראל</ParentName>
    <Latitude>31.968719</Latitude>
    <Longitude>34.791558</Longitude>
  </Street>
  <Street>
    <NativeName>המעפילים</NativeName>
    <ParentName>ראשון לציון, ישראל</ParentName>
    <Latitude>31.953260</Latitude>
    <Longitude>34.829743</Longitude>
  </Street>
  <Street>
    <NativeName>המפוחית</NativeName>
    <ParentName>ראשון לציון, ישראל</ParentName>
    <Latitude>31.965514</Latitude>
    <Longitude>34.775532</Longitude>
  </Street>
  <Street>
    <NativeName>המפרש</NativeName>
    <ParentName>ראשון לציון, ישראל</ParentName>
    <Latitude>31.989846</Latitude>
    <Longitude>34.780551</Longitude>
  </Street>
  <Street>
    <NativeName>המצלתיים</NativeName>
    <ParentName>ראשון לציון, ישראל</ParentName>
    <Latitude>31.964336</Latitude>
    <Longitude>34.775299</Longitude>
  </Street>
  <Street>
    <NativeName>המרגנית</NativeName>
    <ParentName>ראשון לציון, ישראל</ParentName>
    <Latitude>31.973164</Latitude>
    <Longitude>34.782649</Longitude>
  </Street>
  <Street>
    <NativeName>המשוט</NativeName>
    <ParentName>ראשון לציון, ישראל</ParentName>
    <Latitude>31.989810</Latitude>
    <Longitude>34.779084</Longitude>
  </Street>
  <Street>
    <NativeName>המשורר שלום</NativeName>
    <ParentName>ראשון לציון, ישראל</ParentName>
    <Latitude>31.956044</Latitude>
    <Longitude>34.809618</Longitude>
  </Street>
  <Street>
    <NativeName>המשוררת רחל</NativeName>
    <ParentName>ראשון לציון, ישראל</ParentName>
    <Latitude>31.975172</Latitude>
    <Longitude>34.768917</Longitude>
  </Street>
  <CityRegion>
    <NativeName>המשרד לקליטת עלייה</NativeName>
    <ParentName>ראשון לציון, ישראל</ParentName>
    <Latitude>31.967528</Latitude>
    <Longitude>34.803550</Longitude>
  </CityRegion>
  <Street>
    <NativeName>המתנדבים</NativeName>
    <ParentName>ראשון לציון, ישראל</ParentName>
    <Latitude>31.970154</Latitude>
    <Longitude>34.793643</Longitude>
  </Street>
  <Street>
    <NativeName>הנביאים</NativeName>
    <ParentName>ראשון לציון, ישראל</ParentName>
    <Latitude>31.953399</Latitude>
    <Longitude>34.827785</Longitude>
  </Street>
  <Street>
    <NativeName>הנגב</NativeName>
    <ParentName>ראשון לציון, ישראל</ParentName>
    <Latitude>31.965754</Latitude>
    <Longitude>34.818823</Longitude>
  </Street>
  <Street>
    <NativeName>הנגיד</NativeName>
    <ParentName>ראשון לציון, ישראל</ParentName>
    <Latitude>31.977749</Latitude>
    <Longitude>34.776853</Longitude>
  </Street>
  <Street>
    <NativeName>הנוטרים</NativeName>
    <ParentName>ראשון לציון, ישראל</ParentName>
    <Latitude>31.951960</Latitude>
    <Longitude>34.824831</Longitude>
  </Street>
  <Street>
    <NativeName>הנוער הלאומי</NativeName>
    <ParentName>ראשון לציון, ישראל</ParentName>
    <Latitude>31.972435</Latitude>
    <Longitude>34.817322</Longitude>
  </Street>
  <Street>
    <NativeName>הנוער העובד</NativeName>
    <ParentName>ראשון לציון, ישראל</ParentName>
    <Latitude>31.972435</Latitude>
    <Longitude>34.817322</Longitude>
  </Street>
  <Street>
    <NativeName>הנופר</NativeName>
    <ParentName>ראשון לציון, ישראל</ParentName>
    <Latitude>31.969680</Latitude>
    <Longitude>34.785165</Longitude>
  </Street>
  <Street>
    <NativeName>הנורית</NativeName>
    <ParentName>ראשון לציון, ישראל</ParentName>
    <Latitude>31.974388</Latitude>
    <Longitude>34.785750</Longitude>
  </Street>
  <Street>
    <NativeName>הנח"ל</NativeName>
    <ParentName>ראשון לציון, ישראל</ParentName>
    <Latitude>31.963996</Latitude>
    <Longitude>34.818847</Longitude>
  </Street>
  <Street>
    <NativeName>הנחליאלי</NativeName>
    <ParentName>ראשון לציון, ישראל</ParentName>
    <Latitude>31.959101</Latitude>
    <Longitude>34.816002</Longitude>
  </Street>
  <Street>
    <NativeName>הנחשול</NativeName>
    <ParentName>ראשון לציון, ישראל</ParentName>
    <Latitude>31.984058</Latitude>
    <Longitude>34.782596</Longitude>
  </Street>
  <Street>
    <NativeName>הנמל</NativeName>
    <ParentName>ראשון לציון, ישראל</ParentName>
    <Latitude>31.988859</Latitude>
    <Longitude>34.778445</Longitude>
  </Street>
  <Street>
    <NativeName>הנצי"ב מוולוז'ין</NativeName>
    <ParentName>ראשון לציון, ישראל</ParentName>
    <Latitude>31.955375</Latitude>
    <Longitude>34.807928</Longitude>
  </Street>
  <Street>
    <NativeName>הנרי ברגסון</NativeName>
    <ParentName>ראשון לציון, ישראל</ParentName>
    <Latitude>31.970157</Latitude>
    <Longitude>34.761260</Longitude>
  </Street>
  <Street>
    <NativeName>הנרי קיסינג'ר</NativeName>
    <ParentName>ראשון לציון, ישראל</ParentName>
    <Latitude>31.970520</Latitude>
    <Longitude>34.767655</Longitude>
  </Street>
  <Street>
    <NativeName>הנרקיס</NativeName>
    <ParentName>ראשון לציון, ישראל</ParentName>
    <Latitude>31.975260</Latitude>
    <Longitude>34.784683</Longitude>
  </Street>
  <Street>
    <NativeName>הסביון</NativeName>
    <ParentName>ראשון לציון, ישראל</ParentName>
    <Latitude>31.971258</Latitude>
    <Longitude>34.784490</Longitude>
  </Street>
  <Street>
    <NativeName>הסוכה</NativeName>
    <ParentName>ראשון לציון, ישראל</ParentName>
    <Latitude>31.975265</Latitude>
    <Longitude>34.779439</Longitude>
  </Street>
  <Street>
    <NativeName>הסחלב</NativeName>
    <ParentName>ראשון לציון, ישראל</ParentName>
    <Latitude>31.970266</Latitude>
    <Longitude>34.783773</Longitude>
  </Street>
  <Street>
    <NativeName>הסיגלית</NativeName>
    <ParentName>ראשון לציון, ישראל</ParentName>
    <Latitude>31.970699</Latitude>
    <Longitude>34.782084</Longitude>
  </Street>
  <Street>
    <NativeName>הסיפון</NativeName>
    <ParentName>ראשון לציון, ישראל</ParentName>
    <Latitude>31.989366</Latitude>
    <Longitude>34.778785</Longitude>
  </Street>
  <Street>
    <NativeName>הסירה</NativeName>
    <ParentName>ראשון לציון, ישראל</ParentName>
    <Latitude>31.985164</Latitude>
    <Longitude>34.779772</Longitude>
  </Street>
  <Street>
    <NativeName>הסיתוונית</NativeName>
    <ParentName>ראשון לציון, ישראל</ParentName>
    <Latitude>31.974267</Latitude>
    <Longitude>34.782373</Longitude>
  </Street>
  <Street>
    <NativeName>הסמדר</NativeName>
    <ParentName>ראשון לציון, ישראל</ParentName>
    <Latitude>31.975982</Latitude>
    <Longitude>34.781319</Longitude>
  </Street>
  <Street>
    <NativeName>הסנפיר</NativeName>
    <ParentName>ראשון לציון, ישראל</ParentName>
    <Latitude>31.989051</Latitude>
    <Longitude>34.783130</Longitude>
  </Street>
  <Street>
    <NativeName>העוגב</NativeName>
    <ParentName>ראשון לציון, ישראל</ParentName>
    <Latitude>31.968203</Latitude>
    <Longitude>34.773747</Longitude>
  </Street>
  <Street>
    <NativeName>העוגן</NativeName>
    <ParentName>ראשון לציון, ישראל</ParentName>
    <Latitude>31.986297</Latitude>
    <Longitude>34.777528</Longitude>
  </Street>
  <Street>
    <NativeName>העורב</NativeName>
    <ParentName>ראשון לציון, ישראל</ParentName>
    <Latitude>31.957927</Latitude>
    <Longitude>34.815168</Longitude>
  </Street>
  <Street>
    <NativeName>העינב</NativeName>
    <ParentName>ראשון לציון, ישראל</ParentName>
    <Latitude>31.976115</Latitude>
    <Longitude>34.801687</Longitude>
  </Street>
  <Street>
    <NativeName>העמית יצחק</NativeName>
    <ParentName>ראשון לציון, ישראל</ParentName>
    <Latitude>31.989731</Latitude>
    <Longitude>34.752167</Longitude>
  </Street>
  <Street>
    <NativeName>העסיס</NativeName>
    <ParentName>ראשון לציון, ישראל</ParentName>
    <Latitude>31.975726</Latitude>
    <Longitude>34.778379</Longitude>
  </Street>
  <Street>
    <NativeName>העפרוני</NativeName>
    <ParentName>ראשון לציון, ישראל</ParentName>
    <Latitude>31.959101</Latitude>
    <Longitude>34.816002</Longitude>
  </Street>
  <Street>
    <NativeName>העצמאות</NativeName>
    <ParentName>ראשון לציון, ישראל</ParentName>
    <Latitude>31.979895</Latitude>
    <Longitude>34.801041</Longitude>
  </Street>
  <Street>
    <NativeName>הערמון</NativeName>
    <ParentName>ראשון לציון, ישראל</ParentName>
    <AlternateName>הארמון</AlternateName>
    <Latitude>31.957269</Latitude>
    <Longitude>34.825586</Longitude>
  </Street>
  <Street>
    <NativeName>הפור</NativeName>
    <ParentName>ראשון לציון, ישראל</ParentName>
    <Latitude>31.994985</Latitude>
    <Longitude>34.745551</Longitude>
  </Street>
  <Street>
    <NativeName>הפורצים</NativeName>
    <ParentName>ראשון לציון, ישראל</ParentName>
    <Latitude>31.965205</Latitude>
    <Longitude>34.794326</Longitude>
  </Street>
  <Street>
    <NativeName>הפזית</NativeName>
    <ParentName>ראשון לציון, ישראל</ParentName>
    <Latitude>31.986886</Latitude>
    <Longitude>34.780908</Longitude>
  </Street>
  <Street>
    <NativeName>הפיקוס</NativeName>
    <ParentName>ראשון לציון, ישראל</ParentName>
    <Latitude>31.956902</Latitude>
    <Longitude>34.828720</Longitude>
  </Street>
  <Street>
    <NativeName>הפלמ"ח</NativeName>
    <ParentName>ראשון לציון, ישראל</ParentName>
    <Latitude>31.952624</Latitude>
    <Longitude>34.808767</Longitude>
  </Street>
  <Street>
    <NativeName>הפסנתר</NativeName>
    <ParentName>ראשון לציון, ישראל</ParentName>
    <Latitude>31.966354</Latitude>
    <Longitude>34.772415</Longitude>
  </Street>
  <Street>
    <NativeName>הפעמונית</NativeName>
    <ParentName>ראשון לציון, ישראל</ParentName>
    <Latitude>31.970171</Latitude>
    <Longitude>34.784044</Longitude>
  </Street>
  <Street>
    <NativeName>הפרג</NativeName>
    <ParentName>ראשון לציון, ישראל</ParentName>
    <Latitude>31.971000</Latitude>
    <Longitude>34.781027</Longitude>
  </Street>
  <Street>
    <NativeName>הפרדס הראשון</NativeName>
    <ParentName>ראשון לציון, ישראל</ParentName>
    <Latitude>31.966977</Latitude>
    <Longitude>34.790739</Longitude>
  </Street>
  <Street>
    <NativeName>הפרח</NativeName>
    <ParentName>ראשון לציון, ישראל</ParentName>
    <Latitude>31.958467</Latitude>
    <Longitude>34.819506</Longitude>
  </Street>
  <Street>
    <NativeName>הצאלים</NativeName>
    <ParentName>ראשון לציון, ישראל</ParentName>
    <Latitude>31.953255</Latitude>
    <Longitude>34.825243</Longitude>
  </Street>
  <Street>
    <NativeName>הצבעוני</NativeName>
    <ParentName>ראשון לציון, ישראל</ParentName>
    <Latitude>31.972548</Latitude>
    <Longitude>34.782059</Longitude>
  </Street>
  <Street>
    <NativeName>הצבר</NativeName>
    <ParentName>ראשון לציון, ישראל</ParentName>
    <Latitude>31.958139</Latitude>
    <Longitude>34.827635</Longitude>
  </Street>
  <Street>
    <NativeName>הצדף</NativeName>
    <ParentName>ראשון לציון, ישראל</ParentName>
    <Latitude>31.989953</Latitude>
    <Longitude>34.782132</Longitude>
  </Street>
  <Street>
    <NativeName>הצופים</NativeName>
    <ParentName>ראשון לציון, ישראל</ParentName>
    <Latitude>31.973878</Latitude>
    <Longitude>34.815349</Longitude>
  </Street>
  <Street>
    <NativeName>הציפורן</NativeName>
    <ParentName>ראשון לציון, ישראל</ParentName>
    <Latitude>31.973934</Latitude>
    <Longitude>34.783092</Longitude>
  </Street>
  <Street>
    <NativeName>הצפירה</NativeName>
    <ParentName>ראשון לציון, ישראל</ParentName>
    <Latitude>31.988449</Latitude>
    <Longitude>34.786107</Longitude>
  </Street>
  <Street>
    <NativeName>הצפצפה</NativeName>
    <ParentName>ראשון לציון, ישראל</ParentName>
    <Latitude>31.956834</Latitude>
    <Longitude>34.827194</Longitude>
  </Street>
  <Street>
    <NativeName>הקברניט</NativeName>
    <ParentName>ראשון לציון, ישראל</ParentName>
    <Latitude>31.988859</Latitude>
    <Longitude>34.778445</Longitude>
  </Street>
  <Street>
    <NativeName>הקונכיה</NativeName>
    <ParentName>ראשון לציון, ישראל</ParentName>
    <Latitude>31.990070</Latitude>
    <Longitude>34.781465</Longitude>
  </Street>
  <Street>
    <NativeName>הקוסם מלובלין</NativeName>
    <ParentName>ראשון לציון, ישראל</ParentName>
    <Latitude>31.969432</Latitude>
    <Longitude>34.762464</Longitude>
  </Street>
  <Street>
    <NativeName>הקוקיה</NativeName>
    <ParentName>ראשון לציון, ישראל</ParentName>
    <Latitude>31.959346</Latitude>
    <Longitude>34.817574</Longitude>
  </Street>
  <Street>
    <NativeName>הקידמה</NativeName>
    <ParentName>ראשון לציון, ישראל</ParentName>
    <Latitude>31.950809</Latitude>
    <Longitude>34.765825</Longitude>
  </Street>
  <Street>
    <NativeName>הקישון</NativeName>
    <ParentName>ראשון לציון, ישראל</ParentName>
    <Latitude>31.960378</Latitude>
    <Longitude>34.793612</Longitude>
  </Street>
  <Street>
    <NativeName>הקלרנית</NativeName>
    <ParentName>ראשון לציון, ישראל</ParentName>
    <Latitude>31.962992</Latitude>
    <Longitude>34.773913</Longitude>
  </Street>
  <Street>
    <NativeName>הקנאים</NativeName>
    <ParentName>ראשון לציון, ישראל</ParentName>
    <Latitude>31.955202</Latitude>
    <Longitude>34.827094</Longitude>
  </Street>
  <CityRegion>
    <NativeName>הקריה החקלאית</NativeName>
    <ParentName>ראשון לציון, ישראל</ParentName>
    <Latitude>31.993071</Latitude>
    <Longitude>34.818082</Longitude>
  </CityRegion>
  <Street>
    <NativeName>הר המוריה</NativeName>
    <ParentName>ראשון לציון, ישראל</ParentName>
    <Latitude>31.944823</Latitude>
    <Longitude>34.828652</Longitude>
  </Street>
  <Street>
    <NativeName>הר סיני</NativeName>
    <ParentName>ראשון לציון, ישראל</ParentName>
    <Latitude>31.945279</Latitude>
    <Longitude>34.827136</Longitude>
  </Street>
  <Street>
    <NativeName>הר ציון</NativeName>
    <ParentName>ראשון לציון, ישראל</ParentName>
    <Latitude>31.959988</Latitude>
    <Longitude>34.789966</Longitude>
  </Street>
  <Street>
    <NativeName>הרב אברהם מאיר יעקובוביץ</NativeName>
    <ParentName>ראשון לציון, ישראל</ParentName>
    <AlternateName>רבי אברהם מאיר יעקובוביץ</AlternateName>
    <AlternateName>הרבי אברהם מאיר יעקובוביץ</AlternateName>
    <AlternateName>אברהם מאיר יעקובוביץ</AlternateName>
    <Latitude>31.983478</Latitude>
    <Longitude>34.808134</Longitude>
  </Street>
  <Street>
    <NativeName>הרב אונטרמן</NativeName>
    <ParentName>ראשון לציון, ישראל</ParentName>
    <AlternateName>רבי איסר יהודה אונטרמן</AlternateName>
    <AlternateName>הרב איסר יהודה אונטרמן</AlternateName>
    <AlternateName>הרבי איסר יהודה</AlternateName>
    <AlternateName>רבי אונטרמן</AlternateName>
    <AlternateName>איסר יהודה אונטרמן</AlternateName>
    <AlternateName>איסר יהודה</AlternateName>
    <AlternateName>אונטרמן</AlternateName>
    <AlternateName>הרב איסר יהודה</AlternateName>
    <AlternateName>רבי איסר יהודה</AlternateName>
    <AlternateName>הרבי אונטרמן</AlternateName>
    <AlternateName>הרבי איסר יהודה אונטרמן</AlternateName>
    <Latitude>31.972818</Latitude>
    <Longitude>34.773340</Longitude>
  </Street>
  <Street>
    <NativeName>הרב ברוק</NativeName>
    <ParentName>ראשון לציון, ישראל</ParentName>
    <AlternateName>ברוק</AlternateName>
    <AlternateName>הרבי ברוק</AlternateName>
    <AlternateName>רבי ברוק</AlternateName>
    <Latitude>31.964824</Latitude>
    <Longitude>34.815192</Longitude>
  </Street>
  <Street>
    <NativeName>הרב גדליה חיון</NativeName>
    <ParentName>ראשון לציון, ישראל</ParentName>
    <AlternateName>גדליה חיון</AlternateName>
    <AlternateName>רבי גדליה חיון</AlternateName>
    <AlternateName>הרבי גדליה חיון</AlternateName>
    <Latitude>31.950379</Latitude>
    <Longitude>34.822356</Longitude>
  </Street>
  <Street>
    <NativeName>הרב גוטמן</NativeName>
    <ParentName>ראשון לציון, ישראל</ParentName>
    <AlternateName>הרבי גוטמן</AlternateName>
    <AlternateName>רבי גוטמן</AlternateName>
    <AlternateName>גוטמן</AlternateName>
    <Latitude>31.949234</Latitude>
    <Longitude>34.809993</Longitude>
  </Street>
  <Street>
    <NativeName>הרב גורן</NativeName>
    <ParentName>ראשון לציון, ישראל</ParentName>
    <AlternateName>רבי גורן</AlternateName>
    <AlternateName>גורן</AlternateName>
    <AlternateName>הרבי גורן</AlternateName>
    <Latitude>31.972899</Latitude>
    <Longitude>34.772223</Longitude>
  </Street>
  <Street>
    <NativeName>הרב הרצוג</NativeName>
    <ParentName>ראשון לציון, ישראל</ParentName>
    <AlternateName>רבי הרצוג</AlternateName>
    <AlternateName>הרבי הרצוג</AlternateName>
    <AlternateName>הרצוג</AlternateName>
    <Latitude>31.967401</Latitude>
    <Longitude>34.803712</Longitude>
  </Street>
  <Street>
    <NativeName>הרב זינגר</NativeName>
    <ParentName>ראשון לציון, ישראל</ParentName>
    <AlternateName>הרבי זינגר</AlternateName>
    <AlternateName>זינגר</AlternateName>
    <AlternateName>רבי זינגר</AlternateName>
    <Latitude>31.963913</Latitude>
    <Longitude>34.806238</Longitude>
  </Street>
  <Street>
    <NativeName>הרב חיים דוד הלוי</NativeName>
    <ParentName>ראשון לציון, ישראל</ParentName>
    <AlternateName>חיים דויד הלוי</AlternateName>
    <AlternateName>רבי חיים דויד הלוי</AlternateName>
    <AlternateName>חיים דוד הלוי</AlternateName>
    <AlternateName>הרבי חיים דויד הלוי</AlternateName>
    <AlternateName>רבי חיים דוד הלוי</AlternateName>
    <AlternateName>הרב חיים דויד הלוי</AlternateName>
    <AlternateName>הרבי חיים דוד הלוי</AlternateName>
    <Latitude>31.947122</Latitude>
    <Longitude>34.817583</Longitude>
  </Street>
  <Street>
    <NativeName>הרב טייב</NativeName>
    <ParentName>ראשון לציון, ישראל</ParentName>
    <AlternateName>הרבי טייב</AlternateName>
    <AlternateName>רבי טייב</AlternateName>
    <AlternateName>טייב</AlternateName>
    <Latitude>31.955190</Latitude>
    <Longitude>34.818010</Longitude>
  </Street>
  <Street>
    <NativeName>הרב יהודה טיבוביץ</NativeName>
    <ParentName>ראשון לציון, ישראל</ParentName>
    <AlternateName>יהודה טיבוביץ</AlternateName>
    <AlternateName>הרבי יהודה טיבוביץ</AlternateName>
    <AlternateName>רבי יהודה טיבוביץ</AlternateName>
    <Latitude>31.961623</Latitude>
    <Longitude>34.820311</Longitude>
  </Street>
  <Street>
    <NativeName>הרב יוסף טולדנו</NativeName>
    <ParentName>ראשון לציון, ישראל</ParentName>
    <AlternateName>הרבי יוסף טולדנו</AlternateName>
    <AlternateName>יוסף טולדנו</AlternateName>
    <AlternateName>רבי יוסף טולדנו</AlternateName>
    <Latitude>31.971400</Latitude>
    <Longitude>34.803288</Longitude>
  </Street>
  <Street>
    <NativeName>הרב ינובסקי</NativeName>
    <ParentName>ראשון לציון, ישראל</ParentName>
    <AlternateName>הרבי ינובסקי</AlternateName>
    <AlternateName>ינובסקי</AlternateName>
    <AlternateName>רבי ינובסקי</AlternateName>
    <Latitude>31.956700</Latitude>
    <Longitude>34.801470</Longitude>
  </Street>
  <Street>
    <NativeName>הרב יצחק שלינקה</NativeName>
    <ParentName>ראשון לציון, ישראל</ParentName>
    <AlternateName>הרבי יצחק שלינקה</AlternateName>
    <AlternateName>יצחק שלינקה</AlternateName>
    <AlternateName>רבי יצחק שלינקה</AlternateName>
    <Latitude>31.982983</Latitude>
    <Longitude>34.803930</Longitude>
  </Street>
  <Street>
    <NativeName>הרב מינץ</NativeName>
    <ParentName>ראשון לציון, ישראל</ParentName>
    <AlternateName>הרבי מינץ</AlternateName>
    <AlternateName>רבי מינץ</AlternateName>
    <AlternateName>מינץ</AlternateName>
    <Latitude>31.986672</Latitude>
    <Longitude>34.786181</Longitude>
  </Street>
  <Street>
    <NativeName>הרב מרדכי שמעוני</NativeName>
    <ParentName>ראשון לציון, ישראל</ParentName>
    <AlternateName>הרבי מרדכי שמעוני</AlternateName>
    <AlternateName>מרדכי שמעוני</AlternateName>
    <AlternateName>רבי מרדכי שמעוני</AlternateName>
    <Latitude>31.982630</Latitude>
    <Longitude>34.788675</Longitude>
  </Street>
  <Street>
    <NativeName>הרב משה איבגי</NativeName>
    <ParentName>ראשון לציון, ישראל</ParentName>
    <AlternateName>רבי משה איבגי</AlternateName>
    <AlternateName>משה איבגי</AlternateName>
    <AlternateName>הרבי משה איבגי</AlternateName>
    <Latitude>31.984665</Latitude>
    <Longitude>34.790458</Longitude>
  </Street>
  <Street>
    <NativeName>הרב נריה</NativeName>
    <ParentName>ראשון לציון, ישראל</ParentName>
    <AlternateName>הרבי נריה</AlternateName>
    <AlternateName>נריה</AlternateName>
    <AlternateName>רבי נריה</AlternateName>
    <Latitude>31.973054</Latitude>
    <Longitude>34.774333</Longitude>
  </Street>
  <Street>
    <NativeName>הרב סיבהי</NativeName>
    <ParentName>ראשון לציון, ישראל</ParentName>
    <AlternateName>רבי סיבהי</AlternateName>
    <AlternateName>סיבהי</AlternateName>
    <AlternateName>הרבי סיבהי</AlternateName>
    <Latitude>31.964255</Latitude>
    <Longitude>34.809460</Longitude>
  </Street>
  <Street>
    <NativeName>הרב עוזיאל</NativeName>
    <ParentName>ראשון לציון, ישראל</ParentName>
    <AlternateName>רבי עוזיאל</AlternateName>
    <AlternateName>עוזיאל</AlternateName>
    <AlternateName>הרבי עוזיאל</AlternateName>
    <Latitude>31.965797</Latitude>
    <Longitude>34.808772</Longitude>
  </Street>
  <Street>
    <NativeName>הרב עוזרי</NativeName>
    <ParentName>ראשון לציון, ישראל</ParentName>
    <AlternateName>הרבי עוזרי</AlternateName>
    <AlternateName>רבי עוזרי</AlternateName>
    <AlternateName>עוזרי</AlternateName>
    <Latitude>31.984422</Latitude>
    <Longitude>34.788263</Longitude>
  </Street>
  <Street>
    <NativeName>הרב פנחס זכריה</NativeName>
    <ParentName>ראשון לציון, ישראל</ParentName>
    <AlternateName>פנחס זכריה</AlternateName>
    <AlternateName>הרבי פנחס זכריה</AlternateName>
    <AlternateName>רבי פנחס זכריה</AlternateName>
    <Latitude>31.946364</Latitude>
    <Longitude>34.824835</Longitude>
  </Street>
  <Street>
    <NativeName>הרב צאלח</NativeName>
    <ParentName>ראשון לציון, ישראל</ParentName>
    <AlternateName>צאלח</AlternateName>
    <AlternateName>רבי צאלח</AlternateName>
    <AlternateName>הרבי צאלח</AlternateName>
    <Latitude>31.986206</Latitude>
    <Longitude>34.805156</Longitude>
  </Street>
  <Street>
    <NativeName>הרב צדוק</NativeName>
    <ParentName>ראשון לציון, ישראל</ParentName>
    <AlternateName>הרבי צדוק</AlternateName>
    <AlternateName>רבי צדוק</AlternateName>
    <AlternateName>צדוק</AlternateName>
    <Latitude>31.972639</Latitude>
    <Longitude>34.808063</Longitude>
  </Street>
  <Street>
    <NativeName>הרב קוק</NativeName>
    <ParentName>ראשון לציון, ישראל</ParentName>
    <AlternateName>הרבי קוק</AlternateName>
    <AlternateName>רבי קוק</AlternateName>
    <AlternateName>קוק</AlternateName>
    <Latitude>31.966181</Latitude>
    <Longitude>34.808735</Longitude>
  </Street>
  <Street>
    <NativeName>הרב רפפורט</NativeName>
    <ParentName>ראשון לציון, ישראל</ParentName>
    <AlternateName>רבי רפפורט</AlternateName>
    <AlternateName>רפפורט</AlternateName>
    <AlternateName>הרבי רפפורט</AlternateName>
    <Latitude>31.966181</Latitude>
    <Longitude>34.808735</Longitude>
  </Street>
  <Street>
    <NativeName>הרב שלום ג'רופי</NativeName>
    <ParentName>ראשון לציון, ישראל</ParentName>
    <AlternateName>הרבי שלום ג'רופי</AlternateName>
    <AlternateName>רבי שלום ג'רופי</AlternateName>
    <AlternateName>שלום ג'רופי</AlternateName>
    <Latitude>31.993682</Latitude>
    <Longitude>34.754185</Longitude>
  </Street>
  <Street>
    <NativeName>הרב שמואל טרובץ</NativeName>
    <ParentName>ראשון לציון, ישראל</ParentName>
    <AlternateName>רבי שמואל טרובץ</AlternateName>
    <AlternateName>שמואל טרובץ</AlternateName>
    <AlternateName>הרבי שמואל טרובץ</AlternateName>
    <Latitude>31.962820</Latitude>
    <Longitude>34.819875</Longitude>
  </Street>
  <Street>
    <NativeName>הרבי מלובביץ</NativeName>
    <ParentName>ראשון לציון, ישראל</ParentName>
    <AlternateName>הרב מלובביץ</AlternateName>
    <AlternateName>מלובביץ</AlternateName>
    <AlternateName>רבי מלובביץ</AlternateName>
    <Latitude>31.974073</Latitude>
    <Longitude>34.774442</Longitude>
  </Street>
  <Street>
    <NativeName>הרברט סימון</NativeName>
    <ParentName>ראשון לציון, ישראל</ParentName>
    <Latitude>31.965844</Latitude>
    <Longitude>34.767341</Longitude>
  </Street>
  <Street>
    <NativeName>הרולד ורמוס</NativeName>
    <ParentName>ראשון לציון, ישראל</ParentName>
    <Latitude>31.971114</Latitude>
    <Longitude>34.762175</Longitude>
  </Street>
  <Street>
    <NativeName>הרותם</NativeName>
    <ParentName>ראשון לציון, ישראל</ParentName>
    <Latitude>31.974497</Latitude>
    <Longitude>34.783326</Longitude>
  </Street>
  <Street>
    <NativeName>הרי מרקוביץ'</NativeName>
    <ParentName>ראשון לציון, ישראל</ParentName>
    <Latitude>31.966602</Latitude>
    <Longitude>34.767894</Longitude>
  </Street>
  <Street>
    <NativeName>הרימון</NativeName>
    <ParentName>ראשון לציון, ישראל</ParentName>
    <Latitude>31.963108</Latitude>
    <Longitude>34.797874</Longitude>
  </Street>
  <Street>
    <NativeName>הרפסודה</NativeName>
    <ParentName>ראשון לציון, ישראל</ParentName>
    <Latitude>31.985727</Latitude>
    <Longitude>34.778520</Longitude>
  </Street>
  <Street>
    <NativeName>הרצל</NativeName>
    <ParentName>ראשון לציון, ישראל</ParentName>
    <Latitude>31.959231</Latitude>
    <Longitude>34.802364</Longitude>
  </Street>
  <Street>
    <NativeName>הרקפת</NativeName>
    <ParentName>ראשון לציון, ישראל</ParentName>
    <Latitude>31.955101</Latitude>
    <Longitude>34.825166</Longitude>
  </Street>
  <Street>
    <NativeName>הרשב"א</NativeName>
    <ParentName>ראשון לציון, ישראל</ParentName>
    <Latitude>31.978581</Latitude>
    <Longitude>34.776370</Longitude>
  </Street>
  <Street>
    <NativeName>הרשקוביץ</NativeName>
    <ParentName>ראשון לציון, ישראל</ParentName>
    <Latitude>31.984085</Latitude>
    <Longitude>34.803487</Longitude>
  </Street>
  <Street>
    <NativeName>הרשת</NativeName>
    <ParentName>ראשון לציון, ישראל</ParentName>
    <Latitude>31.988358</Latitude>
    <Longitude>34.778109</Longitude>
  </Street>
  <Street>
    <NativeName>השגשוג</NativeName>
    <ParentName>ראשון לציון, ישראל</ParentName>
    <Latitude>31.952717</Latitude>
    <Longitude>34.775732</Longitude>
  </Street>
  <Street>
    <NativeName>השדה</NativeName>
    <ParentName>ראשון לציון, ישראל</ParentName>
    <Latitude>31.962811</Latitude>
    <Longitude>34.794696</Longitude>
  </Street>
  <Street>
    <NativeName>השומר הצעיר</NativeName>
    <ParentName>ראשון לציון, ישראל</ParentName>
    <Latitude>31.973318</Latitude>
    <Longitude>34.815021</Longitude>
  </Street>
  <CityRegion>
    <NativeName>השומר</NativeName>
    <ParentName>ראשון לציון, ישראל</ParentName>
    <Latitude>31.957124</Latitude>
    <Longitude>34.810744</Longitude>
  </CityRegion>
  <Street>
    <NativeName>השומרון</NativeName>
    <ParentName>ראשון לציון, ישראל</ParentName>
    <Latitude>31.958414</Latitude>
    <Longitude>34.790455</Longitude>
  </Street>
  <Street>
    <NativeName>השונית</NativeName>
    <ParentName>ראשון לציון, ישראל</ParentName>
    <Latitude>31.988098</Latitude>
    <Longitude>34.783979</Longitude>
  </Street>
  <Street>
    <NativeName>השופטים</NativeName>
    <ParentName>ראשון לציון, ישראל</ParentName>
    <Latitude>31.981041</Latitude>
    <Longitude>34.786718</Longitude>
  </Street>
  <Street>
    <NativeName>השזיף</NativeName>
    <ParentName>ראשון לציון, ישראל</ParentName>
    <Latitude>31.952496</Latitude>
    <Longitude>34.828276</Longitude>
  </Street>
  <Street>
    <NativeName>השחר</NativeName>
    <ParentName>ראשון לציון, ישראל</ParentName>
    <Latitude>31.969384</Latitude>
    <Longitude>34.796549</Longitude>
  </Street>
  <Street>
    <NativeName>השיטה</NativeName>
    <ParentName>ראשון לציון, ישראל</ParentName>
    <Latitude>31.954644</Latitude>
    <Longitude>34.826891</Longitude>
  </Street>
  <Street>
    <NativeName>השייטים</NativeName>
    <ParentName>ראשון לציון, ישראל</ParentName>
    <Latitude>31.987223</Latitude>
    <Longitude>34.781107</Longitude>
  </Street>
  <Street>
    <NativeName>השייטת</NativeName>
    <ParentName>ראשון לציון, ישראל</ParentName>
    <Latitude>31.998871</Latitude>
    <Longitude>34.735615</Longitude>
  </Street>
  <Street>
    <NativeName>השיקמה</NativeName>
    <ParentName>ראשון לציון, ישראל</ParentName>
