<?xml version="1.0" encoding="UTF-8"?><LocationData>
  <Street>
    <NativeName>א.ל. זיסו</NativeName>
    <ParentName>באר שבע, ישראל</ParentName>
    <Latitude>31.255904</Latitude>
    <Longitude>34.808857</Longitude>
  </Street>
  <Street>
    <NativeName>אביבית</NativeName>
    <ParentName>באר שבע, ישראל</ParentName>
    <Latitude>31.230506</Latitude>
    <Longitude>34.794972</Longitude>
  </Street>
  <Street>
    <NativeName>אביגדור המאירי</NativeName>
    <ParentName>באר שבע, ישראל</ParentName>
    <Latitude>31.239771</Latitude>
    <Longitude>34.775147</Longitude>
  </Street>
  <Street>
    <NativeName>אביגיל</NativeName>
    <ParentName>באר שבע, ישראל</ParentName>
    <Latitude>31.268786</Latitude>
    <Longitude>34.761486</Longitude>
  </Street>
  <Street>
    <NativeName>אבידוב</NativeName>
    <ParentName>באר שבע, ישראל</ParentName>
    <Latitude>31.269978</Latitude>
    <Longitude>34.770943</Longitude>
  </Street>
  <Street>
    <NativeName>אביה השופט</NativeName>
    <ParentName>באר שבע, ישראל</ParentName>
    <Latitude>31.268874</Latitude>
    <Longitude>34.795782</Longitude>
  </Street>
  <Street>
    <NativeName>אביטל</NativeName>
    <ParentName>באר שבע, ישראל</ParentName>
    <Latitude>31.266242</Latitude>
    <Longitude>34.765093</Longitude>
  </Street>
  <Street>
    <NativeName>אבישג</NativeName>
    <ParentName>באר שבע, ישראל</ParentName>
    <Latitude>31.269176</Latitude>
    <Longitude>34.760759</Longitude>
  </Street>
  <Street>
    <NativeName>אבישי</NativeName>
    <ParentName>באר שבע, ישראל</ParentName>
    <Latitude>31.260447</Latitude>
    <Longitude>34.777837</Longitude>
  </Street>
  <Street>
    <NativeName>אביתר</NativeName>
    <ParentName>באר שבע, ישראל</ParentName>
    <Latitude>31.267252</Latitude>
    <Longitude>34.765471</Longitude>
  </Street>
  <Street>
    <NativeName>אבן עזרא</NativeName>
    <ParentName>באר שבע, ישראל</ParentName>
    <Latitude>31.270302</Latitude>
    <Longitude>34.784848</Longitude>
  </Street>
  <Street>
    <NativeName>אבנר</NativeName>
    <ParentName>באר שבע, ישראל</ParentName>
    <Latitude>31.260973</Latitude>
    <Longitude>34.777810</Longitude>
  </Street>
  <Street>
    <NativeName>אברבנאל</NativeName>
    <ParentName>באר שבע, ישראל</ParentName>
    <Latitude>31.254745</Latitude>
    <Longitude>34.768551</Longitude>
  </Street>
  <Street>
    <NativeName>אברהם אבינו</NativeName>
    <ParentName>באר שבע, ישראל</ParentName>
    <Latitude>31.265587</Latitude>
    <Longitude>34.793640</Longitude>
  </Street>
  <Street>
    <NativeName>אברהם אבן שושן</NativeName>
    <ParentName>באר שבע, ישראל</ParentName>
    <Latitude>31.246562</Latitude>
    <Longitude>34.760335</Longitude>
  </Street>
  <Street>
    <NativeName>אברהם בן עמי</NativeName>
    <ParentName>באר שבע, ישראל</ParentName>
    <Latitude>31.248782</Latitude>
    <Longitude>34.822954</Longitude>
  </Street>
  <Street>
    <NativeName>אברהם חלילי</NativeName>
    <ParentName>באר שבע, ישראל</ParentName>
    <Latitude>31.281938</Latitude>
    <Longitude>34.806955</Longitude>
  </Street>
  <Street>
    <NativeName>אברהם מאפו</NativeName>
    <ParentName>באר שבע, ישראל</ParentName>
    <Latitude>31.236190</Latitude>
    <Longitude>34.773811</Longitude>
  </Street>
  <Street>
    <NativeName>אברהם שופט</NativeName>
    <ParentName>באר שבע, ישראל</ParentName>
    <Latitude>31.268180</Latitude>
    <Longitude>34.812162</Longitude>
  </Street>
  <Street>
    <NativeName>אבשלום חביב</NativeName>
    <ParentName>באר שבע, ישראל</ParentName>
    <Latitude>31.267918</Latitude>
    <Longitude>34.816035</Longitude>
  </Street>
  <Street>
    <NativeName>אבשלום פיינברג</NativeName>
    <ParentName>באר שבע, ישראל</ParentName>
    <Latitude>31.265940</Latitude>
    <Longitude>34.759729</Longitude>
  </Street>
  <Street>
    <NativeName>אבשלום</NativeName>
    <ParentName>באר שבע, ישראל</ParentName>
    <Latitude>31.267257</Latitude>
    <Longitude>34.767122</Longitude>
  </Street>
  <Street>
    <NativeName>אג"ן</NativeName>
    <ParentName>באר שבע, ישראל</ParentName>
    <Latitude>31.267157</Latitude>
    <Longitude>34.778028</Longitude>
  </Street>
  <Street>
    <NativeName>אגוז</NativeName>
    <ParentName>באר שבע, ישראל</ParentName>
    <Latitude>31.263691</Latitude>
    <Longitude>34.760788</Longitude>
  </Street>
  <Street>
    <NativeName>אגס</NativeName>
    <ParentName>באר שבע, ישראל</ParentName>
    <Latitude>31.226175</Latitude>
    <Longitude>34.816634</Longitude>
  </Street>
  <Street>
    <NativeName>אדלר</NativeName>
    <ParentName>באר שבע, ישראל</ParentName>
    <Latitude>31.266839</Latitude>
    <Longitude>34.769754</Longitude>
  </Street>
  <Street>
    <NativeName>אהוד בן גרא</NativeName>
    <ParentName>באר שבע, ישראל</ParentName>
    <Latitude>31.241609</Latitude>
    <Longitude>34.780258</Longitude>
  </Street>
  <Street>
    <NativeName>אהרון בן יעקב</NativeName>
    <ParentName>באר שבע, ישראל</ParentName>
    <Latitude>31.255045</Latitude>
    <Longitude>34.785278</Longitude>
  </Street>
  <Street>
    <NativeName>אהרון יריב</NativeName>
    <ParentName>באר שבע, ישראל</ParentName>
    <Latitude>31.266676</Latitude>
    <Longitude>34.812349</Longitude>
  </Street>
  <Street>
    <NativeName>אהרון מסקין</NativeName>
    <ParentName>באר שבע, ישראל</ParentName>
    <AlternateName>מסקין</AlternateName>
    <Latitude>31.271066</Latitude>
    <Longitude>34.766353</Longitude>
  </Street>
  <Street>
    <NativeName>אהרון ציזלינג</NativeName>
    <ParentName>באר שבע, ישראל</ParentName>
    <Latitude>31.258899</Latitude>
    <Longitude>34.762711</Longitude>
  </Street>
  <Street>
    <NativeName>אהרון קציר</NativeName>
    <ParentName>באר שבע, ישראל</ParentName>
    <Latitude>31.272400</Latitude>
    <Longitude>34.808918</Longitude>
  </Street>
  <Street>
    <NativeName>אוהלי קדר</NativeName>
    <ParentName>באר שבע, ישראל</ParentName>
    <Latitude>31.240012</Latitude>
    <Longitude>34.796193</Longitude>
  </Street>
  <Street>
    <NativeName>אוכמנית</NativeName>
    <ParentName>באר שבע, ישראל</ParentName>
    <Latitude>31.231020</Latitude>
    <Longitude>34.782574</Longitude>
  </Street>
  <Street>
    <NativeName>אולשן</NativeName>
    <ParentName>באר שבע, ישראל</ParentName>
    <Latitude>31.268920</Latitude>
    <Longitude>34.774554</Longitude>
  </Street>
  <CityRegion>
    <NativeName>אוניברסיטת בן-גוריון בנגב</NativeName>
    <ParentName>באר שבע, ישראל</ParentName>
    <AlternateName>אוניברסיטת בן גוריון בנגב</AlternateName>
    <Latitude>31.262513</Latitude>
    <Longitude>34.801333</Longitude>
  </CityRegion>
  <Street>
    <NativeName>אוסבלדו ארניה</NativeName>
    <ParentName>באר שבע, ישראל</ParentName>
    <AlternateName>אוסוולדו ארניה</AlternateName>
    <Latitude>31.266422</Latitude>
    <Longitude>34.801685</Longitude>
  </Street>
  <Street>
    <NativeName>אוסטרובסקי</NativeName>
    <ParentName>באר שבע, ישראל</ParentName>
    <Latitude>31.244516</Latitude>
    <Longitude>34.783514</Longitude>
  </Street>
  <Street>
    <NativeName>אוסישקין</NativeName>
    <ParentName>באר שבע, ישראל</ParentName>
    <AlternateName>מנחם אוסשקין</AlternateName>
    <AlternateName>אוסשקין</AlternateName>
    <AlternateName>מנחם אוסישקין</AlternateName>
    <Latitude>31.250600</Latitude>
    <Longitude>34.792409</Longitude>
  </Street>
  <Street>
    <NativeName>אוסקר שינדלר</NativeName>
    <ParentName>באר שבע, ישראל</ParentName>
    <AlternateName>שינדלר</AlternateName>
    <AlternateName>שנדליר</AlternateName>
    <Latitude>31.283011</Latitude>
    <Longitude>34.799678</Longitude>
  </Street>
  <Street>
    <NativeName>אופירה</NativeName>
    <ParentName>באר שבע, ישראל</ParentName>
    <Latitude>31.244181</Latitude>
    <Longitude>34.770871</Longitude>
  </Street>
  <Street>
    <NativeName>אורות ישראל</NativeName>
    <ParentName>באר שבע, ישראל</ParentName>
    <Latitude>31.236185</Latitude>
    <Longitude>34.763453</Longitude>
  </Street>
  <Street>
    <NativeName>אוריה</NativeName>
    <ParentName>באר שבע, ישראל</ParentName>
    <Latitude>31.236331</Latitude>
    <Longitude>34.784358</Longitude>
  </Street>
  <Street>
    <NativeName>אורן</NativeName>
    <ParentName>באר שבע, ישראל</ParentName>
    <Latitude>31.231757</Latitude>
    <Longitude>34.783501</Longitude>
  </Street>
  <Street>
    <NativeName>אחאב</NativeName>
    <ParentName>באר שבע, ישראל</ParentName>
    <Latitude>31.263203</Latitude>
    <Longitude>34.784028</Longitude>
  </Street>
  <Street>
    <NativeName>אחד העם</NativeName>
    <ParentName>באר שבע, ישראל</ParentName>
    <Latitude>31.247419</Latitude>
    <Longitude>34.792253</Longitude>
  </Street>
  <Street>
    <NativeName>אחינועם</NativeName>
    <ParentName>באר שבע, ישראל</ParentName>
    <Latitude>31.269021</Latitude>
    <Longitude>34.762598</Longitude>
  </Street>
  <Street>
    <NativeName>אטד</NativeName>
    <ParentName>באר שבע, ישראל</ParentName>
    <Latitude>31.229688</Latitude>
    <Longitude>34.783806</Longitude>
  </Street>
  <Street>
    <NativeName>איזידור ריבי</NativeName>
    <ParentName>באר שבע, ישראל</ParentName>
    <Latitude>31.273566</Latitude>
    <Longitude>34.800970</Longitude>
  </Street>
  <Street>
    <NativeName>איילת השחר</NativeName>
    <ParentName>באר שבע, ישראל</ParentName>
    <Latitude>31.236754</Latitude>
    <Longitude>34.764635</Longitude>
  </Street>
  <Street>
    <NativeName>אירוס הנגב</NativeName>
    <ParentName>באר שבע, ישראל</ParentName>
    <Latitude>31.228543</Latitude>
    <Longitude>34.791963</Longitude>
  </Street>
  <Street>
    <NativeName>אלברט מנדלר</NativeName>
    <ParentName>באר שבע, ישראל</ParentName>
    <Latitude>31.268443</Latitude>
    <Longitude>34.811366</Longitude>
  </Street>
  <Street>
    <NativeName>אלה</NativeName>
    <ParentName>באר שבע, ישראל</ParentName>
    <Latitude>31.232487</Latitude>
    <Longitude>34.785994</Longitude>
  </Street>
  <Street>
    <NativeName>אלחריזי</NativeName>
    <ParentName>באר שבע, ישראל</ParentName>
    <Latitude>31.251581</Latitude>
    <Longitude>34.764650</Longitude>
  </Street>
  <Street>
    <NativeName>אליהו בית צורי</NativeName>
    <ParentName>באר שבע, ישראל</ParentName>
    <AlternateName>בית צורי</AlternateName>
    <Latitude>31.272323</Latitude>
    <Longitude>34.814394</Longitude>
  </Street>
  <Street>
    <NativeName>אליהו בן חור</NativeName>
    <ParentName>באר שבע, ישראל</ParentName>
    <Latitude>31.264598</Latitude>
    <Longitude>34.774296</Longitude>
  </Street>
  <Street>
    <NativeName>אליהו הנביא</NativeName>
    <ParentName>באר שבע, ישראל</ParentName>
    <Latitude>31.265414</Latitude>
    <Longitude>34.792448</Longitude>
  </Street>
  <Street>
    <NativeName>אליהו חכים</NativeName>
    <ParentName>באר שבע, ישראל</ParentName>
    <Latitude>31.272943</Latitude>
    <Longitude>34.814290</Longitude>
  </Street>
  <Street>
    <NativeName>אליהו מויאל</NativeName>
    <ParentName>באר שבע, ישראל</ParentName>
    <Latitude>31.263386</Latitude>
    <Longitude>34.770794</Longitude>
  </Street>
  <Street>
    <NativeName>אליהו פרדס</NativeName>
    <ParentName>באר שבע, ישראל</ParentName>
    <Latitude>31.260301</Latitude>
    <Longitude>34.771870</Longitude>
  </Street>
  <Street>
    <NativeName>אליעזר בן יהודה</NativeName>
    <ParentName>באר שבע, ישראל</ParentName>
    <Latitude>31.254374</Latitude>
    <Longitude>34.793594</Longitude>
  </Street>
  <Street>
    <NativeName>אליעזר וצילה מרגולין</NativeName>
    <ParentName>באר שבע, ישראל</ParentName>
    <Latitude>31.223157</Latitude>
    <Longitude>34.800916</Longitude>
  </Street>
  <Street>
    <NativeName>אליעזר קשאני</NativeName>
    <ParentName>באר שבע, ישראל</ParentName>
    <Latitude>31.270286</Latitude>
    <Longitude>34.812896</Longitude>
  </Street>
  <Street>
    <NativeName>אליעזר שמאלי</NativeName>
    <ParentName>באר שבע, ישראל</ParentName>
    <Latitude>31.239685</Latitude>
    <Longitude>34.771746</Longitude>
  </Street>
  <Street>
    <NativeName>אלישבע</NativeName>
    <ParentName>באר שבע, ישראל</ParentName>
    <Latitude>31.270423</Latitude>
    <Longitude>34.769150</Longitude>
  </Street>
  <Street>
    <NativeName>אלישע הנביא</NativeName>
    <ParentName>באר שבע, ישראל</ParentName>
    <Latitude>31.236897</Latitude>
    <Longitude>34.785473</Longitude>
  </Street>
  <Street>
    <NativeName>אלכסנדר אוריה בוסקוביץ</NativeName>
    <ParentName>באר שבע, ישראל</ParentName>
    <Latitude>31.220670</Latitude>
    <Longitude>34.772933</Longitude>
  </Street>
  <Street>
    <NativeName>אלכסנדר זרחין</NativeName>
    <ParentName>באר שבע, ישראל</ParentName>
    <Latitude>31.274451</Latitude>
    <Longitude>34.805433</Longitude>
  </Street>
  <Street>
    <NativeName>אלכסנדר ינאי</NativeName>
    <ParentName>באר שבע, ישראל</ParentName>
    <Latitude>31.263688</Latitude>
    <Longitude>34.795198</Longitude>
  </Street>
  <Street>
    <NativeName>אלכסנדר סשה ארגוב</NativeName>
    <ParentName>באר שבע, ישראל</ParentName>
    <AlternateName>סשה ארגוב</AlternateName>
    <Latitude>31.248318</Latitude>
    <Longitude>34.758031</Longitude>
  </Street>
  <Street>
    <NativeName>אלמוג</NativeName>
    <ParentName>באר שבע, ישראל</ParentName>
    <Latitude>31.230153</Latitude>
    <Longitude>34.785033</Longitude>
  </Street>
  <Street>
    <NativeName>אלעזר בן יאיר</NativeName>
    <ParentName>באר שבע, ישראל</ParentName>
    <Latitude>31.263517</Latitude>
    <Longitude>34.791175</Longitude>
  </Street>
  <Street>
    <NativeName>אלפסי</NativeName>
    <ParentName>באר שבע, ישראל</ParentName>
    <Latitude>31.258239</Latitude>
    <Longitude>34.772681</Longitude>
  </Street>
  <Street>
    <NativeName>אלפרד פריד</NativeName>
    <ParentName>באר שבע, ישראל</ParentName>
    <AlternateName>אלפרדו פריד</AlternateName>
    <Latitude>31.271563</Latitude>
    <Longitude>34.802202</Longitude>
  </Street>
  <Street>
    <NativeName>אלפרד רוסי</NativeName>
    <ParentName>באר שבע, ישראל</ParentName>
    <AlternateName>אלפרדו רוסי</AlternateName>
    <Latitude>31.264300</Latitude>
    <Longitude>34.795184</Longitude>
  </Street>
  <Street>
    <NativeName>אלתרמן</NativeName>
    <ParentName>באר שבע, ישראל</ParentName>
    <AlternateName>אלטרמן</AlternateName>
    <Latitude>31.253386</Latitude>
    <Longitude>34.774509</Longitude>
  </Street>
  <Street>
    <NativeName>אמנון</NativeName>
    <ParentName>באר שבע, ישראל</ParentName>
    <Latitude>31.266545</Latitude>
    <Longitude>34.766374</Longitude>
  </Street>
  <Street>
    <NativeName>אנדה עמיר פינקרפלד</NativeName>
    <ParentName>באר שבע, ישראל</ParentName>
    <Latitude>31.271891</Latitude>
    <Longitude>34.766237</Longitude>
  </Street>
  <CityRegion>
    <NativeName>אנדרטת חטיבת הנגב</NativeName>
    <ParentName>באר שבע, ישראל</ParentName>
    <Latitude>31.266579</Latitude>
    <Longitude>34.820584</Longitude>
  </CityRegion>
  <Street>
    <NativeName>אנילביץ'</NativeName>
    <ParentName>באר שבע, ישראל</ParentName>
    <Latitude>31.237414</Latitude>
    <Longitude>34.788828</Longitude>
  </Street>
  <Street>
    <NativeName>אנפה</NativeName>
    <ParentName>באר שבע, ישראל</ParentName>
    <Latitude>31.275873</Latitude>
    <Longitude>34.825463</Longitude>
  </Street>
  <Street>
    <NativeName>אנצו סירני</NativeName>
    <ParentName>באר שבע, ישראל</ParentName>
    <Latitude>31.226643</Latitude>
    <Longitude>34.780495</Longitude>
  </Street>
  <Street>
    <NativeName>אנקור</NativeName>
    <ParentName>באר שבע, ישראל</ParentName>
    <Latitude>31.231310</Latitude>
    <Longitude>34.772301</Longitude>
  </Street>
  <Street>
    <NativeName>אסא</NativeName>
    <ParentName>באר שבע, ישראל</ParentName>
    <Latitude>31.261686</Latitude>
    <Longitude>34.781313</Longitude>
  </Street>
  <Street>
    <NativeName>אסירי ציון</NativeName>
    <ParentName>באר שבע, ישראל</ParentName>
    <Latitude>31.249620</Latitude>
    <Longitude>34.803637</Longitude>
  </Street>
  <Street>
    <NativeName>אסנת</NativeName>
    <ParentName>באר שבע, ישראל</ParentName>
    <Latitude>31.240136</Latitude>
    <Longitude>34.779704</Longitude>
  </Street>
  <Street>
    <NativeName>אסף הרופא</NativeName>
    <ParentName>באר שבע, ישראל</ParentName>
    <Latitude>31.255658</Latitude>
    <Longitude>34.793312</Longitude>
  </Street>
  <Street>
    <NativeName>אסף שמחוני</NativeName>
    <ParentName>באר שבע, ישראל</ParentName>
    <Latitude>31.243399</Latitude>
    <Longitude>34.788392</Longitude>
  </Street>
  <Street>
    <NativeName>אסר</NativeName>
    <ParentName>באר שבע, ישראל</ParentName>
    <Latitude>31.272066</Latitude>
    <Longitude>34.801865</Longitude>
  </Street>
  <Street>
    <NativeName>אסתר</NativeName>
    <ParentName>באר שבע, ישראל</ParentName>
    <Latitude>31.267589</Latitude>
    <Longitude>34.763518</Longitude>
  </Street>
  <Street>
    <NativeName>אפיקים בנגב</NativeName>
    <ParentName>באר שבע, ישראל</ParentName>
    <Latitude>31.224127</Latitude>
    <Longitude>34.798529</Longitude>
  </Street>
  <Street>
    <NativeName>אפק</NativeName>
    <ParentName>באר שבע, ישראל</ParentName>
    <Latitude>31.243556</Latitude>
    <Longitude>34.765987</Longitude>
  </Street>
  <Street>
    <NativeName>אפרים אורבך</NativeName>
    <ParentName>באר שבע, ישראל</ParentName>
    <Latitude>31.247610</Latitude>
    <Longitude>34.758648</Longitude>
  </Street>
  <Street>
    <NativeName>אפרים די זהב</NativeName>
    <ParentName>באר שבע, ישראל</ParentName>
    <Latitude>31.223117</Latitude>
    <Longitude>34.775488</Longitude>
  </Street>
  <Street>
    <NativeName>אפרים לוזון</NativeName>
    <ParentName>באר שבע, ישראל</ParentName>
    <Latitude>31.265885</Latitude>
    <Longitude>34.758634</Longitude>
  </Street>
  <Street>
    <NativeName>אפרים לרון</NativeName>
    <ParentName>באר שבע, ישראל</ParentName>
    <Latitude>31.230384</Latitude>
    <Longitude>34.768934</Longitude>
  </Street>
  <Street>
    <NativeName>אפרים</NativeName>
    <ParentName>באר שבע, ישראל</ParentName>
    <Latitude>31.239872</Latitude>
    <Longitude>34.782610</Longitude>
  </Street>
  <Street>
    <NativeName>אפרסמון</NativeName>
    <ParentName>באר שבע, ישראל</ParentName>
    <Latitude>31.230729</Latitude>
    <Longitude>34.784918</Longitude>
  </Street>
  <Street>
    <NativeName>אצ"ג</NativeName>
    <ParentName>באר שבע, ישראל</ParentName>
    <Latitude>31.242557</Latitude>
    <Longitude>34.792730</Longitude>
  </Street>
  <Street>
    <NativeName>אצ"ל</NativeName>
    <ParentName>באר שבע, ישראל</ParentName>
    <AlternateName>האצ"ל</AlternateName>
    <Latitude>31.266147</Latitude>
    <Longitude>34.768045</Longitude>
  </Street>
  <Street>
    <NativeName>אקצין</NativeName>
    <ParentName>באר שבע, ישראל</ParentName>
    <Latitude>31.270042</Latitude>
    <Longitude>34.778149</Longitude>
  </Street>
  <Street>
    <NativeName>ארבע הגיבורות</NativeName>
    <ParentName>באר שבע, ישראל</ParentName>
    <Latitude>31.224218</Latitude>
    <Longitude>34.780470</Longitude>
  </Street>
  <Street>
    <NativeName>אריה דולצ'ין</NativeName>
    <ParentName>באר שבע, ישראל</ParentName>
    <Latitude>31.262740</Latitude>
    <Longitude>34.766006</Longitude>
  </Street>
  <Street>
    <NativeName>ארלוזורוב</NativeName>
    <ParentName>באר שבע, ישראל</ParentName>
    <AlternateName>ארלוזרוב</AlternateName>
    <Latitude>31.256308</Latitude>
    <Longitude>34.805428</Longitude>
  </Street>
  <Street>
    <NativeName>ארלנגר</NativeName>
    <ParentName>באר שבע, ישראל</ParentName>
    <Latitude>31.269199</Latitude>
    <Longitude>34.808174</Longitude>
  </Street>
  <Street>
    <NativeName>ארנון</NativeName>
    <ParentName>באר שבע, ישראל</ParentName>
    <Latitude>31.269978</Latitude>
    <Longitude>34.770943</Longitude>
  </Street>
  <Street>
    <NativeName>ארנסט חן</NativeName>
    <ParentName>באר שבע, ישראל</ParentName>
    <Latitude>31.270732</Latitude>
    <Longitude>34.807918</Longitude>
  </Street>
  <Street>
    <NativeName>ארנסט סימון</NativeName>
    <ParentName>באר שבע, ישראל</ParentName>
    <Latitude>31.269470</Latitude>
    <Longitude>34.807401</Longitude>
  </Street>
  <Street>
    <NativeName>ארץ חמדה</NativeName>
    <ParentName>באר שבע, ישראל</ParentName>
    <Latitude>31.235116</Latitude>
    <Longitude>34.764211</Longitude>
  </Street>
  <Street>
    <NativeName>ארתור רופין</NativeName>
    <ParentName>באר שבע, ישראל</ParentName>
    <Latitude>31.264811</Latitude>
    <Longitude>34.767735</Longitude>
  </Street>
  <Street>
    <NativeName>אשכולית</NativeName>
    <ParentName>באר שבע, ישראל</ParentName>
    <Latitude>31.287616</Latitude>
    <Longitude>34.799979</Longitude>
  </Street>
  <Street>
    <NativeName>אשלים</NativeName>
    <ParentName>באר שבע, ישראל</ParentName>
    <Latitude>31.233438</Latitude>
    <Longitude>34.791242</Longitude>
  </Street>
  <Street>
    <NativeName>אשר ברש</NativeName>
    <ParentName>באר שבע, ישראל</ParentName>
    <Latitude>31.239757</Latitude>
    <Longitude>34.776997</Longitude>
  </Street>
  <Street>
    <NativeName>אשר</NativeName>
    <ParentName>באר שבע, ישראל</ParentName>
    <Latitude>31.239606</Latitude>
    <Longitude>34.783870</Longitude>
  </Street>
  <CityRegion>
    <NativeName>באר אברהם</NativeName>
    <ParentName>באר שבע, ישראל</ParentName>
    <Latitude>31.237207</Latitude>
    <Longitude>34.793276</Longitude>
  </CityRegion>
  <Street>
    <NativeName>בובר</NativeName>
    <ParentName>באר שבע, ישראל</ParentName>
    <Latitude>31.267039</Latitude>
    <Longitude>34.771165</Longitude>
  </Street>
  <Street>
    <NativeName>בוסתנאי</NativeName>
    <ParentName>באר שבע, ישראל</ParentName>
    <AlternateName>בוסטנאי</AlternateName>
    <Latitude>31.250211</Latitude>
    <Longitude>34.762372</Longitude>
  </Street>
  <Street>
    <NativeName>בורוכוב</NativeName>
    <ParentName>באר שבע, ישראל</ParentName>
    <Latitude>31.249995</Latitude>
    <Longitude>34.795146</Longitude>
  </Street>
  <Street>
    <NativeName>בורלא</NativeName>
    <ParentName>באר שבע, ישראל</ParentName>
    <Latitude>31.251612</Latitude>
    <Longitude>34.776138</Longitude>
  </Street>
  <Street>
    <NativeName>בז</NativeName>
    <ParentName>באר שבע, ישראל</ParentName>
    <Latitude>31.229673</Latitude>
    <Longitude>34.771606</Longitude>
  </Street>
  <Street>
    <NativeName>בזל</NativeName>
    <ParentName>באר שבע, ישראל</ParentName>
    <AlternateName>באזל</AlternateName>
    <Latitude>31.248701</Latitude>
    <Longitude>34.789268</Longitude>
  </Street>
  <CityRegion>
    <NativeName>בי"ס אשכול</NativeName>
    <ParentName>באר שבע, ישראל</ParentName>
    <Latitude>31.243687</Latitude>
    <Longitude>34.776539</Longitude>
  </CityRegion>
  <CityRegion>
    <NativeName>בי"ס זבולון המר דתי</NativeName>
    <ParentName>באר שבע, ישראל</ParentName>
    <Latitude>31.258364</Latitude>
    <Longitude>34.764477</Longitude>
  </CityRegion>
  <CityRegion>
    <NativeName>בי"ס מגן</NativeName>
    <ParentName>באר שבע, ישראל</ParentName>
    <Latitude>31.268464</Latitude>
    <Longitude>34.783185</Longitude>
  </CityRegion>
  <CityRegion>
    <NativeName>בי"ס ממ"ד עץ חיים</NativeName>
    <ParentName>באר שבע, ישראל</ParentName>
    <Latitude>31.264651</Latitude>
    <Longitude>34.799688</Longitude>
  </CityRegion>
  <CityRegion>
    <NativeName>בי"ס מנחם בגין</NativeName>
    <ParentName>באר שבע, ישראל</ParentName>
    <Latitude>31.268664</Latitude>
    <Longitude>34.764714</Longitude>
  </CityRegion>
  <CityRegion>
    <NativeName>בי"ס נאות אברהם</NativeName>
    <ParentName>באר שבע, ישראל</ParentName>
    <Latitude>31.237860</Latitude>
    <Longitude>34.765016</Longitude>
  </CityRegion>
  <CityRegion>
    <NativeName>בי"ס נאות לון</NativeName>
    <ParentName>באר שבע, ישראל</ParentName>
    <Latitude>31.246024</Latitude>
    <Longitude>34.763980</Longitude>
  </CityRegion>
  <CityRegion>
    <NativeName>בי"ס נתיבי עם</NativeName>
    <ParentName>באר שבע, ישראל</ParentName>
    <Latitude>31.246937</Latitude>
    <Longitude>34.772418</Longitude>
  </CityRegion>
  <Street>
    <NativeName>ביל"ו</NativeName>
    <ParentName>באר שבע, ישראל</ParentName>
    <Latitude>31.224817</Latitude>
    <Longitude>34.788295</Longitude>
  </Street>
  <Street>
    <NativeName>בית אל</NativeName>
    <ParentName>באר שבע, ישראל</ParentName>
    <Latitude>31.247033</Latitude>
    <Longitude>34.774042</Longitude>
  </Street>
  <Street>
    <NativeName>בית אשל</NativeName>
    <ParentName>באר שבע, ישראל</ParentName>
    <Latitude>31.239230</Latitude>
    <Longitude>34.793609</Longitude>
  </Street>
  <CityRegion>
    <NativeName>בית יעקב ד'</NativeName>
    <ParentName>באר שבע, ישראל</ParentName>
    <Latitude>31.270169</Latitude>
    <Longitude>34.791901</Longitude>
  </CityRegion>
  <Street>
    <NativeName>בית לחם</NativeName>
    <ParentName>באר שבע, ישראל</ParentName>
    <Latitude>31.244685</Latitude>
    <Longitude>34.779322</Longitude>
  </Street>
  <Street>
    <NativeName>בית שאן</NativeName>
    <ParentName>באר שבע, ישראל</ParentName>
    <Latitude>31.248854</Latitude>
    <Longitude>34.767478</Longitude>
  </Street>
  <CityRegion>
    <NativeName>בית שקמה</NativeName>
    <ParentName>באר שבע, ישראל</ParentName>
    <Latitude>31.246000</Latitude>
    <Longitude>34.804671</Longitude>
  </CityRegion>
  <Street>
    <NativeName>בכור שטרית</NativeName>
    <ParentName>באר שבע, ישראל</ParentName>
    <Latitude>31.254368</Latitude>
    <Longitude>34.763348</Longitude>
  </Street>
  <Street>
    <NativeName>בלהה</NativeName>
    <ParentName>באר שבע, ישראל</ParentName>
    <Latitude>31.270013</Latitude>
    <Longitude>34.764128</Longitude>
  </Street>
  <Street>
    <NativeName>בלפור</NativeName>
    <ParentName>באר שבע, ישראל</ParentName>
    <Latitude>31.245822</Latitude>
    <Longitude>34.792455</Longitude>
  </Street>
  <Street>
    <NativeName>בלקינד</NativeName>
    <ParentName>באר שבע, ישראל</ParentName>
    <Latitude>31.266698</Latitude>
    <Longitude>34.759745</Longitude>
  </Street>
  <Street>
    <NativeName>בן אשר</NativeName>
    <ParentName>באר שבע, ישראל</ParentName>
    <Latitude>31.267749</Latitude>
    <Longitude>34.776796</Longitude>
  </Street>
  <Street>
    <NativeName>בנטואיץ'</NativeName>
    <ParentName>באר שבע, ישראל</ParentName>
    <Latitude>31.269128</Latitude>
    <Longitude>34.806513</Longitude>
  </Street>
  <Street>
    <NativeName>בנטוב</NativeName>
    <ParentName>באר שבע, ישראל</ParentName>
    <Latitude>31.256726</Latitude>
    <Longitude>34.765875</Longitude>
  </Street>
  <Street>
    <NativeName>בני אור</NativeName>
    <ParentName>באר שבע, ישראל</ParentName>
    <Latitude>31.258502</Latitude>
    <Longitude>34.784923</Longitude>
  </Street>
  <Street>
    <NativeName>בנימין בן אסא</NativeName>
    <ParentName>באר שבע, ישראל</ParentName>
    <Latitude>31.237101</Latitude>
    <Longitude>34.800451</Longitude>
  </Street>
  <Street>
    <NativeName>בנימין מזר</NativeName>
    <ParentName>באר שבע, ישראל</ParentName>
    <Latitude>31.244694</Latitude>
    <Longitude>34.762379</Longitude>
  </Street>
  <Street>
    <NativeName>בנימין מטודלה</NativeName>
    <ParentName>באר שבע, ישראל</ParentName>
    <AlternateName>מטודלה</AlternateName>
    <Latitude>31.267455</Latitude>
    <Longitude>34.801256</Longitude>
  </Street>
  <Street>
    <NativeName>בנימין</NativeName>
    <ParentName>באר שבע, ישראל</ParentName>
    <Latitude>31.239462</Latitude>
    <Longitude>34.784139</Longitude>
  </Street>
  <Street>
    <NativeName>בסקין</NativeName>
    <ParentName>באר שבע, ישראל</ParentName>
    <Latitude>31.251290</Latitude>
    <Longitude>34.805261</Longitude>
  </Street>
  <Street>
    <NativeName>בעלי התוספות</NativeName>
    <ParentName>באר שבע, ישראל</ParentName>
    <Latitude>31.270712</Latitude>
    <Longitude>34.787385</Longitude>
  </Street>
  <Street>
    <NativeName>בצלאל</NativeName>
    <ParentName>באר שבע, ישראל</ParentName>
    <Latitude>31.254518</Latitude>
    <Longitude>34.789342</Longitude>
  </Street>
  <Street>
    <NativeName>בר הלל</NativeName>
    <ParentName>באר שבע, ישראל</ParentName>
    <Latitude>31.270130</Latitude>
    <Longitude>34.805577</Longitude>
  </Street>
  <Street>
    <NativeName>בר יוחאי</NativeName>
    <ParentName>באר שבע, ישראל</ParentName>
    <Latitude>31.272970</Latitude>
    <Longitude>34.794989</Longitude>
  </Street>
  <Street>
    <NativeName>בר כוכבא</NativeName>
    <ParentName>באר שבע, ישראל</ParentName>
    <Latitude>31.243424</Latitude>
    <Longitude>34.781064</Longitude>
  </Street>
  <Street>
    <NativeName>בר ניסן</NativeName>
    <ParentName>באר שבע, ישראל</ParentName>
    <Latitude>31.239562</Latitude>
    <Longitude>34.764100</Longitude>
  </Street>
  <Street>
    <NativeName>ברבור</NativeName>
    <ParentName>באר שבע, ישראל</ParentName>
    <Latitude>31.229824</Latitude>
    <Longitude>34.770077</Longitude>
  </Street>
  <Street>
    <NativeName>ברגסון</NativeName>
    <ParentName>באר שבע, ישראל</ParentName>
    <Latitude>31.271970</Latitude>
    <Longitude>34.806901</Longitude>
  </Street>
  <Street>
    <NativeName>ברדיצ'ב</NativeName>
    <ParentName>באר שבע, ישראל</ParentName>
    <Latitude>31.226385</Latitude>
    <Longitude>34.779224</Longitude>
  </Street>
  <Street>
    <NativeName>ברדיצ'בסקי</NativeName>
    <ParentName>באר שבע, ישראל</ParentName>
    <Latitude>31.267500</Latitude>
    <Longitude>34.772518</Longitude>
  </Street>
  <Street>
    <NativeName>ברוידס</NativeName>
    <ParentName>באר שבע, ישראל</ParentName>
    <Latitude>31.266059</Latitude>
    <Longitude>34.756257</Longitude>
  </Street>
  <Street>
    <NativeName>ברזילי</NativeName>
    <ParentName>באר שבע, ישראל</ParentName>
    <Latitude>31.259112</Latitude>
    <Longitude>34.761666</Longitude>
  </Street>
  <Street>
    <NativeName>ברכה חבס</NativeName>
    <ParentName>באר שבע, ישראל</ParentName>
    <Latitude>31.270018</Latitude>
    <Longitude>34.768193</Longitude>
  </Street>
  <Street>
    <NativeName>ברנהרד והרמן צונדק</NativeName>
    <ParentName>באר שבע, ישראל</ParentName>
    <Latitude>31.269594</Latitude>
    <Longitude>34.808844</Longitude>
  </Street>
  <Street>
    <NativeName>ברני</NativeName>
    <ParentName>באר שבע, ישראל</ParentName>
    <Latitude>31.270639</Latitude>
    <Longitude>34.808569</Longitude>
  </Street>
  <Street>
    <NativeName>ברנפלד</NativeName>
    <ParentName>באר שבע, ישראל</ParentName>
    <Latitude>31.269956</Latitude>
    <Longitude>34.799138</Longitude>
  </Street>
  <Street>
    <NativeName>ברנר</NativeName>
    <ParentName>באר שבע, ישראל</ParentName>
    <Latitude>31.248816</Latitude>
    <Longitude>34.793539</Longitude>
  </Street>
  <Street>
    <NativeName>ברק</NativeName>
    <ParentName>באר שבע, ישראל</ParentName>
    <Latitude>31.242014</Latitude>
    <Longitude>34.780635</Longitude>
  </Street>
  <Street>
    <NativeName>בת שבע</NativeName>
    <ParentName>באר שבע, ישראל</ParentName>
    <Latitude>31.269412</Latitude>
    <Longitude>34.762058</Longitude>
  </Street>
  <CityRegion>
    <NativeName>בתי מלאכה</NativeName>
    <ParentName>באר שבע, ישראל</ParentName>
    <Latitude>31.263490</Latitude>
    <Longitude>34.804154</Longitude>
  </CityRegion>
  <Street>
    <NativeName>ג'יימס פרנק</NativeName>
    <ParentName>באר שבע, ישראל</ParentName>
    <Latitude>31.273929</Latitude>
    <Longitude>34.800274</Longitude>
  </Street>
  <Street>
    <NativeName>גאלאנטי</NativeName>
    <ParentName>באר שבע, ישראל</ParentName>
    <Latitude>31.266417</Latitude>
    <Longitude>34.779167</Longitude>
  </Street>
  <Street>
    <NativeName>גבולות</NativeName>
    <ParentName>באר שבע, ישראל</ParentName>
    <Latitude>31.243840</Latitude>
    <Longitude>34.771608</Longitude>
  </Street>
  <Street>
    <NativeName>גבעתי</NativeName>
    <ParentName>באר שבע, ישראל</ParentName>
    <Latitude>31.256773</Latitude>
    <Longitude>34.807304</Longitude>
  </Street>
  <Street>
    <NativeName>גבריאל</NativeName>
    <ParentName>באר שבע, ישראל</ParentName>
    <Latitude>31.274476</Latitude>
    <Longitude>34.800511</Longitude>
  </Street>
  <Street>
    <NativeName>גד טדסקי</NativeName>
    <ParentName>באר שבע, ישראל</ParentName>
    <Latitude>31.279142</Latitude>
    <Longitude>34.797603</Longitude>
  </Street>
  <Street>
    <NativeName>גד</NativeName>
    <ParentName>באר שבע, ישראל</ParentName>
    <Latitude>31.239313</Latitude>
    <Longitude>34.782819</Longitude>
  </Street>
  <Street>
    <NativeName>גדליהו</NativeName>
    <ParentName>באר שבע, ישראל</ParentName>
    <Latitude>31.266303</Latitude>
    <Longitude>34.765983</Longitude>
  </Street>
  <Street>
    <NativeName>גדעון האוזנר</NativeName>
    <ParentName>באר שבע, ישראל</ParentName>
    <Latitude>31.287175</Latitude>
    <Longitude>34.805288</Longitude>
  </Street>
  <Street>
    <NativeName>גוזלן</NativeName>
    <ParentName>באר שבע, ישראל</ParentName>
    <Latitude>31.221246</Latitude>
    <Longitude>34.801467</Longitude>
  </Street>
  <Street>
    <NativeName>גויטיין</NativeName>
    <ParentName>באר שבע, ישראל</ParentName>
    <Latitude>31.269640</Latitude>
    <Longitude>34.776263</Longitude>
  </Street>
  <Street>
    <NativeName>גולדשטיין</NativeName>
    <ParentName>באר שבע, ישראל</ParentName>
    <Latitude>31.226517</Latitude>
    <Longitude>34.779873</Longitude>
  </Street>
  <Street>
    <NativeName>גולומב</NativeName>
    <ParentName>באר שבע, ישראל</ParentName>
    <Latitude>31.255219</Latitude>
    <Longitude>34.803266</Longitude>
  </Street>
  <Street>
    <NativeName>גולי קניה</NativeName>
    <ParentName>באר שבע, ישראל</ParentName>
    <Latitude>31.237746</Latitude>
    <Longitude>34.779690</Longitude>
  </Street>
  <Street>
    <NativeName>גולני</NativeName>
    <ParentName>באר שבע, ישראל</ParentName>
    <Latitude>31.257413</Latitude>
    <Longitude>34.807098</Longitude>
  </Street>
  <Street>
    <NativeName>גומא</NativeName>
    <ParentName>באר שבע, ישראל</ParentName>
    <Latitude>31.231265</Latitude>
    <Longitude>34.785724</Longitude>
  </Street>
  <Street>
    <NativeName>גורדון</NativeName>
    <ParentName>באר שבע, ישראל</ParentName>
    <AlternateName>א.ד. גורדון</AlternateName>
    <Latitude>31.247990</Latitude>
    <Longitude>34.795335</Longitude>
  </Street>
  <Street>
    <NativeName>גוש עציון</NativeName>
    <ParentName>באר שבע, ישראל</ParentName>
    <Latitude>31.255525</Latitude>
    <Longitude>34.807250</Longitude>
  </Street>
  <Street>
    <NativeName>גיבור</NativeName>
    <ParentName>באר שבע, ישראל</ParentName>
    <Latitude>31.267224</Latitude>
    <Longitude>34.770190</Longitude>
  </Street>
  <Street>
    <NativeName>גיורא יוספטל</NativeName>
    <ParentName>באר שבע, ישראל</ParentName>
    <AlternateName>יוספטל</AlternateName>
    <Latitude>31.271300</Latitude>
    <Longitude>34.796526</Longitude>
  </Street>
  <Street>
    <NativeName>גינצבורג</NativeName>
    <ParentName>באר שבע, ישראל</ParentName>
    <Latitude>31.274489</Latitude>
    <Longitude>34.806548</Longitude>
  </Street>
  <CityRegion>
    <NativeName>גינת חביב</NativeName>
    <ParentName>באר שבע, ישראל</ParentName>
    <Latitude>31.259168</Latitude>
    <Longitude>34.781157</Longitude>
  </CityRegion>
  <Street>
    <NativeName>גלזמן</NativeName>
    <ParentName>באר שבע, ישראל</ParentName>
    <Latitude>31.225228</Latitude>
    <Longitude>34.778937</Longitude>
  </Street>
  <Street>
    <NativeName>גלעד קרוק</NativeName>
    <ParentName>באר שבע, ישראל</ParentName>
    <Latitude>31.269696</Latitude>
    <Longitude>34.806709</Longitude>
  </Street>
  <Street>
    <NativeName>גלעד</NativeName>
    <ParentName>באר שבע, ישראל</ParentName>
    <Latitude>31.268531</Latitude>
    <Longitude>34.794204</Longitude>
  </Street>
  <Street>
    <NativeName>גמל</NativeName>
    <ParentName>באר שבע, ישראל</ParentName>
    <Latitude>31.248882</Latitude>
    <Longitude>34.778914</Longitude>
  </Street>
  <CityRegion>
    <NativeName>גן אביגדור</NativeName>
    <ParentName>באר שבע, ישראל</ParentName>
    <Latitude>31.247954</Latitude>
    <Longitude>34.775547</Longitude>
  </CityRegion>
  <CityRegion>
    <NativeName>גן אליעזר פרי</NativeName>
    <ParentName>באר שבע, ישראל</ParentName>
    <Latitude>31.257451</Latitude>
    <Longitude>34.809115</Longitude>
  </CityRegion>
  <CityRegion>
    <NativeName>גן משה</NativeName>
    <ParentName>באר שבע, ישראל</ParentName>
    <Latitude>31.248506</Latitude>
    <Longitude>34.800487</Longitude>
  </CityRegion>
  <CityRegion>
    <NativeName>גן רפאל</NativeName>
    <ParentName>באר שבע, ישראל</ParentName>
    <Latitude>31.283808</Latitude>
    <Longitude>34.797639</Longitude>
  </CityRegion>
  <CityRegion>
    <NativeName>גן שושנה פרסיץ</NativeName>
    <ParentName>באר שבע, ישראל</ParentName>
    <Latitude>31.262640</Latitude>
    <Longitude>34.766699</Longitude>
  </CityRegion>
  <Street>
    <NativeName>גרטרוד קראוס</NativeName>
    <ParentName>באר שבע, ישראל</ParentName>
    <Latitude>31.248962</Latitude>
    <Longitude>34.756518</Longitude>
  </Street>
  <Street>
    <NativeName>גרינבוים</NativeName>
    <ParentName>באר שבע, ישראל</ParentName>
    <Latitude>31.261672</Latitude>
    <Longitude>34.764982</Longitude>
  </Street>
  <Street>
    <NativeName>גרץ</NativeName>
    <ParentName>באר שבע, ישראל</ParentName>
    <Latitude>31.257377</Latitude>
    <Longitude>34.794121</Longitude>
  </Street>
  <Street>
    <NativeName>גרר</NativeName>
    <ParentName>באר שבע, ישראל</ParentName>
    <Latitude>31.262561</Latitude>
    <Longitude>34.797363</Longitude>
  </Street>
  <Street>
    <NativeName>גרשון דובנבוים</NativeName>
    <ParentName>באר שבע, ישראל</ParentName>
    <Latitude>31.241932</Latitude>
    <Longitude>34.791090</Longitude>
  </Street>
  <Street>
    <NativeName>גרשון שופמן</NativeName>
    <ParentName>באר שבע, ישראל</ParentName>
    <Latitude>31.238139</Latitude>
    <Longitude>34.775151</Longitude>
  </Street>
  <Street>
    <NativeName>גת</NativeName>
    <ParentName>באר שבע, ישראל</ParentName>
    <Latitude>31.246619</Latitude>
    <Longitude>34.767784</Longitude>
  </Street>
  <Street>
    <NativeName>ד"ר אברהם טיכו</NativeName>
    <ParentName>באר שבע, ישראל</ParentName>
    <AlternateName>אברהם טיכו</AlternateName>
    <AlternateName>דוקטור אברהם טיכו</AlternateName>
    <Latitude>31.261813</Latitude>
    <Longitude>34.756920</Longitude>
  </Street>
  <Street>
    <NativeName>ד"ר אלדד שייב</NativeName>
    <ParentName>באר שבע, ישראל</ParentName>
    <AlternateName>אלדד שייב</AlternateName>
    <AlternateName>דוקטור אלדד שייב</AlternateName>
    <Latitude>31.274522</Latitude>
    <Longitude>34.822800</Longitude>
  </Street>
  <Street>
    <NativeName>ד"ר יוחנן בדר</NativeName>
    <ParentName>באר שבע, ישראל</ParentName>
    <AlternateName>דוקטור יוחנן בדר</AlternateName>
    <AlternateName>יוחנן בדר</AlternateName>
    <Latitude>31.273926</Latitude>
    <Longitude>34.824198</Longitude>
  </Street>
  <Street>
    <NativeName>ד"ר ראובן הכט</NativeName>
    <ParentName>באר שבע, ישראל</ParentName>
    <AlternateName>ראובן הכט</AlternateName>
    <AlternateName>דוקטור ראובן הכט</AlternateName>
    <Latitude>31.274900</Latitude>
    <Longitude>34.818303</Longitude>
  </Street>
  <Street>
    <NativeName>ד"ר שלמה צבי רן</NativeName>
    <ParentName>באר שבע, ישראל</ParentName>
    <AlternateName>דוקטור שלמה צבי רן</AlternateName>
    <AlternateName>שלמה צבי רן</AlternateName>
    <Latitude>31.273655</Latitude>
    <Longitude>34.818334</Longitude>
  </Street>
  <Street>
    <NativeName>דב ברנע</NativeName>
    <ParentName>באר שבע, ישראל</ParentName>
    <Latitude>31.285648</Latitude>
    <Longitude>34.802729</Longitude>
  </Street>
  <Street>
    <NativeName>דב גרונר</NativeName>
    <ParentName>באר שבע, ישראל</ParentName>
    <Latitude>31.270125</Latitude>
    <Longitude>34.812603</Longitude>
  </Street>
  <Street>
    <NativeName>דב יוסף</NativeName>
    <ParentName>באר שבע, ישראל</ParentName>
    <Latitude>31.255551</Latitude>
    <Longitude>34.764338</Longitude>
  </Street>
  <Street>
    <NativeName>דב רונאל</NativeName>
    <ParentName>באר שבע, ישראל</ParentName>
    <Latitude>31.240275</Latitude>
    <Longitude>34.771416</Longitude>
  </Street>
  <Street>
    <NativeName>דבורה</NativeName>
    <ParentName>באר שבע, ישראל</ParentName>
    <Latitude>31.242962</Latitude>
    <Longitude>34.779804</Longitude>
  </Street>
  <Street>
    <NativeName>דביר</NativeName>
    <ParentName>באר שבע, ישראל</ParentName>
    <Latitude>31.264472</Latitude>
    <Longitude>34.763074</Longitude>
  </Street>
  <Street>
    <NativeName>דה הוושי</NativeName>
    <ParentName>באר שבע, ישראל</ParentName>
    <Latitude>31.272628</Latitude>
    <Longitude>34.808027</Longitude>
  </Street>
  <Street>
    <NativeName>דה שליט</NativeName>
    <ParentName>באר שבע, ישראל</ParentName>
    <AlternateName>דהשליט</AlternateName>
    <Latitude>31.272332</Latitude>
    <Longitude>34.807477</Longitude>
  </Street>
  <Street>
    <NativeName>דובדבן</NativeName>
    <ParentName>באר שבע, ישראל</ParentName>
    <Latitude>31.287173</Latitude>
    <Longitude>34.800051</Longitude>
  </Street>
  <Street>
    <NativeName>דובנוב</NativeName>
    <ParentName>באר שבע, ישראל</ParentName>
    <Latitude>31.256828</Latitude>
    <Longitude>34.793524</Longitude>
  </Street>
  <Street>
    <NativeName>דוד אלעזר</NativeName>
    <ParentName>באר שבע, ישראל</ParentName>
    <AlternateName>דויד אלעזר</AlternateName>
    <Latitude>31.267043</Latitude>
    <Longitude>34.775706</Longitude>
  </Street>
  <Street>
    <NativeName>דוד אלרואי</NativeName>
    <ParentName>באר שבע, ישראל</ParentName>
    <AlternateName>דויד אלרואי</AlternateName>
    <AlternateName>דוד אלרועי</AlternateName>
    <Latitude>31.264053</Latitude>
    <Longitude>34.763783</Longitude>
  </Street>
  <Street>
    <NativeName>דוד המלך</NativeName>
    <ParentName>באר שבע, ישראל</ParentName>
    <AlternateName>דויד המלך</AlternateName>
    <Latitude>31.264133</Latitude>
    <Longitude>34.791490</Longitude>
  </Street>
  <Street>
    <NativeName>דוד הראובני</NativeName>
    <ParentName>באר שבע, ישראל</ParentName>
    <AlternateName>דויד הראובני</AlternateName>
    <Latitude>31.263495</Latitude>
    <Longitude>34.762756</Longitude>
  </Street>
  <Street>
    <NativeName>דוד וולפסון</NativeName>
    <ParentName>באר שבע, ישראל</ParentName>
    <AlternateName>דויד וולפסון</AlternateName>
    <Latitude>31.245769</Latitude>
    <Longitude>34.799081</Longitude>
  </Street>
  <Street>
    <NativeName>דוד ילין</NativeName>
    <ParentName>באר שבע, ישראל</ParentName>
    <AlternateName>דויד ילין</AlternateName>
    <Latitude>31.270447</Latitude>
    <Longitude>34.806156</Longitude>
  </Street>
  <Street>
    <NativeName>דוד ניב</NativeName>
    <ParentName>באר שבע, ישראל</ParentName>
    <AlternateName>דויד ניב</AlternateName>
    <Latitude>31.239257</Latitude>
    <Longitude>34.769774</Longitude>
  </Street>
  <Street>
    <NativeName>דוד פלוסר</NativeName>
    <ParentName>באר שבע, ישראל</ParentName>
    <AlternateName>דויד פלוסר</AlternateName>
    <Latitude>31.246004</Latitude>
    <Longitude>34.760883</Longitude>
  </Street>
  <Street>
    <NativeName>דוד פרישמן</NativeName>
    <ParentName>באר שבע, ישראל</ParentName>
    <AlternateName>דויד פרישמן</AlternateName>
    <Latitude>31.239764</Latitude>
    <Longitude>34.772902</Longitude>
  </Street>
  <Street>
    <NativeName>דודאים</NativeName>
    <ParentName>באר שבע, ישראל</ParentName>
    <Latitude>31.231694</Latitude>
    <Longitude>34.780442</Longitude>
  </Street>
  <Street>
    <NativeName>דוידוביץ</NativeName>
    <ParentName>באר שבע, ישראל</ParentName>
    <Latitude>31.272569</Latitude>
    <Longitude>34.801559</Longitude>
  </Street>
  <Street>
    <NativeName>דוכיפת</NativeName>
    <ParentName>באר שבע, ישראל</ParentName>
    <Latitude>31.276701</Latitude>
    <Longitude>34.823133</Longitude>
  </Street>
  <Street>
    <NativeName>דולב</NativeName>
    <ParentName>באר שבע, ישראל</ParentName>
    <Latitude>31.219793</Latitude>
    <Longitude>34.818710</Longitude>
  </Street>
  <Street>
    <NativeName>דולפין</NativeName>
    <ParentName>באר שבע, ישראל</ParentName>
    <Latitude>31.221277</Latitude>
    <Longitude>34.820189</Longitude>
  </Street>
  <Street>
    <NativeName>דונש בן לברט</NativeName>
    <ParentName>באר שבע, ישראל</ParentName>
    <Latitude>31.251352</Latitude>
    <Longitude>34.762395</Longitude>
  </Street>
  <Street>
    <NativeName>דורפמן</NativeName>
    <ParentName>באר שבע, ישראל</ParentName>
    <Latitude>31.220828</Latitude>
    <Longitude>34.803356</Longitude>
  </Street>
  <Street>
    <NativeName>דותן</NativeName>
    <ParentName>באר שבע, ישראל</ParentName>
    <Latitude>31.264736</Latitude>
    <Longitude>34.762525</Longitude>
  </Street>
  <Street>
    <NativeName>דינה</NativeName>
    <ParentName>באר שבע, ישראל</ParentName>
    <Latitude>31.235274</Latitude>
    <Longitude>34.784020</Longitude>
  </Street>
  <Street>
    <NativeName>דליה</NativeName>
    <ParentName>באר שבע, ישראל</ParentName>
    <Latitude>31.218445</Latitude>
    <Longitude>34.819177</Longitude>
  </Street>
  <Street>
    <NativeName>דן פטנקין</NativeName>
    <ParentName>באר שבע, ישראל</ParentName>
    <Latitude>31.247429</Latitude>
    <Longitude>34.759347</Longitude>
  </Street>
  <Street>
    <NativeName>דקל</NativeName>
    <ParentName>באר שבע, ישראל</ParentName>
    <Latitude>31.240103</Latitude>
    <Longitude>34.802022</Longitude>
  </Street>
  <Street>
    <NativeName>דקר</NativeName>
    <ParentName>באר שבע, ישראל</ParentName>
    <Latitude>31.267538</Latitude>
    <Longitude>34.765144</Longitude>
  </Street>
  <Street>
    <NativeName>דר ניסתר</NativeName>
    <ParentName>באר שבע, ישראל</ParentName>
    <Latitude>31.254934</Latitude>
    <Longitude>34.794747</Longitude>
  </Street>
  <Street>
    <NativeName>דרויאנוב</NativeName>
    <ParentName>באר שבע, ישראל</ParentName>
    <Latitude>31.266517</Latitude>
    <Longitude>34.756639</Longitude>
  </Street>
  <Street>
    <NativeName>דרור</NativeName>
    <ParentName>באר שבע, ישראל</ParentName>
    <Latitude>31.228491</Latitude>
    <Longitude>34.768756</Longitude>
  </Street>
  <Street>
    <NativeName>דרך אביטל אביגדור</NativeName>
    <ParentName>באר שבע, ישראל</ParentName>
    <AlternateName>אביטל אביגדור</AlternateName>
    <Latitude>31.277092</Latitude>
    <Longitude>34.804666</Longitude>
  </Street>
  <Street>
    <NativeName>דרך אילן רמון</NativeName>
    <ParentName>באר שבע, ישראל</ParentName>
    <AlternateName>אילן רמון</AlternateName>
    <Latitude>31.248761</Latitude>
    <Longitude>34.755812</Longitude>
  </Street>
  <Street>
    <NativeName>דרך אילת</NativeName>
    <ParentName>באר שבע, ישראל</ParentName>
    <AlternateName>אילת</AlternateName>
    <Latitude>31.225268</Latitude>
    <Longitude>34.803973</Longitude>
  </Street>
  <Street>
    <NativeName>דרך ג'ו יוסף אלון</NativeName>
    <ParentName>באר שבע, ישראל</ParentName>
    <AlternateName>ג'ו יוסף אלון</AlternateName>
    <Latitude>31.241211</Latitude>
    <Longitude>34.766534</Longitude>
  </Street>
  <Street>
    <NativeName>דרך המשחררים</NativeName>
    <ParentName>באר שבע, ישראל</ParentName>
    <AlternateName>המשחררים</AlternateName>
    <Latitude>31.251727</Latitude>
    <Longitude>34.790916</Longitude>
  </Street>
  <Street>
    <NativeName>דרך השלום</NativeName>
    <ParentName>באר שבע, ישראל</ParentName>
    <AlternateName>השלום</AlternateName>
    <Latitude>31.252560</Latitude>
    <Longitude>34.805543</Longitude>
  </Street>
  <Street>
    <NativeName>דרך חברון</NativeName>
    <ParentName>באר שבע, ישראל</ParentName>
    <AlternateName>חברון</AlternateName>
    <Latitude>31.247577</Latitude>
    <Longitude>34.815457</Longitude>
  </Street>
  <Street>
    <NativeName>דרך מצדה</NativeName>
    <ParentName>באר שבע, ישראל</ParentName>
    <AlternateName>מצדה</AlternateName>
    <Latitude>31.258887</Latitude>
    <Longitude>34.783894</Longitude>
  </Street>
  <Street>
    <NativeName>דרך שמשון</NativeName>
    <ParentName>באר שבע, ישראל</ParentName>
    <AlternateName>שמשון</AlternateName>
    <Latitude>31.255464</Latitude>
    <Longitude>34.781202</Longitude>
  </Street>
  <Street>
    <NativeName>האבות</NativeName>
    <ParentName>באר שבע, ישראל</ParentName>
    <Latitude>31.238779</Latitude>
    <Longitude>34.788069</Longitude>
  </Street>
  <Street>
    <NativeName>האורגים</NativeName>
    <ParentName>באר שבע, ישראל</ParentName>
    <Latitude>31.254533</Latitude>
    <Longitude>34.817487</Longitude>
  </Street>
  <Street>
    <NativeName>האז</NativeName>
    <ParentName>באר שבע, ישראל</ParentName>
    <Latitude>31.274053</Latitude>
    <Longitude>34.806041</Longitude>
  </Street>
  <Street>
    <NativeName>האיסיים</NativeName>
    <ParentName>באר שבע, ישראל</ParentName>
    <Latitude>31.267973</Latitude>
    <Longitude>34.792152</Longitude>
  </Street>
  <Street>
    <NativeName>האמוראים</NativeName>
    <ParentName>באר שבע, ישראל</ParentName>
    <Latitude>31.271231</Latitude>
    <Longitude>34.787724</Longitude>
  </Street>
  <Street>
    <NativeName>האנדרטה</NativeName>
    <ParentName>באר שבע, ישראל</ParentName>
    <Latitude>31.276851</Latitude>
    <Longitude>34.821678</Longitude>
  </Street>
  <Street>
    <NativeName>הבדיל</NativeName>
    <ParentName>באר שבע, ישראל</ParentName>
    <Latitude>31.224932</Latitude>
    <Longitude>34.809548</Longitude>
  </Street>
  <Street>
    <NativeName>הבונים</NativeName>
    <ParentName>באר שבע, ישראל</ParentName>
    <Latitude>31.220177</Latitude>
    <Longitude>34.814397</Longitude>
  </Street>
  <Street>
    <NativeName>הברזל</NativeName>
    <ParentName>באר שבע, ישראל</ParentName>
    <Latitude>31.217146</Latitude>
    <Longitude>34.808872</Longitude>
  </Street>
  <Street>
    <NativeName>הגאונים</NativeName>
    <ParentName>באר שבע, ישראל</ParentName>
    <Latitude>31.250685</Latitude>
    <Longitude>34.761635</Longitude>
  </Street>
  <Street>
    <NativeName>הגדודים</NativeName>
    <ParentName>באר שבע, ישראל</ParentName>
    <Latitude>31.235142</Latitude>
    <Longitude>34.783639</Longitude>
  </Street>
  <Street>
    <NativeName>הגנן</NativeName>
    <ParentName>באר שבע, ישראל</ParentName>
    <Latitude>31.218091</Latitude>
    <Longitude>34.812548</Longitude>
  </Street>
  <Street>
    <NativeName>הגפן</NativeName>
    <ParentName>באר שבע, ישראל</ParentName>
    <Latitude>31.232189</Latitude>
    <Longitude>34.797037</Longitude>
  </Street>
  <Street>
    <NativeName>הגר</NativeName>
    <ParentName>באר שבע, ישראל</ParentName>
    <Latitude>31.240645</Latitude>
    <Longitude>34.784754</Longitude>
  </Street>
  <Street>
    <NativeName>הדגן</NativeName>
    <ParentName>באר שבע, ישראל</ParentName>
    <Latitude>31.227694</Latitude>
    <Longitude>34.805882</Longitude>
  </Street>
  <Street>
    <NativeName>הדסה</NativeName>
    <ParentName>באר שבע, ישראל</ParentName>
    <Latitude>31.240474</Latitude>
    <Longitude>34.790714</Longitude>
  </Street>
  <Street>
    <NativeName>הדעת</NativeName>
    <ParentName>באר שבע, ישראל</ParentName>
    <Latitude>31.270093</Latitude>
    <Longitude>34.804097</Longitude>
  </Street>
  <Street>
    <NativeName>הדר</NativeName>
    <ParentName>באר שבע, ישראל</ParentName>
    <Latitude>31.232206</Latitude>
    <Longitude>34.795695</Longitude>
  </Street>
  <Street>
    <NativeName>ההגנה</NativeName>
    <ParentName>באר שבע, ישראל</ParentName>
    <Latitude>31.238267</Latitude>
    <Longitude>34.785609</Longitude>
  </Street>
  <Street>
    <NativeName>ההסתדרות</NativeName>
    <ParentName>באר שבע, ישראל</ParentName>
    <Latitude>31.240177</Latitude>
    <Longitude>34.789396</Longitude>
  </Street>
  <Street>
    <NativeName>הוברמן</NativeName>
    <ParentName>באר שבע, ישראל</ParentName>
    <Latitude>31.253401</Latitude>
    <Longitude>34.790419</Longitude>
  </Street>
  <Street>
    <NativeName>הוכברג</NativeName>
    <ParentName>באר שבע, ישראל</ParentName>
    <Latitude>31.270362</Latitude>
    <Longitude>34.771823</Longitude>
  </Street>
  <Street>
    <NativeName>הושע</NativeName>
    <ParentName>באר שבע, ישראל</ParentName>
    <Latitude>31.236569</Latitude>
    <Longitude>34.785962</Longitude>
  </Street>
  <Street>
    <NativeName>הזוהר</NativeName>
    <ParentName>באר שבע, ישראל</ParentName>
    <Latitude>31.271093</Latitude>
    <Longitude>34.788513</Longitude>
  </Street>
  <Street>
    <NativeName>הזורע</NativeName>
    <ParentName>באר שבע, ישראל</ParentName>
    <Latitude>31.215338</Latitude>
    <Longitude>34.812681</Longitude>
  </Street>
  <Street>
    <NativeName>החורש</NativeName>
    <ParentName>באר שבע, ישראל</ParentName>
    <Latitude>31.217116</Latitude>
    <Longitude>34.811844</Longitude>
  </Street>
  <Street>
    <NativeName>החיד"א</NativeName>
    <ParentName>באר שבע, ישראל</ParentName>
    <Latitude>31.253850</Latitude>
    <Longitude>34.768227</Longitude>
  </Street>
  <Street>
    <NativeName>החלוץ</NativeName>
    <ParentName>באר שבע, ישראל</ParentName>
    <Latitude>31.239403</Latitude>
    <Longitude>34.789669</Longitude>
  </Street>
  <Street>
    <NativeName>החרט</NativeName>
    <ParentName>באר שבע, ישראל</ParentName>
    <Latitude>31.222766</Latitude>
    <Longitude>34.809450</Longitude>
  </Street>
  <Street>
    <NativeName>החשמונאים</NativeName>
    <ParentName>באר שבע, ישראל</ParentName>
    <Latitude>31.266762</Latitude>
    <Longitude>34.762492</Longitude>
  </Street>
  <Street>
    <NativeName>החשמלאי</NativeName>
    <ParentName>באר שבע, ישראל</ParentName>
    <Latitude>31.229005</Latitude>
    <Longitude>34.807142</Longitude>
  </Street>
  <Street>
    <NativeName>הטחנה</NativeName>
    <ParentName>באר שבע, ישראל</ParentName>
    <Latitude>31.241688</Latitude>
    <Longitude>34.806234</Longitude>
  </Street>
  <Street>
    <NativeName>היזה</NativeName>
    <ParentName>באר שבע, ישראל</ParentName>
    <Latitude>31.270910</Latitude>
    <Longitude>34.806322</Longitude>
  </Street>
  <Street>
    <NativeName>הכ"ג</NativeName>
    <ParentName>באר שבע, ישראל</ParentName>
    <Latitude>31.249925</Latitude>
    <Longitude>34.804182</Longitude>
  </Street>
  <Street>
    <NativeName>הכוזרי</NativeName>
    <ParentName>באר שבע, ישראל</ParentName>
    <Latitude>31.257137</Latitude>
    <Longitude>34.792665</Longitude>
  </Street>
  <Street>
    <NativeName>הכותל המערבי</NativeName>
    <ParentName>באר שבע, ישראל</ParentName>
    <Latitude>31.250394</Latitude>
    <Longitude>34.787297</Longitude>
  </Street>
  <Street>
    <NativeName>הכנסת</NativeName>
    <ParentName>באר שבע, ישראל</ParentName>
    <Latitude>31.271049</Latitude>
    <Longitude>34.794828</Longitude>
  </Street>
  <Street>
    <NativeName>הכשרת היישוב</NativeName>
    <ParentName>באר שבע, ישראל</ParentName>
    <Latitude>31.220632</Latitude>
    <Longitude>34.812617</Longitude>
  </Street>
  <Street>
    <NativeName>הל"ה</NativeName>
    <ParentName>באר שבע, ישראל</ParentName>
    <Latitude>31.238197</Latitude>
    <Longitude>34.790572</Longitude>
  </Street>
  <Street>
    <NativeName>הלפרין</NativeName>
    <ParentName>באר שבע, ישראל</ParentName>
    <Latitude>31.251673</Latitude>
    <Longitude>34.804464</Longitude>
  </Street>
  <Street>
    <NativeName>המדע</NativeName>
    <ParentName>באר שבע, ישראל</ParentName>
    <Latitude>31.273680</Latitude>
    <Longitude>34.805846</Longitude>
  </Street>
  <Street>
    <NativeName>המהר"ל</NativeName>
    <ParentName>באר שבע, ישראל</ParentName>
    <Latitude>31.267014</Latitude>
    <Longitude>34.780843</Longitude>
  </Street>
  <Street>
    <NativeName>המוכתר</NativeName>
    <ParentName>באר שבע, ישראל</ParentName>
    <Latitude>31.243662</Latitude>
    <Longitude>34.785909</Longitude>
  </Street>
  <Street>
    <NativeName>המוסכים</NativeName>
    <ParentName>באר שבע, ישראל</ParentName>
    <Latitude>31.237185</Latitude>
    <Longitude>34.796832</Longitude>
  </Street>
  <Street>
    <NativeName>המכבים</NativeName>
    <ParentName>באר שבע, ישראל</ParentName>
    <Latitude>31.242486</Latitude>
    <Longitude>34.781073</Longitude>
  </Street>
  <Street>
    <NativeName>המכונאי</NativeName>
    <ParentName>באר שבע, ישראל</ParentName>
    <Latitude>31.221722</Latitude>
    <Longitude>34.809388</Longitude>
  </Street>
  <Street>
    <NativeName>המכתשים</NativeName>
    <ParentName>באר שבע, ישראל</ParentName>
    <Latitude>31.268627</Latitude>
    <Longitude>34.794919</Longitude>
  </Street>
  <Street>
    <NativeName>המלאכה</NativeName>
    <ParentName>באר שבע, ישראל</ParentName>
    <Latitude>31.236533</Latitude>
    <Longitude>34.796687</Longitude>
  </Street>
  <Street>
    <NativeName>המלכים</NativeName>
    <ParentName>באר שבע, ישראל</ParentName>
    <Latitude>31.264700</Latitude>
    <Longitude>34.757315</Longitude>
  </Street>
  <Street>
    <NativeName>המנוף</NativeName>
    <ParentName>באר שבע, ישראל</ParentName>
    <Latitude>31.228402</Latitude>
    <Longitude>34.809717</Longitude>
  </Street>
  <Street>
    <NativeName>המסגר</NativeName>
    <ParentName>באר שבע, ישראל</ParentName>
    <Latitude>31.223778</Latitude>
    <Longitude>34.809469</Longitude>
  </Street>
  <Street>
    <NativeName>המסילה</NativeName>
    <ParentName>באר שבע, ישראל</ParentName>
    <Latitude>31.252461</Latitude>
    <Longitude>34.818077</Longitude>
  </Street>
  <Street>
    <NativeName>המעפילים</NativeName>
    <ParentName>באר שבע, ישראל</ParentName>
    <Latitude>31.250201</Latitude>
    <Longitude>34.807119</Longitude>
  </Street>
  <Street>
    <NativeName>המרד</NativeName>
    <ParentName>באר שבע, ישראל</ParentName>
    <Latitude>31.271851</Latitude>
    <Longitude>34.815142</Longitude>
  </Street>
  <Street>
    <NativeName>המרי העברי</NativeName>
    <ParentName>באר שבע, ישראל</ParentName>
    <Latitude>31.255569</Latitude>
    <Longitude>34.778454</Longitude>
  </Street>
  <Street>
    <NativeName>המשק</NativeName>
    <ParentName>באר שבע, ישראל</ParentName>
    <Latitude>31.243084</Latitude>
    <Longitude>34.813002</Longitude>
  </Street>
  <Street>
    <NativeName>הנגרים</NativeName>
    <ParentName>באר שבע, ישראל</ParentName>
    <Latitude>31.242895</Latitude>
    <Longitude>34.803993</Longitude>
  </Street>
  <Street>
    <NativeName>הנדיב</NativeName>
    <ParentName>באר שבע, ישראל</ParentName>
    <Latitude>31.253678</Latitude>
    <Longitude>34.811399</Longitude>
  </Street>
  <Street>
    <NativeName>הנוטר</NativeName>
    <ParentName>באר שבע, ישראל</ParentName>
    <Latitude>31.253314</Latitude>
    <Longitude>34.805081</Longitude>
  </Street>
  <Street>
    <NativeName>הנוקם</NativeName>
    <ParentName>באר שבע, ישראל</ParentName>
    <Latitude>31.242504</Latitude>
    <Longitude>34.783950</Longitude>
  </Street>
  <Street>
    <NativeName>הנחושת</NativeName>
    <ParentName>באר שבע, ישראל</ParentName>
    <Latitude>31.228692</Latitude>
    <Longitude>34.808365</Longitude>
  </Street>
  <Street>
    <NativeName>הנפח</NativeName>
    <ParentName>באר שבע, ישראל</ParentName>
    <Latitude>31.220928</Latitude>
    <Longitude>34.811153</Longitude>
  </Street>
  <Street>
    <NativeName>הנרי קנדל</NativeName>
    <ParentName>באר שבע, ישראל</ParentName>
    <Latitude>31.244952</Latitude>
    <Longitude>34.783986</Longitude>
  </Street>
  <Street>
    <NativeName>הנרייטה סולד</NativeName>
    <ParentName>באר שבע, ישראל</ParentName>
    <Latitude>31.246984</Latitude>
    <Longitude>34.800454</Longitude>
  </Street>
  <Street>
    <NativeName>הע"ל</NativeName>
    <ParentName>באר שבע, ישראל</ParentName>
    <Latitude>31.233214</Latitude>
    <Longitude>34.795373</Longitude>
  </Street>
  <CityRegion>
    <NativeName>העיר העתיקה</NativeName>
    <ParentName>באר שבע, ישראל</ParentName>
    <Latitude>31.240887</Latitude>
    <Longitude>34.787700</Longitude>
  </CityRegion>
  <Street>
    <NativeName>העלייה</NativeName>
    <ParentName>באר שבע, ישראל</ParentName>
    <Latitude>31.254689</Latitude>
    <Longitude>34.780511</Longitude>
  </Street>
  <Street>
    <NativeName>העצמאות</NativeName>
    <ParentName>באר שבע, ישראל</ParentName>
    <Latitude>31.242087</Latitude>
    <Longitude>34.787083</Longitude>
  </Street>
  <Street>
    <NativeName>הערבה</NativeName>
    <ParentName>באר שבע, ישראל</ParentName>
    <Latitude>31.248286</Latitude>
    <Longitude>34.781319</Longitude>
  </Street>
  <Street>
    <NativeName>הפועלים</NativeName>
    <ParentName>באר שבע, ישראל</ParentName>
    <Latitude>31.226283</Latitude>
    <Longitude>34.808635</Longitude>
  </Street>
  <Street>
    <NativeName>הפחח</NativeName>
    <ParentName>באר שבע, ישראל</ParentName>
    <Latitude>31.224932</Latitude>
    <Longitude>34.809548</Longitude>
  </Street>
  <Street>
    <NativeName>הפלדה</NativeName>
    <ParentName>באר שבע, ישראל</ParentName>
    <Latitude>31.223817</Latitude>
    <Longitude>34.811576</Longitude>
  </Street>
  <Street>
    <NativeName>הפלמ"ח</NativeName>
    <ParentName>באר שבע, ישראל</ParentName>
    <Latitude>31.240604</Latitude>
    <Longitude>34.786707</Longitude>
  </Street>
  <Street>
    <NativeName>הפלס</NativeName>
    <ParentName>באר שבע, ישראל</ParentName>
    <Latitude>31.227937</Latitude>
    <Longitude>34.810926</Longitude>
  </Street>
  <Street>
    <NativeName>הפרטיזנים</NativeName>
    <ParentName>באר שבע, ישראל</ParentName>
    <Latitude>31.226532</Latitude>
    <Longitude>34.783672</Longitude>
  </Street>
  <Street>
    <NativeName>הצבי</NativeName>
    <ParentName>באר שבע, ישראל</ParentName>
    <Latitude>31.251100</Latitude>
    <Longitude>34.775305</Longitude>
  </Street>
  <Street>
    <NativeName>הצדיק מירושלים</NativeName>
    <ParentName>באר שבע, ישראל</ParentName>
    <Latitude>31.273202</Latitude>
    <Longitude>34.789120</Longitude>
  </Street>
  <Street>
    <NativeName>הקוצר</NativeName>
    <ParentName>באר שבע, ישראל</ParentName>
    <Latitude>31.213525</Latitude>
    <Longitude>34.812844</Longitude>
  </Street>
  <Street>
    <NativeName>הקנאים</NativeName>
    <ParentName>באר שבע, ישראל</ParentName>
    <Latitude>31.270032</Latitude>
    <Longitude>34.793670</Longitude>
  </Street>
  <CityRegion>
    <NativeName>הקריה א. ברגמן</NativeName>
    <ParentName>באר שבע, ישראל</ParentName>
    <Latitude>31.252681</Latitude>
    <Longitude>34.799371</Longitude>
  </CityRegion>
  <CityRegion>
    <NativeName>הקריה ע"ש דוד טוביהו</NativeName>
    <ParentName>באר שבע, ישראל</ParentName>
    <AlternateName>הקריה ע"ש דויד טוביהו</AlternateName>
    <Latitude>31.246641</Latitude>
    <Longitude>34.802083</Longitude>
  </CityRegion>
  <Street>
    <NativeName>הר בוקר</NativeName>
    <ParentName>באר שבע, ישראל</ParentName>
    <Latitude>31.274188</Latitude>
    <Longitude>34.809640</Longitude>
  </Street>
  <Street>
    <NativeName>הר בקע</NativeName>
    <ParentName>באר שבע, ישראל</ParentName>
    <Latitude>31.275635</Latitude>
    <Longitude>34.809030</Longitude>
  </Street>
  <Street>
    <NativeName>הר חרמון</NativeName>
    <ParentName>באר שבע, ישראל</ParentName>
    <Latitude>31.273811</Latitude>
    <Longitude>34.811889</Longitude>
  </Street>
  <Street>
    <NativeName>הר כנען</NativeName>
    <ParentName>באר שבע, ישראל</ParentName>
    <Latitude>31.274253</Latitude>
    <Longitude>34.812357</Longitude>
  </Street>
  <Street>
    <NativeName>הר מירון</NativeName>
    <ParentName>באר שבע, ישראל</ParentName>
    <Latitude>31.276889</Latitude>
    <Longitude>34.809317</Longitude>
  </Street>
  <Street>
    <NativeName>הר נס</NativeName>
    <ParentName>באר שבע, ישראל</ParentName>
    <Latitude>31.273362</Latitude>
    <Longitude>34.810969</Longitude>
  </Street>
  <Street>
    <NativeName>הר עודד</NativeName>
    <ParentName>באר שבע, ישראל</ParentName>
    <Latitude>31.273143</Latitude>
    <Longitude>34.811674</Longitude>
  </Street>
  <Street>
    <NativeName>הר עצמון</NativeName>
    <ParentName>באר שבע, ישראל</ParentName>
    <Latitude>31.274894</Latitude>
    <Longitude>34.812727</Longitude>
  </Street>
  <Street>
    <NativeName>הר רמון</NativeName>
    <ParentName>באר שבע, ישראל</ParentName>
    <Latitude>31.276025</Latitude>
    <Longitude>34.810857</Longitude>
  </Street>
  <Street>
    <NativeName>הר תבור</NativeName>
    <ParentName>באר שבע, ישראל</ParentName>
    <Latitude>31.277521</Latitude>
    <Longitude>34.809418</Longitude>
  </Street>
  <Street>
    <NativeName>הרב האי גאון</NativeName>
    <ParentName>באר שבע, ישראל</ParentName>
    <AlternateName>רבי האי גאון</AlternateName>
    <AlternateName>הרבי האי גאון</AlternateName>
    <AlternateName>האי גאון</AlternateName>
    <Latitude>31.250177</Latitude>
    <Longitude>34.761501</Longitude>
  </Street>
  <Street>
    <NativeName>הרב הרצוג</NativeName>
    <ParentName>באר שבע, ישראל</ParentName>
    <AlternateName>רבי הרצוג</AlternateName>
    <AlternateName>הרבי הרצוג</AlternateName>
    <AlternateName>הרצוג</AlternateName>
    <Latitude>31.260528</Latitude>
    <Longitude>34.768235</Longitude>
  </Street>
  <Street>
    <NativeName>הרב חי חביב</NativeName>
    <ParentName>באר שבע, ישראל</ParentName>
    <AlternateName>חי חביב</AlternateName>
    <AlternateName>רבי חי חביב</AlternateName>
    <AlternateName>הרבי חי חביב</AlternateName>
    <Latitude>31.252114</Latitude>
    <Longitude>34.761146</Longitude>
  </Street>
  <Street>
    <NativeName>הרב חיים שושנה</NativeName>
    <ParentName>באר שבע, ישראל</ParentName>
    <AlternateName>הרבי חיים שושנה</AlternateName>
    <AlternateName>רבי חיים שושנה</AlternateName>
    <AlternateName>חיים שושנה</AlternateName>
    <Latitude>31.283897</Latitude>
    <Longitude>34.797143</Longitude>
  </Street>
  <Street>
    <NativeName>הרב טביב</NativeName>
    <ParentName>באר שבע, ישראל</ParentName>
    <AlternateName>טביב</AlternateName>
    <AlternateName>הרבי טביב</AlternateName>
    <AlternateName>רבי טביב</AlternateName>
    <Latitude>31.265020</Latitude>
    <Longitude>34.793672</Longitude>
  </Street>
  <Street>
    <NativeName>הרב טנא</NativeName>
    <ParentName>באר שבע, ישראל</ParentName>
    <AlternateName>רבי טנא</AlternateName>
    <AlternateName>הרבי טנא</AlternateName>
    <AlternateName>טנא</AlternateName>
    <Latitude>31.234527</Latitude>
    <Longitude>34.784507</Longitude>
  </Street>
  <Street>
    <NativeName>הרב יוסף סוסו</NativeName>
    <ParentName>באר שבע, ישראל</ParentName>
    <AlternateName>רבי סוסו הכהן</AlternateName>
    <AlternateName>הרבי יוסף סוסו</AlternateName>
    <AlternateName>הרבי סוסו הכהן</AlternateName>
    <AlternateName>הרב סוסו הכהן</AlternateName>
    <AlternateName>רבי יוסף סוסו</AlternateName>
    <AlternateName>יוסף סוסו</AlternateName>
    <AlternateName>סוסו הכהן</AlternateName>
    <Latitude>31.266103</Latitude>
    <Longitude>34.797005</Longitude>
  </Street>
  <Street>
    <NativeName>הרב יחיא קפאח</NativeName>
    <ParentName>באר שבע, ישראל</ParentName>
    <AlternateName>הרבי יחיא קפאח</AlternateName>
    <AlternateName>יחיא קפאח</AlternateName>
    <AlternateName>רבי יחיא קפאח</AlternateName>
    <Latitude>31.252448</Latitude>
    <Longitude>34.763676</Longitude>
  </Street>
  <Street>
    <NativeName>הרב יצחק יעקב ריינס</NativeName>
    <ParentName>באר שבע, ישראל</ParentName>
    <AlternateName>רבי יצחק יעקב ריינס</AlternateName>
    <AlternateName>הרבי יצחק יעקב ריינס</AlternateName>
    <AlternateName>יצחק יעקב ריינס</AlternateName>
    <Latitude>31.263328</Latitude>
    <Longitude>34.760165</Longitude>
  </Street>
  <Street>
    <NativeName>הרב מיימון</NativeName>
    <ParentName>באר שבע, ישראל</ParentName>
    <AlternateName>מיימון</AlternateName>
    <AlternateName>רבי מיימון</AlternateName>
    <AlternateName>הרבי מיימון</AlternateName>
    <Latitude>31.271726</Latitude>
    <Longitude>34.794775</Longitude>
  </Street>
  <Street>
    <NativeName>הרב מישאל דהאן</NativeName>
    <ParentName>באר שבע, ישראל</ParentName>
    <AlternateName>מישאל דהאן</AlternateName>
    <AlternateName>רבי מישאל דהאן</AlternateName>
    <AlternateName>הרבי מישאל דהאן</AlternateName>
    <Latitude>31.231570</Latitude>
    <Longitude>34.769851</Longitude>
  </Street>
  <Street>
    <NativeName>הרב סילברט</NativeName>
    <ParentName>באר שבע, ישראל</ParentName>
    <AlternateName>הרבי סילברט</AlternateName>
    <AlternateName>סילברט</AlternateName>
    <AlternateName>רבי סילברט</AlternateName>
    <Latitude>31.270835</Latitude>
    <Longitude>34.788112</Longitude>
  </Street>
  <Street>
    <NativeName>הרב סרנא</NativeName>
    <ParentName>באר שבע, ישראל</ParentName>
    <AlternateName>סרנא</AlternateName>
    <AlternateName>הרבי סרנא</AlternateName>
    <AlternateName>רבי סרנא</AlternateName>
    <Latitude>31.266417</Latitude>
    <Longitude>34.779167</Longitude>
  </Street>
  <Street>
    <NativeName>הרב פרנק</NativeName>
    <ParentName>באר שבע, ישראל</ParentName>
    <AlternateName>הרבי פרנק</AlternateName>
    <AlternateName>פרנק</AlternateName>
    <AlternateName>רבי פרנק</AlternateName>
    <Latitude>31.267948</Latitude>
    <Longitude>34.781629</Longitude>
  </Street>
  <Street>
    <NativeName>הרב שלמה עדני</NativeName>
    <ParentName>באר שבע, ישראל</ParentName>
    <AlternateName>הרבי שלמה עדני</AlternateName>
    <AlternateName>שלמה עדני</AlternateName>
    <AlternateName>רבי שלמה עדני</AlternateName>
    <Latitude>31.253033</Latitude>
    <Longitude>34.763861</Longitude>
  </Street>
  <Street>
    <NativeName>הרב שמחה אסף</NativeName>
    <ParentName>באר שבע, ישראל</ParentName>
    <AlternateName>שמחה אסף</AlternateName>
    <AlternateName>רבי שמחה אסף</AlternateName>
    <AlternateName>הרבי שמחה אסף</AlternateName>
    <Latitude>31.265154</Latitude>
    <Longitude>34.802354</Longitude>
  </Street>
  <Street>
    <NativeName>הרב שרירא גאון</NativeName>
    <ParentName>באר שבע, ישראל</ParentName>
    <AlternateName>שרירא גאון</AlternateName>
    <AlternateName>הרבי שרירא גאון</AlternateName>
    <AlternateName>רבי שרירא גאון</AlternateName>
    <Latitude>31.250781</Latitude>
    <Longitude>34.761216</Longitude>
  </Street>
  <Street>
    <NativeName>הרבבה</NativeName>
    <ParentName>באר שבע, ישראל</ParentName>
    <Latitude>31.241893</Latitude>
    <Longitude>34.784170</Longitude>
  </Street>
  <Street>
    <NativeName>הרברט בן עדי</NativeName>
    <ParentName>באר שבע, ישראל</ParentName>
    <Latitude>31.238844</Latitude>
    <Longitude>34.786715</Longitude>
  </Street>
  <Street>
    <NativeName>הרצל רוזנבלום</NativeName>
    <ParentName>באר שבע, ישראל</ParentName>
    <AlternateName>רוזנבלום</AlternateName>
    <Latitude>31.236605</Latitude>
    <Longitude>34.766375</Longitude>
  </Street>
  <Street>
    <NativeName>הרצל</NativeName>
    <ParentName>באר שבע, ישראל</ParentName>
    <Latitude>31.240936</Latitude>
    <Longitude>34.789125</Longitude>
  </Street>
  <Street>
    <NativeName>הרצפלד</NativeName>
    <ParentName>באר שבע, ישראל</ParentName>
    <Latitude>31.243290</Latitude>
    <Longitude>34.783840</Longitude>
  </Street>
  <Street>
    <NativeName>הרשל גרינשפן</NativeName>
    <ParentName>באר שבע, ישראל</ParentName>
    <Latitude>31.268205</Latitude>
    <Longitude>34.757684</Longitude>
  </Street>
  <Street>
    <NativeName>הרתך</NativeName>
    <ParentName>באר שבע, ישראל</ParentName>
    <Latitude>31.224820</Latitude>
    <Longitude>34.815923</Longitude>
  </Street>
  <Street>
    <NativeName>השבטים</NativeName>
    <ParentName>באר שבע, ישראל</ParentName>
    <Latitude>31.238286</Latitude>
    <Longitude>34.781520</Longitude>
  </Street>
  <Street>
    <NativeName>השווקים</NativeName>
    <ParentName>באר שבע, ישראל</ParentName>
    <Latitude>31.240012</Latitude>
    <Longitude>34.796193</Longitude>
  </Street>
  <Street>
    <NativeName>השומר</NativeName>
    <ParentName>באר שבע, ישראל</ParentName>
    <Latitude>31.246684</Latitude>
    <Longitude>34.793871</Longitude>
  </Street>
  <Street>
    <NativeName>השופט אלקים</NativeName>
    <ParentName>באר שבע, ישראל</ParentName>
    <Latitude>31.242958</Latitude>
    <Longitude>34.764711</Longitude>
  </Street>
  <Street>
    <NativeName>השופטים</NativeName>
    <ParentName>באר שבע, ישראל</ParentName>
    <Latitude>31.260760</Latitude>
    <Longitude>34.761035</Longitude>
  </Street>
  <Street>
    <NativeName>התורה הגואלת</NativeName>
    <ParentName>באר שבע, ישראל</ParentName>
    <Latitude>31.235514</Latitude>
    <Longitude>34.763348</Longitude>
  </Street>
  <Street>
    <NativeName>התיבונים</NativeName>
    <ParentName>באר שבע, ישראל</ParentName>
    <Latitude>31.251701</Latitude>
    <Longitude>34.763072</Longitude>
  </Street>
  <Street>
    <NativeName>התלמוד</NativeName>
    <ParentName>באר שבע, ישראל</ParentName>
    <Latitude>31.270143</Latitude>
    <Longitude>34.787703</Longitude>
  </Street>
  <Street>
    <NativeName>התקווה</NativeName>
    <ParentName>באר שבע, ישראל</ParentName>
    <Latitude>31.246063</Latitude>
    <Longitude>34.799084</Longitude>
  </Street>
  <Street>
    <NativeName>ויטנברג</NativeName>
    <ParentName>באר שבע, ישראל</ParentName>
    <Latitude>31.225506</Latitude>
    <Longitude>34.780168</Longitude>
  </Street>
  <Street>
    <NativeName>וייצמן</NativeName>
    <ParentName>באר שבע, ישראל</ParentName>
    <Latitude>31.247499</Latitude>
    <Longitude>34.794705</Longitude>
  </Street>
  <Street>
    <NativeName>וילנר</NativeName>
    <ParentName>באר שבע, ישראל</ParentName>
    <Latitude>31.223973</Latitude>
    <Longitude>34.779292</Longitude>
  </Street>
  <Street>
    <NativeName>וינגייט</NativeName>
    <ParentName>באר שבע, ישראל</ParentName>
    <Latitude>31.255855</Latitude>
    <Longitude>34.804646</Longitude>
  </Street>
  <Street>
    <NativeName>ויקטור ונטורה</NativeName>
    <ParentName>באר שבע, ישראל</ParentName>
    <Latitude>31.223157</Latitude>
    <Longitude>34.800916</Longitude>
  </Street>
  <Street>
    <NativeName>וירשובסקי</NativeName>
    <ParentName>באר שבע, ישראל</ParentName>
    <Latitude>31.269508</Latitude>
    <Longitude>34.805011</Longitude>
  </Street>
  <Street>
    <NativeName>ויתקון</NativeName>
    <ParentName>באר שבע, ישראל</ParentName>
    <Latitude>31.270692</Latitude>
    <Longitude>34.777793</Longitude>
  </Street>
  <Street>
    <NativeName>וקסמן</NativeName>
    <ParentName>באר שבע, ישראל</ParentName>
    <Latitude>31.270343</Latitude>
    <Longitude>34.808441</Longitude>
  </Street>
  <Street>
    <NativeName>ורבורג</NativeName>
    <ParentName>באר שבע, ישראל</ParentName>
    <Latitude>31.248490</Latitude>
    <Longitude>34.785133</Longitude>
  </Street>
  <Street>
    <NativeName>ורד</NativeName>
    <ParentName>באר שבע, ישראל</ParentName>
    <Latitude>31.231703</Latitude>
    <Longitude>34.778920</Longitude>
  </Street>
  <Street>
    <NativeName>ורטהיימר</NativeName>
    <ParentName>באר שבע, ישראל</ParentName>
    <Latitude>31.271219</Latitude>
    <Longitude>34.808672</Longitude>
  </Street>
  <Street>
    <NativeName>ז'בוטינסקי</NativeName>
    <ParentName>באר שבע, ישראל</ParentName>
    <AlternateName>זאב ז'בוטינסקי</AlternateName>
    <AlternateName>זבוטיסקי</AlternateName>
    <Latitude>31.250154</Latitude>
    <Longitude>34.809120</Longitude>
  </Street>
  <Street>
    <NativeName>זאב טיומקין</NativeName>
    <ParentName>באר שבע, ישראל</ParentName>
    <Latitude>31.239152</Latitude>
    <Longitude>34.767089</Longitude>
  </Street>
  <Street>
    <NativeName>זבולון המר</NativeName>
    <ParentName>באר שבע, ישראל</ParentName>
    <Latitude>31.266854</Latitude>
    <Longitude>34.811406</Longitude>
  </Street>
  <Street>
    <NativeName>זוסמן</NativeName>
    <ParentName>באר שבע, ישראל</ParentName>
    <Latitude>31.269575</Latitude>
    <Longitude>34.777015</Longitude>
  </Street>
  <Street>
    <NativeName>זילברג</NativeName>
    <ParentName>באר שבע, ישראל</ParentName>
    <Latitude>31.269406</Latitude>
    <Longitude>34.775690</Longitude>
  </Street>
  <Street>
    <NativeName>זכות משה</NativeName>
    <ParentName>באר שבע, ישראל</ParentName>
    <Latitude>31.235760</Latitude>
    <Longitude>34.764047</Longitude>
  </Street>
  <Street>
    <NativeName>זכריה</NativeName>
    <ParentName>באר שבע, ישראל</ParentName>
    <Latitude>31.238561</Latitude>
    <Longitude>34.785011</Longitude>
  </Street>
  <Street>
    <NativeName>זלמן ארן</NativeName>
    <ParentName>באר שבע, ישראל</ParentName>
    <Latitude>31.255942</Latitude>
    <Longitude>34.761663</Longitude>
  </Street>
  <Street>
    <NativeName>זלמן שניאור</NativeName>
    <ParentName>באר שבע, ישראל</ParentName>
    <Latitude>31.253564</Latitude>
    <Longitude>34.793102</Longitude>
  </Street>
  <Street>
    <NativeName>זלפה</NativeName>
    <ParentName>באר שבע, ישראל</ParentName>
    <Latitude>31.269842</Latitude>
    <Longitude>34.763486</Longitude>
  </Street>
  <Street>
    <NativeName>זמורה</NativeName>
    <ParentName>באר שבע, ישראל</ParentName>
    <Latitude>31.269406</Latitude>
    <Longitude>34.775690</Longitude>
  </Street>
  <Street>
    <NativeName>זמנהוף</NativeName>
    <ParentName>באר שבע, ישראל</ParentName>
    <Latitude>31.264763</Latitude>
    <Longitude>34.761320</Longitude>
  </Street>
  <Street>
    <NativeName>זרובבל</NativeName>
    <ParentName>באר שבע, ישראל</ParentName>
    <Latitude>31.264811</Latitude>
    <Longitude>34.763593</Longitude>
  </Street>
  <Street>
    <NativeName>ח"ן</NativeName>
    <ParentName>באר שבע, ישראל</ParentName>
    <Latitude>31.265638</Latitude>
    <Longitude>34.776534</Longitude>
  </Street>
  <Street>
    <NativeName>חביבה רייק</NativeName>
    <ParentName>באר שבע, ישראל</ParentName>
    <Latitude>31.257589</Latitude>
    <Longitude>34.808095</Longitude>
  </Street>
  <Street>
    <NativeName>חבצלת הנגב</NativeName>
    <ParentName>באר שבע, ישראל</ParentName>
    <Latitude>31.234292</Latitude>
    <Longitude>34.790293</Longitude>
  </Street>
  <Street>
    <NativeName>חבקוק</NativeName>
    <ParentName>באר שבע, ישראל</ParentName>
    <Latitude>31.236632</Latitude>
    <Longitude>34.784343</Longitude>
  </Street>
  <Street>
    <NativeName>חגי</NativeName>
    <ParentName>באר שבע, ישראל</ParentName>
    <Latitude>31.237916</Latitude>
    <Longitude>34.784531</Longitude>
  </Street>
  <Street>
    <NativeName>חוגלה</NativeName>
    <ParentName>באר שבע, ישראל</ParentName>
    <Latitude>31.249507</Latitude>
    <Longitude>34.782760</Longitude>
  </Street>
  <Street>
    <NativeName>חוה</NativeName>
    <ParentName>באר שבע, ישראל</ParentName>
    <Latitude>31.268672</Latitude>
    <Longitude>34.763044</Longitude>
  </Street>
  <Street>
    <NativeName>חוחית</NativeName>
    <ParentName>באר שבע, ישראל</ParentName>
    <Latitude>31.227817</Latitude>
    <Longitude>34.763808</Longitude>
  </Street>
  <Street>
    <NativeName>חומה ומגדל</NativeName>
    <ParentName>באר שבע, ישראל</ParentName>
    <Latitude>31.254051</Latitude>
    <Longitude>34.804787</Longitude>
  </Street>
  <Street>
    <NativeName>חופית</NativeName>
    <ParentName>באר שבע, ישראל</ParentName>
    <Latitude>31.222835</Latitude>
    <Longitude>34.818978</Longitude>
  </Street>
  <Street>
    <NativeName>חז"ל</NativeName>
    <ParentName>באר שבע, ישראל</ParentName>
    <Latitude>31.257605</Latitude>
    <Longitude>34.792231</Longitude>
  </Street>
  <Street>
    <NativeName>חזני</NativeName>
    <ParentName>באר שבע, ישראל</ParentName>
    <Latitude>31.261502</Latitude>
    <Longitude>34.771200</Longitude>
  </Street>
  <Street>
    <NativeName>חזקיהו</NativeName>
    <ParentName>באר שבע, ישראל</ParentName>
    <Latitude>31.263353</Latitude>
    <Longitude>34.785860</Longitude>
  </Street>
  <Street>
    <NativeName>חטיבה שמונה</NativeName>
    <ParentName>באר שבע, ישראל</ParentName>
    <Latitude>31.236421</Latitude>
    <Longitude>34.777264</Longitude>
  </Street>
  <Street>
    <NativeName>חיבת ציון</NativeName>
    <ParentName>באר שבע, ישראל</ParentName>
    <Latitude>31.252942</Latitude>
    <Longitude>34.811044</Longitude>
  </Street>
  <Street>
    <NativeName>חיים גרינפלד</NativeName>
    <ParentName>באר שבע, ישראל</ParentName>
    <Latitude>31.281220</Latitude>
    <Longitude>34.799949</Longitude>
  </Street>
  <Street>
    <NativeName>חיים הזז</NativeName>
    <ParentName>באר שבע, ישראל</ParentName>
    <Latitude>31.253248</Latitude>
    <Longitude>34.796148</Longitude>
  </Street>
  <Street>
    <NativeName>חיים יחיל</NativeName>
    <ParentName>באר שבע, ישראל</ParentName>
    <Latitude>31.243384</Latitude>
    <Longitude>34.801610</Longitude>
  </Street>
  <Street>
    <NativeName>חיים לנדאו</NativeName>
    <ParentName>באר שבע, ישראל</ParentName>
    <Latitude>31.256498</Latitude>
    <Longitude>34.760934</Longitude>
  </Street>
  <Street>
    <NativeName>חיים נחמן ביאליק</NativeName>
    <ParentName>באר שבע, ישראל</ParentName>
    <AlternateName>ביאליק</AlternateName>
    <Latitude>31.251192</Latitude>
    <Longitude>34.791034</Longitude>
  </Street>
  <Street>
    <NativeName>חיים שירמן</NativeName>
    <ParentName>באר שבע, ישראל</ParentName>
    <Latitude>31.272623</Latitude>
    <Longitude>34.805413</Longitude>
  </Street>
  <Street>
    <NativeName>חיל הנדסה</NativeName>
    <ParentName>באר שבע, ישראל</ParentName>
    <Latitude>31.242947</Latitude>
    <Longitude>34.812326</Longitude>
  </Street>
  <Street>
    <NativeName>חמדה וצבי זינדר</NativeName>
    <ParentName>באר שבע, ישראל</ParentName>
    <Latitude>31.223819</Latitude>
    <Longitude>34.776305</Longitude>
  </Street>
  <Street>
    <NativeName>חנה סנש</NativeName>
    <ParentName>באר שבע, ישראל</ParentName>
    <Latitude>31.257740</Latitude>
    <Longitude>34.809818</Longitude>
  </Street>
  <Street>
    <NativeName>חנה רובינא</NativeName>
    <ParentName>באר שבע, ישראל</ParentName>
    <Latitude>31.270003</Latitude>
    <Longitude>34.769467</Longitude>
  </Street>
  <Street>
    <NativeName>חנה</NativeName>
    <ParentName>באר שבע, ישראל</ParentName>
    <Latitude>31.267924</Latitude>
    <Longitude>34.764831</Longitude>
  </Street>
  <Street>
    <NativeName>חנוך אלבק</NativeName>
    <ParentName>באר שבע, ישראל</ParentName>
    <Latitude>31.271617</Latitude>
    <Longitude>34.804674</Longitude>
  </Street>
  <Street>
    <NativeName>חנוך גיבתון</NativeName>
    <ParentName>באר שבע, ישראל</ParentName>
    <Latitude>31.224197</Latitude>
    <Longitude>34.776708</Longitude>
  </Street>
  <Street>
    <NativeName>חסדאי אבן שפרוט</NativeName>
    <ParentName>באר שבע, ישראל</ParentName>
    <Latitude>31.251672</Latitude>
    <Longitude>34.763010</Longitude>
  </Street>
  <Street>
    <NativeName>חסידה</NativeName>
    <ParentName>באר שבע, ישראל</ParentName>
    <Latitude>31.229175</Latitude>
    <Longitude>34.766926</Longitude>
  </Street>
  <Street>
    <NativeName>חצב</NativeName>
    <ParentName>באר שבע, ישראל</ParentName>
    <Latitude>31.229782</Latitude>
    <Longitude>34.779682</Longitude>
  </Street>
  <CityRegion>
    <NativeName>חצרים</NativeName>
    <ParentName>באר שבע, ישראל</ParentName>
    <Latitude>31.238841</Latitude>
    <Longitude>34.778431</Longitude>
  </CityRegion>
  <Street>
    <NativeName>חרוב</NativeName>
    <ParentName>באר שבע, ישראל</ParentName>
    <Latitude>31.287150</Latitude>
    <Longitude>34.801161</Longitude>
  </Street>
  <Street>
    <NativeName>חרצית</NativeName>
    <ParentName>באר שבע, ישראל</ParentName>
    <Latitude>31.232741</Latitude>
    <Longitude>34.788216</Longitude>
  </Street>
  <Street>
    <NativeName>חשין</NativeName>
    <ParentName>באר שבע, ישראל</ParentName>
    <Latitude>31.269151</Latitude>
    <Longitude>34.775074</Longitude>
  </Street>
  <Street>
    <NativeName>טביוב</NativeName>
    <ParentName>באר שבע, ישראל</ParentName>
    <Latitude>31.267839</Latitude>
    <Longitude>34.758136</Longitude>
  </Street>
  <Street>
    <NativeName>טבנקין</NativeName>
    <ParentName>באר שבע, ישראל</ParentName>
    <Latitude>31.255057</Latitude>
    <Longitude>34.773988</Longitude>
  </Street>
  <Street>
    <NativeName>טווס</NativeName>
    <ParentName>באר שבע, ישראל</ParentName>
    <Latitude>31.278002</Latitude>
    <Longitude>34.823133</Longitude>
  </Street>
  <Street>
    <NativeName>טולידנו</NativeName>
    <ParentName>באר שבע, ישראל</ParentName>
    <Latitude>31.267919</Latitude>
    <Longitude>34.777782</Longitude>
  </Street>
  <Street>
    <NativeName>טור סיני</NativeName>
    <ParentName>באר שבע, ישראל</ParentName>
    <Latitude>31.270447</Latitude>
    <Longitude>34.806156</Longitude>
  </Street>
  <Street>
    <NativeName>טל חרמון</NativeName>
    <ParentName>באר שבע, ישראל</ParentName>
    <Latitude>31.235675</Latitude>
    <Longitude>34.765383</Longitude>
  </Street>
  <Street>
    <NativeName>טלמון</NativeName>
    <ParentName>באר שבע, ישראל</ParentName>
    <Latitude>31.266369</Latitude>
    <Longitude>34.770193</Longitude>
  </Street>
  <Street>
    <NativeName>טננבוים</NativeName>
    <ParentName>באר שבע, ישראל</ParentName>
    <Latitude>31.224250</Latitude>
    <Longitude>34.781120</Longitude>
  </Street>
  <Street>
    <NativeName>טרומפלדור יוסף</NativeName>
    <ParentName>באר שבע, ישראל</ParentName>
    <Latitude>31.238563</Latitude>
    <Longitude>34.790914</Longitude>
  </Street>
  <Street>
    <NativeName>טשרניחובסקי</NativeName>
    <ParentName>באר שבע, ישראל</ParentName>
    <Latitude>31.256922</Latitude>
    <Longitude>34.795086</Longitude>
  </Street>
  <Street>
    <NativeName>י.ל. פרץ</NativeName>
    <ParentName>באר שבע, ישראל</ParentName>
    <Latitude>31.240355</Latitude>
    <Longitude>34.778731</Longitude>
  </Street>
  <Street>
    <NativeName>יאיר אברהם שטרן</NativeName>
    <ParentName>באר שבע, ישראל</ParentName>
    <Latitude>31.240541</Latitude>
    <Longitude>34.791820</Longitude>
  </Street>
  <Street>
    <NativeName>יאשיהו</NativeName>
    <ParentName>באר שבע, ישראל</ParentName>
    <Latitude>31.262927</Latitude>
    <Longitude>34.781662</Longitude>
  </Street>
  <Street>
    <NativeName>יד ושם</NativeName>
    <ParentName>באר שבע, ישראל</ParentName>
    <Latitude>31.251121</Latitude>
    <Longitude>34.803056</Longitude>
  </Street>
  <Street>
    <NativeName>ידידיה אדמון</NativeName>
    <ParentName>באר שבע, ישראל</ParentName>
    <Latitude>31.220514</Latitude>
    <Longitude>34.772308</Longitude>
  </Street>
  <Street>
    <NativeName>יהוא</NativeName>
    <ParentName>באר שבע, ישראל</ParentName>
    <Latitude>31.262444</Latitude>
    <Longitude>34.782196</Longitude>
  </Street>
  <Street>
    <NativeName>יהואש</NativeName>
    <ParentName>באר שבע, ישראל</ParentName>
    <Latitude>31.262458</Latitude>
    <Longitude>34.785825</Longitude>
  </Street>
  <Street>
    <NativeName>יהודה גור</NativeName>
    <ParentName>באר שבע, ישראל</ParentName>
    <AlternateName>גור יהודה</AlternateName>
    <Latitude>31.241340</Latitude>
    <Longitude>34.775049</Longitude>
  </Street>
  <Street>
    <NativeName>יהודה דה בוטון</NativeName>
    <ParentName>באר שבע, ישראל</ParentName>
    <Latitude>31.252628</Latitude>
    <Longitude>34.760349</Longitude>
  </Street>
  <Street>
    <NativeName>יהודה הלוי</NativeName>
    <ParentName>באר שבע, ישראל</ParentName>
    <Latitude>31.260840</Latitude>
    <Longitude>34.788030</Longitude>
  </Street>
  <Street>
    <NativeName>יהודה הנחתום</NativeName>
    <ParentName>באר שבע, ישראל</ParentName>
    <Latitude>31.255449</Latitude>
    <Longitude>34.814644</Longitude>
  </Street>
  <Street>
    <NativeName>יהודה הנשיא</NativeName>
    <ParentName>באר שבע, ישראל</ParentName>
    <Latitude>31.270438</Latitude>
    <Longitude>34.792601</Longitude>
  </Street>
  <Street>
    <NativeName>יהודי סוריה</NativeName>
    <ParentName>באר שבע, ישראל</ParentName>
    <Latitude>31.257244</Latitude>
    <Longitude>34.775644</Longitude>
  </Street>
  <Street>
    <NativeName>יהויכין</NativeName>
    <ParentName>באר שבע, ישראל</ParentName>
    <Latitude>31.262941</Latitude>
    <Longitude>34.785454</Longitude>
  </Street>
  <Street>
    <NativeName>יהורם</NativeName>
    <ParentName>באר שבע, ישראל</ParentName>
    <Latitude>31.262342</Latitude>
    <Longitude>34.780961</Longitude>
  </Street>
  <Street>
    <NativeName>יהושע ברטונוב</NativeName>
    <ParentName>באר שבע, ישראל</ParentName>
    <AlternateName>יהושוע ברטונוב</AlternateName>
    <Latitude>31.270265</Latitude>
    <Longitude>34.770030</Longitude>
  </Street>
  <Street>
    <NativeName>יהושע הצורף</NativeName>
    <ParentName>באר שבע, ישראל</ParentName>
    <AlternateName>יהושוע הצורף</AlternateName>
    <Latitude>31.257325</Latitude>
    <Longitude>34.814336</Longitude>
  </Street>
  <Street>
    <NativeName>יהושע חנקין</NativeName>
    <ParentName>באר שבע, ישראל</ParentName>
    <AlternateName>יהושוע חנקין</AlternateName>
    <Latitude>31.242693</Latitude>
    <Longitude>34.797855</Longitude>
  </Street>
  <Street>
    <NativeName>יהושע ייבין</NativeName>
    <ParentName>באר שבע, ישראל</ParentName>
    <AlternateName>יהושוע ייבין</AlternateName>
    <Latitude>31.238306</Latitude>
    <Longitude>34.765965</Longitude>
  </Street>
  <Street>
    <NativeName>יהושפט</NativeName>
    <ParentName>באר שבע, ישראל</ParentName>
    <Latitude>31.262872</Latitude>
    <Longitude>34.782889</Longitude>
  </Street>
  <Street>
    <NativeName>יואל השופט</NativeName>
    <ParentName>באר שבע, ישראל</ParentName>
    <Latitude>31.267509</Latitude>
    <Longitude>34.796070</Longitude>
  </Street>
  <Street>
    <NativeName>יואל רקח</NativeName>
    <ParentName>באר שבע, ישראל</ParentName>
    <Latitude>31.273106</Latitude>
    <Longitude>34.807654</Longitude>
  </Street>
  <Street>
    <NativeName>יוחנן אהרוני</NativeName>
    <ParentName>באר שבע, ישראל</ParentName>
    <Latitude>31.274757</Latitude>
    <Longitude>34.806297</Longitude>
  </Street>
  <Street>
    <NativeName>יוחנן הורקנוס</NativeName>
    <ParentName>באר שבע, ישראל</ParentName>
    <AlternateName>יוחנן הורקונס</AlternateName>
    <Latitude>31.266343</Latitude>
    <Longitude>34.795727</Longitude>
  </Street>
  <Street>
    <NativeName>יוחנן לינדנר</NativeName>
    <ParentName>באר שבע, ישראל</ParentName>
    <Latitude>31.274519</Latitude>
    <Longitude>34.802205</Longitude>
  </Street>
  <Street>
    <NativeName>יוטבתה</NativeName>
    <ParentName>באר שבע, ישראל</ParentName>
    <Latitude>31.267296</Latitude>
    <Longitude>34.795436</Longitude>
  </Street>
  <Street>
    <NativeName>יוכבד בת מרים</NativeName>
    <ParentName>באר שבע, ישראל</ParentName>
    <Latitude>31.268988</Latitude>
    <Longitude>34.770025</Longitude>
  </Street>
  <Street>
    <NativeName>יונה בנגלה</NativeName>
    <ParentName>באר שבע, ישראל</ParentName>
    <Latitude>31.262987</Latitude>
    <Longitude>34.773133</Longitude>
  </Street>
  <Street>
    <NativeName>יונה</NativeName>
    <ParentName>באר שבע, ישראל</ParentName>
    <Latitude>31.238726</Latitude>
    <Longitude>34.784856</Longitude>
  </Street>
  <Street>
    <NativeName>יוסף בן דוד</NativeName>
    <ParentName>באר שבע, ישראל</ParentName>
    <AlternateName>יוסף בן דויד</AlternateName>
    <Latitude>31.273053</Latitude>
    <Longitude>34.801268</Longitude>
  </Street>
  <Street>
    <NativeName>יוסף בן מתתיהו</NativeName>
    <ParentName>באר שבע, ישראל</ParentName>
    <AlternateName>יוסף בן מתיתיהו</AlternateName>
    <AlternateName>בן מתיתיהו</AlternateName>
    <AlternateName>בן מתתיהו</AlternateName>
    <Latitude>31.265130</Latitude>
    <Longitude>34.800262</Longitude>
  </Street>
  <Street>
    <NativeName>יוסף הרמלין</NativeName>
    <ParentName>באר שבע, ישראל</ParentName>
    <Latitude>31.266486</Latitude>
    <Longitude>34.813279</Longitude>
  </Street>
  <Street>
    <NativeName>יוסף ומאיר</NativeName>
    <ParentName>באר שבע, ישראל</ParentName>
    <Latitude>31.241574</Latitude>
    <Longitude>34.784697</Longitude>
  </Street>
  <Street>
    <NativeName>יוסף סרלין</NativeName>
    <ParentName>באר שבע, ישראל</ParentName>
    <Latitude>31.259813</Latitude>
    <Longitude>34.763052</Longitude>
  </Street>
  <Street>
    <NativeName>יוסף קלאוזנר</NativeName>
    <ParentName>באר שבע, ישראל</ParentName>
    <Latitude>31.267308</Latitude>
    <Longitude>34.799252</Longitude>
  </Street>
  <Street>
    <NativeName>יוסף שרשבסקי</NativeName>
    <ParentName>באר שבע, ישראל</ParentName>
    <Latitude>31.285897</Latitude>
    <Longitude>34.801256</Longitude>
  </Street>
  <Street>
    <NativeName>יוסף תקוע</NativeName>
    <ParentName>באר שבע, ישראל</ParentName>
    <Latitude>31.277445</Latitude>
    <Longitude>34.819786</Longitude>
  </Street>
  <Street>
    <NativeName>יוסף</NativeName>
    <ParentName>באר שבע, ישראל</ParentName>
    <Latitude>31.239056</Latitude>
    <Longitude>34.782958</Longitude>
  </Street>
  <Street>
    <NativeName>יוסקה יריב</NativeName>
    <ParentName>באר שבע, ישראל</ParentName>
    <Latitude>31.282006</Latitude>
    <Longitude>34.806328</Longitude>
  </Street>
  <Street>
    <NativeName>יחזקאל</NativeName>
    <ParentName>באר שבע, ישראל</ParentName>
    <Latitude>31.238702</Latitude>
    <Longitude>34.784347</Longitude>
  </Street>
  <Street>
    <NativeName>יחיאל דרזנר</NativeName>
    <ParentName>באר שבע, ישראל</ParentName>
    <Latitude>31.267263</Latitude>
    <Longitude>34.814885</Longitude>
  </Street>
  <Street>
    <NativeName>יל"ג</NativeName>
    <ParentName>באר שבע, ישראל</ParentName>
    <Latitude>31.240519</Latitude>
    <Longitude>34.773365</Longitude>
  </Street>
  <Street>
    <NativeName>ימית</NativeName>
    <ParentName>באר שבע, ישראל</ParentName>
    <Latitude>31.244863</Latitude>
    <Longitude>34.771366</Longitude>
  </Street>
  <Street>
    <NativeName>ינשוף</NativeName>
    <ParentName>באר שבע, ישראל</ParentName>
    <Latitude>31.229169</Latitude>
    <Longitude>34.765187</Longitude>
  </Street>
  <Street>
    <NativeName>יסמין</NativeName>
    <ParentName>באר שבע, ישראל</ParentName>
    <Latitude>31.232090</Latitude>
    <Longitude>34.793560</Longitude>
  </Street>
  <Street>
    <NativeName>יסעור</NativeName>
    <ParentName>באר שבע, ישראל</ParentName>
    <Latitude>31.229203</Latitude>
    <Longitude>34.766116</Longitude>
  </Street>
  <Street>
    <NativeName>יסקי</NativeName>
    <ParentName>באר שבע, ישראל</ParentName>
    <Latitude>31.243142</Latitude>
    <Longitude>34.787166</Longitude>
  </Street>
  <Street>
    <NativeName>יעבץ</NativeName>
    <ParentName>באר שבע, ישראל</ParentName>
    <Latitude>31.266748</Latitude>
    <Longitude>34.799196</Longitude>
  </Street>
  <Street>
    <NativeName>יעקב אבינו</NativeName>
    <ParentName>באר שבע, ישראל</ParentName>
    <Latitude>31.261961</Latitude>
    <Longitude>34.796922</Longitude>
  </Street>
  <Street>
    <NativeName>יעקב אורלנד</NativeName>
    <ParentName>באר שבע, ישראל</ParentName>
    <Latitude>31.248434</Latitude>
    <Longitude>34.756864</Longitude>
  </Street>
  <Street>
    <NativeName>יעקב אפרת</NativeName>
    <ParentName>באר שבע, ישראל</ParentName>
    <Latitude>31.270075</Latitude>
    <Longitude>34.771973</Longitude>
  </Street>
  <Street>
    <NativeName>יעקב גרשפלד</NativeName>
    <ParentName>באר שבע, ישראל</ParentName>
    <Latitude>31.249228</Latitude>
    <Longitude>34.810064</Longitude>
  </Street>
  <Street>
    <NativeName>יעקב דורי</NativeName>
    <ParentName>באר שבע, ישראל</ParentName>
    <Latitude>31.266003</Latitude>
    <Longitude>34.779229</Longitude>
  </Street>
  <Street>
    <NativeName>יעקב וייס</NativeName>
    <ParentName>באר שבע, ישראל</ParentName>
    <Latitude>31.269870</Latitude>
    <Longitude>34.814496</Longitude>
  </Street>
  <Street>
    <NativeName>יעקב חזמה</NativeName>
    <ParentName>באר שבע, ישראל</ParentName>
    <Latitude>31.222283</Latitude>
    <Longitude>34.774661</Longitude>
  </Street>
  <Street>
    <NativeName>יעקב חזן</NativeName>
    <ParentName>באר שבע, ישראל</ParentName>
    <Latitude>31.275540</Latitude>
    <Longitude>34.817598</Longitude>
  </Street>
  <Street>
    <NativeName>יעקב כהן</NativeName>
    <ParentName>באר שבע, ישראל</ParentName>
    <Latitude>31.255105</Latitude>
    <Longitude>34.797237</Longitude>
  </Street>
  <Street>
    <NativeName>יעקב מרש</NativeName>
    <ParentName>באר שבע, ישראל</ParentName>
    <Latitude>31.266565</Latitude>
    <Longitude>34.810423</Longitude>
  </Street>
  <Street>
    <NativeName>יעקב פיכמן</NativeName>
    <ParentName>באר שבע, ישראל</ParentName>
    <Latitude>31.236976</Latitude>
    <Longitude>34.775045</Longitude>
  </Street>
  <Street>
    <NativeName>יערה</NativeName>
    <ParentName>באר שבע, ישראל</ParentName>
    <Latitude>31.231216</Latitude>
    <Longitude>34.786373</Longitude>
  </Street>
  <Street>
    <NativeName>יפתח הגלעדי</NativeName>
    <ParentName>באר שבע, ישראל</ParentName>
    <Latitude>31.241116</Latitude>
    <Longitude>34.780104</Longitude>
  </Street>
  <Street>
    <NativeName>יצחק אבינו</NativeName>
    <ParentName>באר שבע, ישראל</ParentName>
    <Latitude>31.259995</Latitude>
    <Longitude>34.794670</Longitude>
  </Street>
  <Street>
    <NativeName>יצחק בן צבי</NativeName>
    <ParentName>באר שבע, ישראל</ParentName>
    <Latitude>31.244089</Latitude>
    <Longitude>34.797666</Longitude>
  </Street>
  <Street>
    <NativeName>יצחק דנציגר</NativeName>
    <ParentName>באר שבע, ישראל</ParentName>
    <Latitude>31.244923</Latitude>
    <Longitude>34.761496</Longitude>
  </Street>
  <Street>
    <NativeName>יצחק ולבר</NativeName>
    <ParentName>באר שבע, ישראל</ParentName>
    <Latitude>31.242331</Latitude>
    <Longitude>34.764664</Longitude>
  </Street>
  <Street>
    <NativeName>יצחק למדן</NativeName>
    <ParentName>באר שבע, ישראל</ParentName>
    <Latitude>31.256723</Latitude>
    <Longitude>34.797102</Longitude>
  </Street>
  <Street>
    <NativeName>יצחק מודעי</NativeName>
    <ParentName>באר שבע, ישראל</ParentName>
    <Latitude>31.267084</Latitude>
    <Longitude>34.809719</Longitude>
  </Street>
  <Street>
    <NativeName>יצחק נפחא</NativeName>
    <ParentName>באר שבע, ישראל</ParentName>
    <Latitude>31.249323</Latitude>
    <Longitude>34.811338</Longitude>
  </Street>
  <Street>
    <NativeName>יצחק סלמה</NativeName>
    <ParentName>באר שבע, ישראל</ParentName>
    <Latitude>31.223748</Latitude>
    <Longitude>34.800336</Longitude>
  </Street>
  <Street>
    <NativeName>יצחק רגר</NativeName>
    <ParentName>באר שבע, ישראל</ParentName>
    <AlternateName>רגר</AlternateName>
    <Latitude>31.258911</Latitude>
    <Longitude>34.797992</Longitude>
  </Street>
  <Street>
    <NativeName>יצחק שדה</NativeName>
    <ParentName>באר שבע, ישראל</ParentName>
    <Latitude>31.241500</Latitude>
    <Longitude>34.782209</Longitude>
  </Street>
  <Street>
    <NativeName>יצחק שיפר</NativeName>
    <ParentName>באר שבע, ישראל</ParentName>
    <AlternateName>יצחק שפיר</AlternateName>
    <Latitude>31.270834</Latitude>
    <Longitude>34.798101</Longitude>
  </Street>
  <Street>
    <NativeName>יצחק שתל</NativeName>
    <ParentName>באר שבע, ישראל</ParentName>
    <Latitude>31.277637</Latitude>
    <Longitude>34.820906</Longitude>
  </Street>
  <Street>
    <NativeName>יציאת אירופה</NativeName>
    <ParentName>באר שבע, ישראל</ParentName>
    <Latitude>31.252411</Latitude>
    <Longitude>34.783675</Longitude>
  </Street>
  <Street>
    <NativeName>יקותיאל אדם</NativeName>
    <ParentName>באר שבע, ישראל</ParentName>
    <Latitude>31.267759</Latitude>
    <Longitude>34.811436</Longitude>
  </Street>
  <Street>
    <NativeName>ירדן</NativeName>
    <ParentName>באר שבע, ישראל</ParentName>
    <Latitude>31.224452</Latitude>
    <Longitude>34.821062</Longitude>
  </Street>
  <Street>
    <NativeName>יריחו</NativeName>
    <ParentName>באר שבע, ישראל</ParentName>
    <Latitude>31.244469</Latitude>
    <Longitude>34.777553</Longitude>
  </Street>
  <Street>
    <NativeName>ירמיהו</NativeName>
    <ParentName>באר שבע, ישראל</ParentName>
    <Latitude>31.238173</Latitude>
    <Longitude>34.784303</Longitude>
  </Street>
  <CityRegion>
    <NativeName>ישיבת באר יצחק</NativeName>
    <ParentName>באר שבע, ישראל</ParentName>
    <Latitude>31.266083</Latitude>
    <Longitude>34.778503</Longitude>
  </CityRegion>
  <Street>
    <NativeName>ישמעאל</NativeName>
    <ParentName>באר שבע, ישראל</ParentName>
    <Latitude>31.235357</Latitude>
    <Longitude>34.798460</Longitude>
  </Street>
  <Street>
    <NativeName>ישעיהו זמיר</NativeName>
    <ParentName>באר שבע, ישראל</ParentName>
    <Latitude>31.274264</Latitude>
    <Longitude>34.818331</Longitude>
  </Street>
  <Street>
    <NativeName>ישעיהו</NativeName>
    <ParentName>באר שבע, ישראל</ParentName>
    <Latitude>31.237980</Latitude>
    <Longitude>34.783263</Longitude>
  </Street>
  <Street>
    <NativeName>ישראל אפשטיין</NativeName>
