<?xml version="1.0" encoding="UTF-8"?><LocationData>
  <Street>
    <NativeName>האירוס</NativeName>
    <ParentName>מטולה, ישראל</ParentName>
    <Latitude>33.277631</Latitude>
    <Longitude>35.570277</Longitude>
  </Street>
  <Street>
    <NativeName>הארזים</NativeName>
    <ParentName>מטולה, ישראל</ParentName>
    <Latitude>33.280977</Latitude>
    <Longitude>35.576134</Longitude>
  </Street>
  <Street>
    <NativeName>האשד</NativeName>
    <ParentName>מטולה, ישראל</ParentName>
    <Latitude>33.275769</Latitude>
    <Longitude>35.582320</Longitude>
  </Street>
  <Street>
    <NativeName>הבלוע</NativeName>
    <ParentName>מטולה, ישראל</ParentName>
    <Latitude>33.284145</Latitude>
    <Longitude>35.573783</Longitude>
  </Street>
  <Street>
    <NativeName>הגולן</NativeName>
    <ParentName>מטולה, ישראל</ParentName>
    <Latitude>33.280996</Latitude>
    <Longitude>35.573983</Longitude>
  </Street>
  <Street>
    <NativeName>הגורן</NativeName>
    <ParentName>מטולה, ישראל</ParentName>
    <Latitude>33.277556</Latitude>
    <Longitude>35.581193</Longitude>
  </Street>
  <Street>
    <NativeName>הגפן</NativeName>
    <ParentName>מטולה, ישראל</ParentName>
    <Latitude>33.273788</Latitude>
    <Longitude>35.583013</Longitude>
  </Street>
  <Street>
    <NativeName>הדובדבן</NativeName>
    <ParentName>מטולה, ישראל</ParentName>
    <Latitude>33.282487</Latitude>
    <Longitude>35.576179</Longitude>
  </Street>
  <Street>
    <NativeName>הזית</NativeName>
    <ParentName>מטולה, ישראל</ParentName>
    <Latitude>33.274269</Latitude>
    <Longitude>35.579217</Longitude>
  </Street>
  <Street>
    <NativeName>החורשה</NativeName>
    <ParentName>מטולה, ישראל</ParentName>
    <Latitude>33.277451</Latitude>
    <Longitude>35.578592</Longitude>
  </Street>
  <Street>
    <NativeName>החצבים</NativeName>
    <ParentName>מטולה, ישראל</ParentName>
    <Latitude>33.274871</Latitude>
    <Longitude>35.581986</Longitude>
  </Street>
  <Street>
    <NativeName>החרמון</NativeName>
    <ParentName>מטולה, ישראל</ParentName>
    <Latitude>33.283901</Latitude>
    <Longitude>35.575404</Longitude>
  </Street>
  <Street>
    <NativeName>הטחנה</NativeName>
    <ParentName>מטולה, ישראל</ParentName>
    <Latitude>33.277594</Latitude>
    <Longitude>35.581595</Longitude>
  </Street>
  <Street>
    <NativeName>הכלנית</NativeName>
    <ParentName>מטולה, ישראל</ParentName>
    <Latitude>33.272854</Latitude>
    <Longitude>35.581820</Longitude>
  </Street>
  <Street>
    <NativeName>הלבנון</NativeName>
    <ParentName>מטולה, ישראל</ParentName>
    <Latitude>33.283680</Latitude>
    <Longitude>35.574613</Longitude>
  </Street>
  <Street>
    <NativeName>המורג</NativeName>
    <ParentName>מטולה, ישראל</ParentName>
    <Latitude>33.279003</Latitude>
    <Longitude>35.580128</Longitude>
  </Street>
  <Street>
    <NativeName>המעיין</NativeName>
    <ParentName>מטולה, ישראל</ParentName>
    <Latitude>33.276355</Latitude>
    <Longitude>35.579882</Longitude>
  </Street>
  <Street>
    <NativeName>המפל</NativeName>
    <ParentName>מטולה, ישראל</ParentName>
    <Latitude>33.274879</Latitude>
    <Longitude>35.583857</Longitude>
  </Street>
  <Street>
    <NativeName>הנדיב</NativeName>
    <ParentName>מטולה, ישראל</ParentName>
    <Latitude>33.280310</Latitude>
    <Longitude>35.577862</Longitude>
  </Street>
  <Street>
    <NativeName>הנורית</NativeName>
    <ParentName>מטולה, ישראל</ParentName>
    <Latitude>33.276316</Latitude>
    <Longitude>35.570321</Longitude>
  </Street>
  <Street>
    <NativeName>הנרקיס</NativeName>
    <ParentName>מטולה, ישראל</ParentName>
    <Latitude>33.277123</Latitude>
    <Longitude>35.570638</Longitude>
  </Street>
  <Street>
    <NativeName>הסביון</NativeName>
    <ParentName>מטולה, ישראל</ParentName>
    <Latitude>33.272677</Latitude>
    <Longitude>35.581505</Longitude>
  </Street>
  <Street>
    <NativeName>הסחלב</NativeName>
    <ParentName>מטולה, ישראל</ParentName>
    <Latitude>33.278448</Latitude>
    <Longitude>35.572085</Longitude>
  </Street>
  <Street>
    <NativeName>הצבעונים</NativeName>
    <ParentName>מטולה, ישראל</ParentName>
    <Latitude>33.277802</Latitude>
    <Longitude>35.577642</Longitude>
  </Street>
  <Street>
    <NativeName>הראשונים</NativeName>
    <ParentName>מטולה, ישראל</ParentName>
    <Latitude>33.280976</Latitude>
    <Longitude>35.579132</Longitude>
  </Street>
  <Street>
    <NativeName>הרקפת</NativeName>
    <ParentName>מטולה, ישראל</ParentName>
    <Latitude>33.273548</Latitude>
    <Longitude>35.582122</Longitude>
  </Street>
  <Street>
    <NativeName>התאנה</NativeName>
    <ParentName>מטולה, ישראל</ParentName>
    <Latitude>33.273657</Latitude>
    <Longitude>35.579711</Longitude>
  </Street>
  <Street>
    <NativeName>התנור</NativeName>
    <ParentName>מטולה, ישראל</ParentName>
    <Latitude>33.272440</Latitude>
    <Longitude>35.580446</Longitude>
  </Street>
  <Street>
    <NativeName>מעלה ארז</NativeName>
    <ParentName>מטולה, ישראל</ParentName>
    <Latitude>33.278024</Latitude>
    <Longitude>35.575393</Longitude>
  </Street>
  <Street>
    <NativeName>מעלה דדו</NativeName>
    <ParentName>מטולה, ישראל</ParentName>
    <Latitude>33.277104</Latitude>
    <Longitude>35.573549</Longitude>
  </Street>
  <Street>
    <NativeName>מעלה הצפייה</NativeName>
    <ParentName>מטולה, ישראל</ParentName>
    <Latitude>33.277595</Latitude>
    <Longitude>35.569337</Longitude>
  </Street>
  <Street>
    <NativeName>מצפה החולה</NativeName>
    <ParentName>מטולה, ישראל</ParentName>
    <Latitude>33.275732</Latitude>
    <Longitude>35.578211</Longitude>
  </Street>
  <Street>
    <NativeName>מצפה נפתלי</NativeName>
    <ParentName>מטולה, ישראל</ParentName>
    <Latitude>33.277965</Latitude>
    <Longitude>35.576966</Longitude>
  </Street>
  <Street>
    <NativeName>עיון</NativeName>
    <ParentName>מטולה, ישראל</ParentName>
    <Latitude>33.282907</Latitude>
    <Longitude>35.579760</Longitude>
  </Street>
</LocationData>
